Vers 60
USE_SERIAL_FEEDBACK=true
DEVELOPMENT_MODE=false
USE_RMC_ONLY=false

$GPRMC,142742.000,A,4308.2996,N,07726.2653,W,0.01,2.95,160818,,,D*7B
$GPGGA,142742.250,4308.2996,N,07726.2653,W,2,09,1.25,147.8,M,-34.4,M,0000,0000*5A
$GPRMC,142742.500,A,4308.2996,N,07726.2653,W,0.02,2.95,160818,,,D*7D
$GPGGA,142742.750,4308.2996,N,07726.2653,W,2,09,1.25,147.8,M,-34.4,M,0000,0000*5F
$GPRMC,142743.000,A,4308.2996,N,07726.2653,W,0.01,2.95,160818,,,D*7A
$GPGGA,142743.250,4308.2996,N,07726.2653,W,2,09,1.25,147.8,M,-34.4,M,0000,0000*5B
$GPRMC,142743.500,A,4308.2996,N,07726.2653,W,0.00,2.95,160818,,,A*7B
$GPGGA,142743.750,4308.2996,N,07726.2653,W,1,09,1.25,147.8,M,-34.4,M,,*5D
$GPRMC,142744.000,A,4308.2996,N,07726.2653,W,0.01,2.95,160818,,,A*78
$GPGGA,142744.250,4308.2996,N,07726.2653,W,1,10,0.86,147.8,M,-34.4,M,,*5F
$GPRMC,142744.500,A,4308.2996,N,07726.2653,W,0.02,2.95,160818,,,A*7E
$GPGGA,142744.750,4308.2996,N,07726.2653,W,1,10,0.86,147.8,M,-34.4,M,,*5A
$GPRMC,142745.000,A,4308.2996,N,07726.2653,W,0.01,2.95,160818,,,A*79
$GPGGA,142745.250,4308.2996,N,07726.2653,W,1,09,1.25,147.8,M,-34.4,M,,*5E
$GPRMC,142745.500,A,4308.2996,N,07726.2653,W,0.02,2.95,160818,,,A*7F
$GPGGA,142745.750,4308.2996,N,07726.2653,W,1,10,0.86,147.8,M,-34.4,M,,*5B
$GPRMC,142746.000,A,4308.2996,N,07726.2653,W,0.01,2.95,160818,,,A*7A
$GPGGA,142746.250,4308.2996,N,07726.2653,W,1,10,0.86,147.8,M,-34.4,M,,*5D
$GPRMC,142746.500,A,4308.2996,N,07726.2653,W,0.00,2.95,160818,,,A*7E
$GPGGA,142746.750,4308.2996,N,07726.2653,W,1,10,0.86,147.8,M,-34.4,M,,*58
$GPRMC,142747.000,A,4308.2996,N,07726.2653,W,0.00,2.95,160818,,,A*7A
$GPGGA,142747.250,4308.2996,N,07726.2653,W,1,10,0.86,147.8,M,-34.4,M,,*5C
$GPRMC,142747.500,A,4308.2996,N,07726.2653,W,0.01,2.95,160818,,,A*7E
$GPGGA,142747.750,4308.2996,N,07726.2653,W,1,10,0.86,147.8,M,-34.4,M,,*59
$GPRMC,142748.000,A,4308.2996,N,07726.2653,W,0.01,2.95,160818,,,A*74
$GPGGA,142748.250,4308.2996,N,07726.2653,W,1,11,0.78,147.8,M,-34.4,M,,*53
$GPRMC,142748.500,A,4308.2996,N,07726.2653,W,0.02,2.95,160818,,,A*72
$GPGGA,142748.750,4308.2996,N,07726.2653,W,1,11,0.78,147.8,M,-34.4,M,,*56
$GPRMC,142749.000,A,4308.2996,N,07726.2653,W,0.01,2.95,160818,,,A*75
$GPGGA,142749.250,4308.2996,N,07726.2653,W,1,11,0.78,147.8,M,-34.4,M,,*52
$GPRMC,142749.500,A,4308.2996,N,07726.2653,W,0.01,2.95,160818,,,A*70
$GPGGA,142749.750,4308.2996,N,07726.2653,W,1,11,0.78,147.8,M,-34.4,M,,*57
$GPRMC,142750.000,A,4308.2996,N,07726.2653,W,0.00,2.95,160818,,,A*7C
$GPGGA,142750.250,4308.2996,N,07726.2653,W,1,11,0.78,147.8,M,-34.4,M,,*5A
$GPRMC,142750.500,A,4308.2996,N,07726.2653,W,0.01,2.95,160818,,,A*78
$GPGGA,142750.750,4308.2996,N,07726.2653,W,1,11,0.78,147.8,M,-34.4,M,,*5F
$GPRMC,142751.000,A,4308.2996,N,07726.2653,W,0.00,2.95,160818,,,A*7D
$GPGGA,142751.250,4308.2996,N,07726.2653,W,1,11,0.78,147.8,M,-34.4,M,,*5B
$GPRMC,142751.500,A,4308.2996,N,07726.2653,W,0.00,2.95,160818,,,A*78
$GPGGA,142751.750,4308.2996,N,07726.2653,W,1,11,0.78,147.8,M,-34.4,M,,*5E
$GPRMC,142752.000,A,4308.2996,N,07726.2653,W,0.00,2.95,160818,,,A*7E
$GPGGA,142752.250,4308.2996,N,07726.2653,W,1,11,0.78,147.8,M,-34.4,M,,*58
$GPRMC,142752.500,A,4308.2996,N,07726.2653,W,0.00,2.95,160818,,,A*7B
$GPGGA,142752.750,4308.2996,N,07726.2653,W,1,11,0.78,147.8,M,-34.4,M,,*5D
$GPRMC,142753.000,A,4308.2996,N,07726.2653,W,0.00,2.95,160818,,,A*7F
$GPGGA,142753.250,4308.2996,N,07726.2653,W,1,11,0.78,147.8,M,-34.4,M,,*59
$GPRMC,142753.500,A,4308.2996,N,07726.2653,W,0.00,2.95,160818,,,A*7A
$GPGGA,142753.750,4308.2996,N,07726.2653,W,1,11,0.78,147.8,M,-34.4,M,,*5C
$GPRMC,142754.000,A,4308.2996,N,07726.2653,W,0.00,2.95,160818,,,A*78
$GPGGA,142754.250,4308.2996,N,07726.2653,W,1,11,0.78,147.8,M,-34.4,M,,*5E
$GPRMC,142754.500,A,4308.2996,N,07726.2653,W,0.00,2.95,160818,,,A*7D
$GPGGA,142754.750,4308.2996,N,07726.2653,W,1,11,0.78,147.8,M,-34.4,M,,*5B
$GPRMC,142755.000,A,4308.2996,N,07726.2653,W,0.00,2.95,160818,,,A*79
$GPGGA,142755.250,4308.2996,N,07726.2653,W,1,11,0.78,147.8,M,-34.4,M,,*5F
$GPRMC,142755.500,A,4308.2996,N,07726.2653,W,0.00,2.95,160818,,,A*7C
$GPGGA,142755.750,4308.2996,N,07726.2653,W,1,11,0.78,147.8,M,-34.4,M,,*5A
$GPRMC,142756.000,A,4308.2996,N,07726.2653,W,0.00,2.95,160818,,,A*7A
$GPGGA,142756.250,4308.2996,N,07726.2653,W,1,11,0.78,147.8,M,-34.4,M,,*5C
$GPRMC,142756.500,A,4308.2996,N,07726.2653,W,0.00,2.95,160818,,,A*7F
$GPGGA,142756.750,4308.2996,N,07726.2653,W,1,11,0.78,147.8,M,-34.4,M,,*59
$GPRMC,142757.000,A,4308.2996,N,07726.2653,W,0.00,2.95,160818,,,A*7B
$GPGGA,142757.250,4308.2996,N,07726.2653,W,1,10,0.86,147.8,M,-34.4,M,,*5D
$GPRMC,142757.500,A,4308.2996,N,07726.2653,W,0.01,2.95,160818,,,A*7F
$GPGGA,142757.750,4308.2996,N,07726.2653,W,1,10,0.86,147.8,M,-34.4,M,,*58
$GPRMC,142758.000,A,4308.2996,N,07726.2653,W,0.01,2.95,160818,,,A*75
$GPGGA,142758.250,4308.2996,N,07726.2653,W,1,11,0.78,147.8,M,-34.4,M,,*52
$GPRMC,142758.500,A,4308.2996,N,07726.2653,W,0.00,2.95,160818,,,A*71
$GPGGA,142758.750,4308.2996,N,07726.2653,W,1,11,0.78,147.8,M,-34.4,M,,*57
$GPRMC,142759.000,A,4308.2996,N,07726.2653,W,0.01,2.95,160818,,,A*74
$GPGGA,142759.250,4308.2996,N,07726.2653,W,1,11,0.78,147.8,M,-34.4,M,,*53
$GPRMC,142759.500,A,4308.2996,N,07726.2653,W,0.01,2.95,160818,,,A*71
$GPGGA,142759.750,4308.2996,N,07726.2653,W,1,11,0.78,147.8,M,-34.4,M,,*56
$GPRMC,142800.000,A,4308.2996,N,07726.2653,W,0.01,2.95,160818,,,A*77
$GPGGA,142800.250,4308.2996,N,07726.2653,W,1,11,0.78,147.8,M,-34.4,M,,*50
$GPRMC,142800.500,A,4308.2996,N,07726.2653,W,0.02,2.95,160818,,,A*71
$GPGGA,142800.750,4308.2996,N,07726.2653,W,1,11,0.78,147.9,M,-34.4,M,,*54
$GPRMC,142801.000,A,4308.2996,N,07726.2653,W,0.00,2.95,160818,,,A*77
$GPGGA,142801.250,4308.2996,N,07726.2653,W,1,11,0.78,147.9,M,-34.4,M,,*50
$GPRMC,142801.500,A,4308.2996,N,07726.2653,W,0.00,2.95,160818,,,A*72
$GPGGA,142801.750,4308.2996,N,07726.2653,W,1,11,0.78,147.9,M,-34.4,M,,*55
$GPRMC,142802.000,A,4308.2996,N,07726.2653,W,0.00,2.95,160818,,,A*74
$GPGGA,142802.250,4308.2996,N,07726.2653,W,1,11,0.78,147.9,M,-34.4,M,,*53
$GPRMC,142802.500,A,4308.2996,N,07726.2653,W,0.00,2.95,160818,,,A*71
$GPGGA,142802.750,4308.2996,N,07726.2653,W,1,11,0.78,147.9,M,-34.4,M,,*56
$GPRMC,142803.000,A,4308.2996,N,07726.2653,W,0.00,2.95,160818,,,A*75
$GPGGA,142803.250,4308.2996,N,07726.2653,W,1,11,0.78,147.9,M,-34.4,M,,*52
$GPRMC,142803.500,A,4308.2996,N,07726.2653,W,0.00,2.95,160818,,,A*70
$GPGGA,142803.750,4308.2996,N,07726.2653,W,1,11,0.78,147.9,M,-34.4,M,,*57
$GPRMC,142804.000,A,4308.2996,N,07726.2653,W,0.00,2.95,160818,,,A*72
$GPGGA,142804.250,4308.2996,N,07726.2653,W,1,11,0.78,147.9,M,-34.4,M,,*55
$GPRMC,142804.500,A,4308.2996,N,07726.2653,W,0.01,2.95,160818,,,A*76
$GPGGA,142804.750,4308.2996,N,07726.2653,W,1,11,0.78,147.9,M,-34.4,M,,*50
$GPRMC,142805.000,A,4308.2996,N,07726.2653,W,0.00,2.95,160818,,,A*73
$GPGGA,142805.250,4308.2996,N,07726.2653,W,1,11,0.78,147.9,M,-34.4,M,,*54
$GPRMC,142805.500,A,4308.2996,N,07726.2653,W,0.01,2.95,160818,,,A*77
$GPGGA,142805.750,4308.2996,N,07726.2653,W,1,11,0.78,147.9,M,-34.4,M,,*51
$GPRMC,142806.000,A,4308.2996,N,07726.2653,W,0.01,2.95,160818,,,A*71
$GPGGA,142806.250,4308.2996,N,07726.2653,W,1,11,0.78,147.9,M,-34.4,M,,*57
$GPRMC,142806.500,A,4308.2996,N,07726.2653,W,0.01,2.95,160818,,,A*74
$GPGGA,142806.750,4308.2996,N,07726.2653,W,1,11,0.78,147.9,M,-34.4,M,,*52
$GPRMC,142807.000,A,4308.2996,N,07726.2653,W,0.01,2.95,160818,,,A*70
$GPGGA,142807.250,4308.2996,N,07726.2653,W,1,11,0.78,147.9,M,-34.4,M,,*56
$GPRMC,142807.500,A,4308.2996,N,07726.2653,W,0.01,2.95,160818,,,A*75
$GPGGA,142807.750,4308.2996,N,07726.2653,W,1,11,0.78,147.9,M,-34.4,M,,*53
$GPRMC,142808.000,A,4308.2996,N,07726.2653,W,0.00,2.95,160818,,,A*7E
$GPGGA,142808.250,4308.2996,N,07726.2653,W,1,11,0.78,147.9,M,-34.4,M,,*59
$GPRMC,142808.500,A,4308.2996,N,07726.2653,W,0.01,2.95,160818,,,A*7A
$GPGGA,142808.750,4308.2996,N,07726.2653,W,1,11,0.78,147.9,M,-34.4,M,,*5C
$GPRMC,142809.000,A,4308.2996,N,07726.2653,W,0.00,2.95,160818,,,A*7F
$GPGGA,142809.250,4308.2996,N,07726.2653,W,1,11,0.78,147.9,M,-34.4,M,,*58
$GPRMC,142809.500,A,4308.2996,N,07726.2653,W,0.00,2.95,160818,,,A*7A
$GPGGA,142809.750,4308.2996,N,07726.2653,W,1,11,0.78,147.9,M,-34.4,M,,*5D
$GPRMC,142810.000,A,4308.2996,N,07726.2653,W,0.00,2.95,160818,,,A*77
$GPGGA,142810.250,4308.2996,N,07726.2653,W,1,11,0.78,147.9,M,-34.4,M,,*50
$GPRMC,142810.500,A,4308.2996,N,07726.2653,W,0.01,2.95,160818,,,A*73
$GPGGA,142810.750,4308.2996,N,07726.2653,W,1,11,0.78,147.9,M,-34.4,M,,*55
$GPRMC,142811.000,A,4308.2996,N,07726.2653,W,0.00,2.95,160818,,,A*76
$GPGGA,142811.250,4308.2996,N,07726.2653,W,1,11,0.78,147.9,M,-34.4,M,,*51
$GPRMC,142811.500,A,4308.2996,N,07726.2653,W,0.00,2.95,160818,,,A*73
$GPGGA,142811.750,4308.2996,N,07726.2653,W,1,11,0.78,147.9,M,-34.4,M,,*54
$GPRMC,142812.000,A,4308.2996,N,07726.2653,W,0.01,2.95,160818,,,A*74
$GPGGA,142812.250,4308.2996,N,07726.2653,W,1,11,0.78,147.9,M,-34.4,M,,*52
$GPRMC,142812.500,A,4308.2996,N,07726.2653,W,0.00,2.95,160818,,,A*70
$GPGGA,142812.750,4308.2996,N,07726.2653,W,1,11,0.78,147.9,M,-34.4,M,,*57
$GPRMC,142813.000,A,4308.2996,N,07726.2653,W,0.00,2.95,160818,,,A*74
$GPGGA,142813.250,4308.2996,N,07726.2653,W,1,11,0.78,147.9,M,-34.4,M,,*53
$GPRMC,142813.500,A,4308.2996,N,07726.2653,W,0.00,2.95,160818,,,A*71
$GPGGA,142813.750,4308.2996,N,07726.2653,W,1,11,0.78,147.9,M,-34.4,M,,*56
$GPRMC,142814.000,A,4308.2996,N,07726.2653,W,0.00,2.95,160818,,,A*73
$GPGGA,142814.250,4308.2997,N,07726.2653,W,1,11,0.78,147.9,M,-34.4,M,,*55
$GPRMC,142814.500,A,4308.2997,N,07726.2653,W,0.00,2.95,160818,,,A*77
$GPGGA,142814.750,4308.2997,N,07726.2653,W,1,11,0.78,147.9,M,-34.4,M,,*50
$GPRMC,142815.000,A,4308.2997,N,07726.2653,W,0.00,2.95,160818,,,A*73
$GPGGA,142815.250,4308.2997,N,07726.2653,W,1,11,0.78,147.9,M,-34.4,M,,*54
$GPRMC,142815.500,A,4308.2997,N,07726.2653,W,0.01,2.95,160818,,,A*77
$GPGGA,142815.750,4308.2997,N,07726.2653,W,1,11,0.78,147.9,M,-34.4,M,,*51
$GPRMC,142816.000,A,4308.2997,N,07726.2653,W,0.01,2.95,160818,,,A*71
$GPGGA,142816.250,4308.2997,N,07726.2653,W,1,11,0.78,147.9,M,-34.4,M,,*57
$GPRMC,142816.500,A,4308.2997,N,07726.2653,W,0.01,2.95,160818,,,A*74
$GPGGA,142816.750,4308.2997,N,07726.2653,W,1,11,0.78,147.9,M,-34.4,M,,*52
$GPRMC,142817.000,A,4308.2997,N,07726.2653,W,0.01,2.95,160818,,,A*70
$GPGGA,142817.250,4308.2997,N,07726.2653,W,1,11,0.78,147.9,M,-34.4,M,,*56
$GPRMC,142817.500,A,4308.2997,N,07726.2653,W,0.01,2.95,160818,,,A*75
$GPGGA,142817.750,4308.2997,N,07726.2653,W,1,11,0.78,147.9,M,-34.4,M,,*53
$GPRMC,142818.000,A,4308.2997,N,07726.2653,W,0.01,2.95,160818,,,A*7F
$GPGGA,142818.250,4308.2997,N,07726.2653,W,1,11,0.78,147.9,M,-34.4,M,,*59
$GPRMC,142818.500,A,4308.2997,N,07726.2653,W,0.01,2.95,160818,,,A*7A
$GPGGA,142818.750,4308.2997,N,07726.2653,W,1,11,0.78,147.9,M,-34.4,M,,*5C
$GPRMC,142819.000,A,4308.2997,N,07726.2653,W,0.00,2.95,160818,,,A*7F
$GPGGA,142819.250,4308.2997,N,07726.2653,W,1,11,0.78,147.9,M,-34.4,M,,*58
$GPRMC,142819.500,A,4308.2997,N,07726.2653,W,0.00,2.95,160818,,,A*7A
$GPGGA,142819.750,4308.2997,N,07726.2653,W,1,11,0.78,147.9,M,-34.4,M,,*5D
$GPRMC,142820.000,A,4308.2997,N,07726.2653,W,0.02,2.95,160818,,,A*77
$GPGGA,142820.250,4308.2997,N,07726.2653,W,1,11,0.78,147.9,M,-34.4,M,,*52
$GPRMC,142820.500,A,4308.2997,N,07726.2653,W,0.01,2.95,160818,,,A*71
$GPGGA,142820.750,4308.2997,N,07726.2653,W,1,11,0.78,147.9,M,-34.4,M,,*57
$GPRMC,142821.000,A,4308.2997,N,07726.2653,W,0.01,2.95,160818,,,A*75
$GPGGA,142821.250,4308.2997,N,07726.2653,W,1,11,0.78,147.9,M,-34.4,M,,*53
$GPRMC,142821.500,A,4308.2997,N,07726.2653,W,0.02,2.95,160818,,,A*73
$GPGGA,142821.750,4308.2997,N,07726.2653,W,1,11,0.78,147.9,M,-34.4,M,,*56
$GPRMC,142822.000,A,4308.2997,N,07726.2653,W,0.01,2.95,160818,,,A*76
$GPGGA,142822.250,4308.2997,N,07726.2653,W,1,11,0.78,147.9,M,-34.4,M,,*50
$GPRMC,142822.500,A,4308.2997,N,07726.2653,W,0.01,2.95,160818,,,A*73
$GPGGA,142822.750,4308.2997,N,07726.2653,W,1,11,0.78,147.9,M,-34.4,M,,*55
$GPRMC,142823.000,A,4308.2997,N,07726.2653,W,0.00,2.95,160818,,,A*76
$GPGGA,142823.250,4308.2997,N,07726.2653,W,1,10,0.88,147.9,M,-34.4,M,,*5F
$GPRMC,142823.500,A,4308.2997,N,07726.2653,W,0.01,2.95,160818,,,A*72
$GPGGA,142823.750,4308.2997,N,07726.2653,W,1,10,0.88,147.9,M,-34.4,M,,*5A
$GPRMC,142824.000,A,4308.2997,N,07726.2653,W,0.00,2.95,160818,,,A*71
$GPGGA,142824.250,4308.2997,N,07726.2653,W,1,10,0.88,147.9,M,-34.4,M,,*58
$GPRMC,142824.500,A,4308.2997,N,07726.2653,W,0.00,2.95,160818,,,A*74
$GPGGA,142824.750,4308.2997,N,07726.2653,W,1,10,0.88,147.9,M,-34.4,M,,*5D
$GPRMC,142825.000,A,4308.2997,N,07726.2653,W,0.01,2.95,160818,,,A*71
$GPGGA,142825.250,4308.2997,N,07726.2653,W,1,10,0.88,147.9,M,-34.4,M,,*59
$GPRMC,142825.500,A,4308.2997,N,07726.2653,W,0.00,2.95,160818,,,A*75
$GPGGA,142825.750,4308.2997,N,07726.2653,W,1,10,0.88,147.9,M,-34.4,M,,*5C
$GPRMC,142826.000,A,4308.2997,N,07726.2653,W,0.01,2.95,160818,,,A*72
$GPGGA,142826.250,4308.2997,N,07726.2653,W,1,10,0.88,147.9,M,-34.4,M,,*5A
$GPRMC,142826.500,A,4308.2997,N,07726.2653,W,0.01,2.95,160818,,,A*77
$GPGGA,142826.750,4308.2997,N,07726.2653,W,1,10,0.88,147.9,M,-34.4,M,,*5F
$GPRMC,142827.000,A,4308.2997,N,07726.2653,W,0.01,2.95,160818,,,A*73
$GPGGA,142827.250,4308.2997,N,07726.2653,W,1,10,0.88,147.9,M,-34.4,M,,*5B
$GPRMC,142827.500,A,4308.2997,N,07726.2653,W,0.00,2.95,160818,,,A*77
$GPGGA,142827.750,4308.2997,N,07726.2653,W,1,10,0.88,147.9,M,-34.4,M,,*5E
$GPRMC,142828.000,A,4308.2997,N,07726.2653,W,0.00,2.95,160818,,,A*7D
$GPGGA,142828.250,4308.2997,N,07726.2653,W,1,10,0.88,147.9,M,-34.4,M,,*54
$GPRMC,142828.500,A,4308.2997,N,07726.2653,W,0.00,2.95,160818,,,A*78
$GPGGA,142828.750,4308.2997,N,07726.2653,W,1,11,0.78,147.9,M,-34.4,M,,*5F
$GPRMC,142829.000,A,4308.2997,N,07726.2653,W,0.00,2.95,160818,,,A*7C
$GPGGA,142829.250,4308.2997,N,07726.2653,W,1,11,0.78,147.9,M,-34.4,M,,*5B
$GPRMC,142829.500,A,4308.2997,N,07726.2653,W,0.00,2.95,160818,,,A*79
$GPGGA,142829.750,4308.2997,N,07726.2653,W,1,11,0.78,147.9,M,-34.4,M,,*5E
$GPRMC,142830.000,A,4308.2997,N,07726.2653,W,0.00,2.95,160818,,,A*74
$GPGGA,142830.250,4308.2997,N,07726.2653,W,1,11,0.78,147.9,M,-34.4,M,,*53
$GPRMC,142830.500,A,4308.2997,N,07726.2653,W,0.00,2.95,160818,,,A*71
$GPGGA,142830.750,4308.2997,N,07726.2653,W,1,11,0.78,147.9,M,-34.4,M,,*56
$GPRMC,142831.000,A,4308.2997,N,07726.2653,W,0.00,2.95,160818,,,A*75
$GPGGA,142831.250,4308.2997,N,07726.2653,W,1,11,0.78,147.9,M,-34.4,M,,*52
$GPRMC,142831.500,A,4308.2997,N,07726.2653,W,0.00,2.95,160818,,,A*70
$GPGGA,142831.750,4308.2997,N,07726.2653,W,1,11,0.78,147.9,M,-34.4,M,,*57
$GPRMC,142832.000,A,4308.2997,N,07726.2653,W,0.00,2.95,160818,,,A*76
$GPGGA,142832.250,4308.2997,N,07726.2653,W,1,11,0.78,147.9,M,-34.4,M,,*51
$GPRMC,142832.500,A,4308.2997,N,07726.2653,W,0.00,2.95,160818,,,A*73
$GPGGA,142832.750,4308.2997,N,07726.2653,W,1,11,0.78,147.9,M,-34.4,M,,*54
$GPRMC,142833.000,A,4308.2997,N,07726.2653,W,0.00,2.95,160818,,,A*77
$GPGGA,142833.250,4308.2997,N,07726.2653,W,1,11,0.78,147.9,M,-34.4,M,,*50
$GPRMC,142833.500,A,4308.2997,N,07726.2653,W,0.00,2.95,160818,,,A*72
$GPGGA,142833.750,4308.2997,N,07726.2653,W,1,11,0.78,147.9,M,-34.4,M,,*55
$GPRMC,142834.000,A,4308.2997,N,07726.2653,W,0.00,2.95,160818,,,A*70
$GPGGA,142834.250,4308.2997,N,07726.2653,W,1,11,0.78,147.9,M,-34.4,M,,*57
$GPRMC,142834.500,A,4308.2997,N,07726.2653,W,0.00,2.95,160818,,,A*75
$GPGGA,142834.750,4308.2997,N,07726.2653,W,1,11,0.78,147.9,M,-34.4,M,,*52
$GPRMC,142835.000,A,4308.2997,N,07726.2653,W,0.00,2.95,160818,,,A*71
$GPGGA,142835.250,4308.2997,N,07726.2653,W,1,11,0.78,147.9,M,-34.4,M,,*56
$GPRMC,142835.500,A,4308.2997,N,07726.2653,W,0.00,2.95,160818,,,A*74
$GPGGA,142835.750,4308.2997,N,07726.2653,W,1,11,0.78,147.9,M,-34.4,M,,*53
$GPRMC,142836.000,A,4308.2997,N,07726.2653,W,0.00,2.95,160818,,,A*72
$GPGGA,142836.250,4308.2997,N,07726.2653,W,1,11,0.78,147.9,M,-34.4,M,,*55
$GPRMC,142836.500,A,4308.2997,N,07726.2653,W,0.00,2.95,160818,,,A*77
$GPGGA,142836.750,4308.2997,N,07726.2653,W,1,11,0.78,147.9,M,-34.4,M,,*50
$GPRMC,142837.000,A,4308.2997,N,07726.2653,W,0.00,2.95,160818,,,A*73
$GPGGA,142837.250,4308.2997,N,07726.2653,W,1,11,0.78,147.9,M,-34.4,M,,*54
$GPRMC,142837.500,A,4308.2997,N,07726.2653,W,0.00,2.95,160818,,,A*76
$GPGGA,142837.750,4308.2997,N,07726.2653,W,1,11,0.78,147.9,M,-34.4,M,,*51
$GPRMC,142838.000,A,4308.2997,N,07726.2653,W,0.00,2.95,160818,,,A*7C
$GPGGA,142838.250,4308.2997,N,07726.2653,W,1,11,0.78,147.9,M,-34.4,M,,*5B
$GPRMC,142838.500,A,4308.2997,N,07726.2653,W,0.00,2.95,160818,,,A*79
$GPGGA,142838.750,4308.2997,N,07726.2653,W,1,11,0.78,147.9,M,-34.4,M,,*5E
$GPRMC,142839.000,A,4308.2997,N,07726.2653,W,0.00,2.95,160818,,,A*7D
$GPGGA,142839.250,4308.2997,N,07726.2653,W,1,11,0.78,147.9,M,-34.4,M,,*5A
$GPRMC,142839.500,A,4308.2997,N,07726.2653,W,0.00,2.95,160818,,,A*78
$GPGGA,142839.750,4308.2997,N,07726.2653,W,1,11,0.78,147.9,M,-34.4,M,,*5F
$GPRMC,142840.000,A,4308.2997,N,07726.2653,W,0.00,2.95,160818,,,A*73
$GPGGA,142840.250,4308.2997,N,07726.2653,W,1,11,0.78,147.9,M,-34.4,M,,*54
$GPRMC,142840.500,A,4308.2997,N,07726.2653,W,0.00,2.95,160818,,,A*76
$GPGGA,142840.750,4308.2997,N,07726.2653,W,1,11,0.78,147.9,M,-34.4,M,,*51
$GPRMC,142841.000,A,4308.2997,N,07726.2653,W,0.00,2.95,160818,,,A*72
$GPGGA,142841.250,4308.2997,N,07726.2653,W,1,11,0.78,147.9,M,-34.4,M,,*55
$GPRMC,142841.500,A,4308.2997,N,07726.2653,W,0.00,2.95,160818,,,A*77
$GPGGA,142841.750,4308.2997,N,07726.2653,W,1,11,0.78,147.9,M,-34.4,M,,*50
$GPRMC,142842.000,A,4308.2997,N,07726.2653,W,0.00,2.95,160818,,,A*71
$GPGGA,142842.250,4308.2997,N,07726.2653,W,1,11,0.78,147.9,M,-34.4,M,,*56
$GPRMC,142842.500,A,4308.2997,N,07726.2653,W,0.00,2.95,160818,,,A*74
$GPGGA,142842.750,4308.2997,N,07726.2653,W,1,11,0.78,147.9,M,-34.4,M,,*53
$GPRMC,142843.000,A,4308.2997,N,07726.2653,W,0.00,2.95,160818,,,A*70
$GPGGA,142843.250,4308.2997,N,07726.2653,W,1,11,0.78,147.9,M,-34.4,M,,*57
$GPRMC,142843.500,A,4308.2997,N,07726.2653,W,0.00,2.95,160818,,,A*75
$GPGGA,142843.750,4308.2997,N,07726.2653,W,1,11,0.78,147.9,M,-34.4,M,,*52
$GPRMC,142844.000,A,4308.2997,N,07726.2653,W,0.00,2.95,160818,,,A*77
$GPGGA,142844.250,4308.2997,N,07726.2653,W,1,11,0.78,147.9,M,-34.4,M,,*50
$GPRMC,142844.500,A,4308.2997,N,07726.2653,W,0.00,2.95,160818,,,A*72
$GPGGA,142844.750,4308.2997,N,07726.2653,W,1,11,0.78,147.9,M,-34.4,M,,*55
$GPRMC,142845.000,A,4308.2997,N,07726.2653,W,0.00,2.95,160818,,,A*76
$GPGGA,142845.250,4308.2997,N,07726.2653,W,1,11,0.78,147.9,M,-34.4,M,,*51
$GPRMC,142845.500,A,4308.2997,N,07726.2653,W,0.00,2.95,160818,,,A*73
$GPGGA,142845.750,4308.2997,N,07726.2653,W,1,11,0.78,147.9,M,-34.4,M,,*54
$GPRMC,142846.000,A,4308.2997,N,07726.2653,W,0.00,2.95,160818,,,A*75
$GPGGA,142846.250,4308.2997,N,07726.2653,W,1,11,0.78,147.9,M,-34.4,M,,*52
$GPRMC,142846.500,A,4308.2997,N,07726.2653,W,0.00,2.95,160818,,,A*70
$GPGGA,142846.750,4308.2997,N,07726.2653,W,1,11,0.78,147.9,M,-34.4,M,,*57
$GPRMC,142847.000,A,4308.2997,N,07726.2653,W,0.00,2.95,160818,,,A*74
$GPGGA,142847.250,4308.2997,N,07726.2653,W,1,11,0.78,147.9,M,-34.4,M,,*53
$GPRMC,142847.500,A,4308.2997,N,07726.2653,W,0.00,2.95,160818,,,A*71
$GPGGA,142847.750,4308.2997,N,07726.2653,W,1,11,0.78,147.9,M,-34.4,M,,*56
$GPRMC,142848.000,A,4308.2997,N,07726.2653,W,0.00,2.95,160818,,,A*7B
$GPGGA,142848.250,4308.2997,N,07726.2653,W,1,11,0.78,147.9,M,-34.4,M,,*5C
$GPRMC,142848.500,A,4308.2997,N,07726.2653,W,0.00,2.95,160818,,,A*7E
$GPGGA,142848.750,4308.2997,N,07726.2653,W,1,11,0.78,147.9,M,-34.4,M,,*59
$GPRMC,142849.000,A,4308.2997,N,07726.2653,W,0.00,2.95,160818,,,A*7A
$GPGGA,142849.250,4308.2997,N,07726.2653,W,1,11,0.78,147.9,M,-34.4,M,,*5D
$GPRMC,142849.500,A,4308.2997,N,07726.2653,W,0.00,2.95,160818,,,A*7F
$GPGGA,142849.750,4308.2997,N,07726.2653,W,1,11,0.78,147.9,M,-34.4,M,,*58
$GPRMC,142850.000,A,4308.2997,N,07726.2653,W,0.00,2.95,160818,,,A*72
$GPGGA,142850.250,4308.2997,N,07726.2653,W,1,11,0.78,147.9,M,-34.4,M,,*55
$GPRMC,142850.500,A,4308.2997,N,07726.2653,W,0.00,2.95,160818,,,A*77
$GPGGA,142850.750,4308.2997,N,07726.2653,W,1,11,0.78,147.9,M,-34.4,M,,*50
$GPRMC,142851.000,A,4308.2997,N,07726.2653,W,0.01,2.95,160818,,,A*72
$GPGGA,142851.250,4308.2997,N,07726.2653,W,1,11,0.78,147.8,M,-34.4,M,,*55
$GPRMC,142851.500,A,4308.2997,N,07726.2653,W,0.00,2.95,160818,,,A*76
$GPGGA,142851.750,4308.2997,N,07726.2653,W,1,11,0.78,147.8,M,-34.4,M,,*50
$GPRMC,142852.000,A,4308.2997,N,07726.2653,W,0.00,2.95,160818,,,A*70
$GPGGA,142852.250,4308.2997,N,07726.2653,W,1,11,0.78,147.8,M,-34.4,M,,*56
$GPRMC,142852.500,A,4308.2997,N,07726.2653,W,0.00,2.95,160818,,,A*75
$GPGGA,142852.750,4308.2997,N,07726.2653,W,1,11,0.78,147.8,M,-34.4,M,,*53
$GPRMC,142853.000,A,4308.2997,N,07726.2653,W,0.00,2.95,160818,,,A*71
$GPGGA,142853.250,4308.2997,N,07726.2653,W,1,11,0.78,147.8,M,-34.4,M,,*57
$GPRMC,142853.500,A,4308.2997,N,07726.2653,W,0.00,2.95,160818,,,A*74
$GPGGA,142853.750,4308.2997,N,07726.2653,W,1,11,0.78,147.8,M,-34.4,M,,*52
$GPRMC,142854.000,A,4308.2997,N,07726.2653,W,0.00,2.95,160818,,,A*76
$GPGGA,142854.250,4308.2997,N,07726.2653,W,1,11,0.78,147.8,M,-34.4,M,,*50
$GPRMC,142854.500,A,4308.2997,N,07726.2653,W,0.00,2.95,160818,,,A*73
$GPGGA,142854.750,4308.2997,N,07726.2653,W,1,11,0.78,147.8,M,-34.4,M,,*55
$GPRMC,142855.000,A,4308.2997,N,07726.2653,W,0.00,2.95,160818,,,A*77
$GPGGA,142855.250,4308.2997,N,07726.2653,W,1,11,0.78,147.8,M,-34.4,M,,*51
$GPRMC,142855.500,A,4308.2997,N,07726.2653,W,0.00,2.95,160818,,,A*72
$GPGGA,142855.750,4308.2997,N,07726.2653,W,1,11,0.78,147.8,M,-34.4,M,,*54
$GPRMC,142856.000,A,4308.2997,N,07726.2653,W,0.00,2.95,160818,,,A*74
$GPGGA,142856.250,4308.2997,N,07726.2653,W,1,11,0.78,147.8,M,-34.4,M,,*52
$GPRMC,142856.500,A,4308.2997,N,07726.2653,W,0.00,2.95,160818,,,A*71
$GPGGA,142856.750,4308.2997,N,07726.2653,W,1,11,0.78,147.8,M,-34.4,M,,*57
$GPRMC,142857.000,A,4308.2997,N,07726.2653,W,0.00,2.95,160818,,,A*75
$GPGGA,142857.250,4308.2997,N,07726.2653,W,1,11,0.78,147.8,M,-34.4,M,,*53
$GPRMC,142857.500,A,4308.2997,N,07726.2653,W,0.00,2.95,160818,,,A*70
$GPGGA,142857.750,4308.2997,N,07726.2653,W,1,11,0.78,147.8,M,-34.4,M,,*56
$GPRMC,142858.000,A,4308.2997,N,07726.2653,W,0.00,2.95,160818,,,A*7A
$GPGGA,142858.250,4308.2997,N,07726.2653,W,1,11,0.78,147.8,M,-34.4,M,,*5C
$GPRMC,142858.500,A,4308.2997,N,07726.2653,W,0.00,2.95,160818,,,A*7F
$GPGGA,142858.750,4308.2997,N,07726.2653,W,1,11,0.78,147.8,M,-34.4,M,,*59
$GPRMC,142859.000,A,4308.2997,N,07726.2653,W,0.00,2.95,160818,,,A*7B
$GPGGA,142859.250,4308.2997,N,07726.2653,W,1,11,0.78,147.8,M,-34.4,M,,*5D
$GPRMC,142859.500,A,4308.2997,N,07726.2653,W,0.00,2.95,160818,,,A*7E
$GPGGA,142859.750,4308.2997,N,07726.2653,W,1,11,0.78,147.8,M,-34.4,M,,*58
$GPRMC,142900.000,A,4308.2997,N,07726.2653,W,0.00,2.95,160818,,,A*76
$GPGGA,142900.250,4308.2997,N,07726.2653,W,1,11,0.78,147.8,M,-34.4,M,,*50
$GPRMC,142900.500,A,4308.2997,N,07726.2653,W,0.01,2.95,160818,,,A*72
$GPGGA,142900.750,4308.2997,N,07726.2653,W,1,11,0.78,147.8,M,-34.4,M,,*55
$GPRMC,142901.000,A,4308.2997,N,07726.2653,W,0.00,2.95,160818,,,A*77
$GPGGA,142901.250,4308.2997,N,07726.2653,W,1,11,0.78,147.8,M,-34.4,M,,*51
$GPRMC,142901.500,A,4308.2997,N,07726.2653,W,0.00,2.95,160818,,,A*72
$GPGGA,142901.750,4308.2997,N,07726.2653,W,1,11,0.78,147.8,M,-34.4,M,,*54
$GPRMC,142902.000,A,4308.2997,N,07726.2653,W,0.00,2.95,160818,,,A*74
$GPGGA,142902.250,4308.2997,N,07726.2653,W,1,11,0.78,147.8,M,-34.4,M,,*52
$GPRMC,142902.500,A,4308.2997,N,07726.2653,W,0.01,2.95,160818,,,A*70
$GPGGA,142902.750,4308.2997,N,07726.2653,W,1,11,0.78,147.8,M,-34.4,M,,*57
$GPRMC,142903.000,A,4308.2997,N,07726.2653,W,0.00,2.95,160818,,,A*75
$GPGGA,142903.250,4308.2997,N,07726.2653,W,1,11,0.78,147.8,M,-34.4,M,,*53
$GPRMC,142903.500,A,4308.2997,N,07726.2653,W,0.00,2.95,160818,,,A*70
$GPGGA,142903.750,4308.2997,N,07726.2653,W,1,11,0.78,147.8,M,-34.4,M,,*56
$GPRMC,142904.000,A,4308.2997,N,07726.2653,W,0.01,2.95,160818,,,A*73
$GPGGA,142904.250,4308.2997,N,07726.2653,W,1,11,0.78,147.8,M,-34.4,M,,*54
$GPRMC,142904.500,A,4308.2997,N,07726.2653,W,0.00,2.95,160818,,,A*77
$GPGGA,142904.750,4308.2997,N,07726.2653,W,1,11,0.78,147.8,M,-34.4,M,,*51
$GPRMC,142905.000,A,4308.2997,N,07726.2653,W,0.00,2.95,160818,,,A*73
$GPGGA,142905.250,4308.2997,N,07726.2653,W,1,11,0.78,147.8,M,-34.4,M,,*55
$GPRMC,142905.500,A,4308.2997,N,07726.2653,W,0.00,2.95,160818,,,A*76
$GPGGA,142905.750,4308.2997,N,07726.2653,W,1,11,0.78,147.8,M,-34.4,M,,*50
$GPRMC,142906.000,A,4308.2997,N,07726.2653,W,0.00,2.95,160818,,,A*70
$GPGGA,142906.250,4308.2997,N,07726.2653,W,1,11,0.78,147.8,M,-34.4,M,,*56
$GPRMC,142906.500,A,4308.2997,N,07726.2653,W,0.00,2.95,160818,,,A*75
$GPGGA,142906.750,4308.2997,N,07726.2653,W,1,11,0.78,147.8,M,-34.4,M,,*53
$GPRMC,142907.000,A,4308.2997,N,07726.2653,W,0.00,2.95,160818,,,A*71
$GPGGA,142907.250,4308.2997,N,07726.2653,W,1,11,0.78,147.8,M,-34.4,M,,*57
$GPRMC,142907.500,A,4308.2997,N,07726.2653,W,0.00,2.95,160818,,,A*74
$GPGGA,142907.750,4308.2997,N,07726.2653,W,1,11,0.78,147.8,M,-34.4,M,,*52
$GPRMC,142908.000,A,4308.2997,N,07726.2653,W,0.00,2.95,160818,,,A*7E
$GPGGA,142908.250,4308.2997,N,07726.2653,W,1,11,0.78,147.8,M,-34.4,M,,*58
$GPRMC,142908.500,A,4308.2997,N,07726.2653,W,0.01,2.95,160818,,,A*7A
$GPGGA,142908.750,4308.2997,N,07726.2653,W,1,11,0.78,147.8,M,-34.4,M,,*5D
$GPRMC,142909.000,A,4308.2997,N,07726.2653,W,0.00,2.95,160818,,,A*7F
$GPGGA,142909.250,4308.2997,N,07726.2653,W,1,11,0.78,147.8,M,-34.4,M,,*59
$GPRMC,142909.500,A,4308.2997,N,07726.2653,W,0.00,2.95,160818,,,A*7A
$GPGGA,142909.750,4308.2997,N,07726.2653,W,1,11,0.78,147.8,M,-34.4,M,,*5C
$GPRMC,142910.000,A,4308.2997,N,07726.2653,W,0.01,2.95,160818,,,A*76
$GPGGA,142910.250,4308.2997,N,07726.2653,W,1,11,0.78,147.8,M,-34.4,M,,*51
$GPRMC,142910.500,A,4308.2997,N,07726.2653,W,0.00,2.95,160818,,,A*72
$GPGGA,142910.750,4308.2997,N,07726.2653,W,1,11,0.78,147.8,M,-34.4,M,,*54
$GPRMC,142911.000,A,4308.2997,N,07726.2653,W,0.00,2.95,160818,,,A*76
$GPGGA,142911.250,4308.2997,N,07726.2653,W,1,11,0.78,147.8,M,-34.4,M,,*50
$GPRMC,142911.500,A,4308.2997,N,07726.2653,W,0.00,2.95,160818,,,A*73
$GPGGA,142911.750,4308.2997,N,07726.2653,W,1,11,0.78,147.8,M,-34.4,M,,*55
$GPRMC,142912.000,A,4308.2997,N,07726.2653,W,0.00,2.95,160818,,,A*75
$GPGGA,142912.250,4308.2997,N,07726.2653,W,1,11,0.78,147.8,M,-34.4,M,,*53
$GPRMC,142912.500,A,4308.2997,N,07726.2653,W,0.00,2.95,160818,,,A*70
$GPGGA,142912.750,4308.2997,N,07726.2653,W,1,11,0.78,147.8,M,-34.4,M,,*56
$GPRMC,142913.000,A,4308.2997,N,07726.2653,W,0.00,2.95,160818,,,A*74
$GPGGA,142913.250,4308.2997,N,07726.2653,W,1,11,0.78,147.8,M,-34.4,M,,*52
$GPRMC,142913.500,A,4308.2997,N,07726.2653,W,0.00,2.95,160818,,,A*71
$GPGGA,142913.750,4308.2997,N,07726.2653,W,1,11,0.78,147.8,M,-34.4,M,,*57
$GPRMC,142914.000,A,4308.2997,N,07726.2653,W,0.00,2.95,160818,,,A*73
$GPGGA,142914.250,4308.2997,N,07726.2653,W,1,11,0.78,147.8,M,-34.4,M,,*55
$GPRMC,142914.500,A,4308.2997,N,07726.2653,W,0.00,2.95,160818,,,A*76
$GPGGA,142914.750,4308.2997,N,07726.2653,W,1,11,0.78,147.8,M,-34.4,M,,*50
$GPRMC,142915.000,A,4308.2997,N,07726.2653,W,0.00,2.95,160818,,,A*72
$GPGGA,142915.250,4308.2997,N,07726.2653,W,1,11,0.78,147.8,M,-34.4,M,,*54
$GPRMC,142915.500,A,4308.2997,N,07726.2653,W,0.00,2.95,160818,,,A*77
$GPGGA,142915.750,4308.2997,N,07726.2653,W,1,11,0.78,147.8,M,-34.4,M,,*51
$GPRMC,142916.000,A,4308.2997,N,07726.2653,W,0.00,2.95,160818,,,A*71
$GPGGA,142916.250,4308.2997,N,07726.2653,W,1,11,0.78,147.8,M,-34.4,M,,*57
$GPRMC,142916.500,A,4308.2997,N,07726.2653,W,0.00,2.95,160818,,,A*74
$GPGGA,142916.750,4308.2997,N,07726.2653,W,1,11,0.78,147.8,M,-34.4,M,,*52
$GPRMC,142917.000,A,4308.2997,N,07726.2653,W,0.00,2.95,160818,,,A*70
$GPGGA,142917.250,4308.2997,N,07726.2653,W,1,11,0.78,147.8,M,-34.4,M,,*56
$GPRMC,142917.500,A,4308.2997,N,07726.2653,W,0.00,2.95,160818,,,A*75
$GPGGA,142917.750,4308.2997,N,07726.2653,W,1,11,0.78,147.8,M,-34.4,M,,*53
$GPRMC,142918.000,A,4308.2997,N,07726.2653,W,0.01,2.95,160818,,,A*7E
$GPGGA,142918.250,4308.2997,N,07726.2653,W,1,11,0.78,147.8,M,-34.4,M,,*59
$GPRMC,142918.500,A,4308.2997,N,07726.2653,W,0.01,2.95,160818,,,A*7B
$GPGGA,142918.750,4308.2997,N,07726.2653,W,1,11,0.78,147.8,M,-34.4,M,,*5C
$GPRMC,142919.000,A,4308.2997,N,07726.2653,W,0.01,2.95,160818,,,A*7F
$GPGGA,142919.250,4308.2997,N,07726.2653,W,1,11,0.78,147.8,M,-34.4,M,,*58
$GPRMC,142919.500,A,4308.2997,N,07726.2653,W,0.00,2.95,160818,,,A*7B
$GPGGA,142919.750,4308.2997,N,07726.2653,W,1,11,0.78,147.8,M,-34.4,M,,*5D
$GPRMC,142920.000,A,4308.2997,N,07726.2653,W,0.00,2.95,160818,,,A*74
$GPGGA,142920.250,4308.2997,N,07726.2653,W,1,11,0.78,147.8,M,-34.4,M,,*52
$GPRMC,142920.500,A,4308.2997,N,07726.2653,W,0.00,2.95,160818,,,A*71
$GPGGA,142920.750,4308.2997,N,07726.2653,W,1,11,0.78,147.8,M,-34.4,M,,*57
$GPRMC,142921.000,A,4308.2997,N,07726.2653,W,0.00,2.95,160818,,,A*75
$GPGGA,142921.250,4308.2997,N,07726.2653,W,1,11,0.78,147.8,M,-34.4,M,,*53
$GPRMC,142921.500,A,4308.2997,N,07726.2653,W,0.00,2.95,160818,,,A*70
$GPGGA,142921.750,4308.2997,N,07726.2653,W,1,11,0.78,147.8,M,-34.4,M,,*56
$GPRMC,142922.000,A,4308.2997,N,07726.2653,W,0.00,2.95,160818,,,A*76
$GPGGA,142922.250,4308.2997,N,07726.2653,W,1,11,0.78,147.8,M,-34.4,M,,*50
$GPRMC,142922.500,A,4308.2997,N,07726.2653,W,0.01,2.95,160818,,,A*72
$GPGGA,142922.750,4308.2997,N,07726.2653,W,1,11,0.78,147.8,M,-34.4,M,,*55
$GPRMC,142923.000,A,4308.2997,N,07726.2653,W,0.01,2.95,160818,,,A*76
$GPGGA,142923.250,4308.2997,N,07726.2653,W,1,11,0.78,147.8,M,-34.4,M,,*51
$GPRMC,142923.500,A,4308.2997,N,07726.2653,W,0.01,2.95,160818,,,A*73
$GPGGA,142923.750,4308.2997,N,07726.2653,W,1,11,0.78,147.8,M,-34.4,M,,*54
$GPRMC,142924.000,A,4308.2997,N,07726.2653,W,0.00,2.95,160818,,,A*70
$GPGGA,142924.250,4308.2997,N,07726.2653,W,1,11,0.78,147.8,M,-34.4,M,,*56
$GPRMC,142924.500,A,4308.2997,N,07726.2653,W,0.00,2.95,160818,,,A*75
$GPGGA,142924.750,4308.2997,N,07726.2653,W,1,11,0.78,147.8,M,-34.4,M,,*53
$GPRMC,142925.000,A,4308.2997,N,07726.2653,W,0.00,2.95,160818,,,A*71
$GPGGA,142925.250,4308.2997,N,07726.2653,W,1,11,0.78,147.8,M,-34.4,M,,*57
$GPRMC,142925.500,A,4308.2997,N,07726.2653,W,0.00,2.95,160818,,,A*74
$GPGGA,142925.750,4308.2997,N,07726.2653,W,1,11,0.78,147.8,M,-34.4,M,,*52
$GPRMC,142926.000,A,4308.2997,N,07726.2653,W,0.01,2.95,160818,,,A*73
$GPGGA,142926.250,4308.2997,N,07726.2653,W,1,11,0.78,147.8,M,-34.4,M,,*54
$GPRMC,142926.500,A,4308.2997,N,07726.2653,W,0.00,2.95,160818,,,A*77
$GPGGA,142926.750,4308.2997,N,07726.2653,W,1,11,0.78,147.8,M,-34.4,M,,*51
$GPRMC,142927.000,A,4308.2997,N,07726.2653,W,0.00,2.95,160818,,,A*73
$GPGGA,142927.250,4308.2997,N,07726.2653,W,1,11,0.78,147.8,M,-34.4,M,,*55
$GPRMC,142927.500,A,4308.2997,N,07726.2653,W,0.00,2.95,160818,,,A*76
$GPGGA,142927.750,4308.2997,N,07726.2653,W,1,11,0.78,147.8,M,-34.4,M,,*50
$GPRMC,142928.000,A,4308.2997,N,07726.2653,W,0.00,2.95,160818,,,A*7C
$GPGGA,142928.250,4308.2997,N,07726.2653,W,1,11,0.78,147.8,M,-34.4,M,,*5A
$GPRMC,142928.500,A,4308.2997,N,07726.2653,W,0.00,2.95,160818,,,A*79
$GPGGA,142928.750,4308.2997,N,07726.2653,W,1,11,0.78,147.8,M,-34.4,M,,*5F
$GPRMC,142929.000,A,4308.2997,N,07726.2653,W,0.00,2.95,160818,,,A*7D
$GPGGA,142929.250,4308.2997,N,07726.2653,W,1,11,0.78,147.8,M,-34.4,M,,*5B
$GPRMC,142929.500,A,4308.2997,N,07726.2653,W,0.00,2.95,160818,,,A*78
$GPGGA,142929.750,4308.2997,N,07726.2653,W,1,11,0.78,147.8,M,-34.4,M,,*5E
$GPRMC,142930.000,A,4308.2997,N,07726.2653,W,0.00,2.95,160818,,,A*75
$GPGGA,142930.250,4308.2997,N,07726.2653,W,1,11,0.78,147.8,M,-34.4,M,,*53
$GPRMC,142930.500,A,4308.2997,N,07726.2653,W,0.00,2.95,160818,,,A*70
$GPGGA,142930.750,4308.2997,N,07726.2653,W,1,11,0.78,147.8,M,-34.4,M,,*56
$GPRMC,142931.000,A,4308.2997,N,07726.2653,W,0.00,2.95,160818,,,A*74
$GPGGA,142931.250,4308.2997,N,07726.2653,W,1,11,0.78,147.8,M,-34.4,M,,*52
$GPRMC,142931.500,A,4308.2997,N,07726.2653,W,0.00,2.95,160818,,,A*71
$GPGGA,142931.750,4308.2997,N,07726.2653,W,1,11,0.78,147.8,M,-34.4,M,,*57
$GPRMC,142932.000,A,4308.2997,N,07726.2653,W,0.00,2.95,160818,,,A*77
$GPGGA,142932.250,4308.2997,N,07726.2653,W,1,11,0.78,147.8,M,-34.4,M,,*51
$GPRMC,142932.500,A,4308.2997,N,07726.2653,W,0.00,2.95,160818,,,A*72
$GPGGA,142932.750,4308.2997,N,07726.2653,W,1,11,0.78,147.8,M,-34.4,M,,*54
$GPRMC,142933.000,A,4308.2997,N,07726.2653,W,0.00,2.95,160818,,,A*76
$GPGGA,142933.250,4308.2997,N,07726.2653,W,1,11,0.78,147.8,M,-34.4,M,,*50
$GPRMC,142933.500,A,4308.2997,N,07726.2653,W,0.00,2.95,160818,,,A*73
$GPGGA,142933.750,4308.2997,N,07726.2653,W,1,11,0.78,147.8,M,-34.4,M,,*55
$GPRMC,142934.000,A,4308.2997,N,07726.2653,W,0.00,2.95,160818,,,A*71
$GPGGA,142934.250,4308.2997,N,07726.2653,W,1,11,0.78,147.8,M,-34.4,M,,*57
$GPRMC,142934.500,A,4308.2997,N,07726.2653,W,0.01,2.95,160818,,,A*75
$GPGGA,142934.750,4308.2997,N,07726.2653,W,1,11,0.78,147.8,M,-34.4,M,,*52
$GPRMC,142935.000,A,4308.2997,N,07726.2653,W,0.01,2.95,160818,,,A*71
$GPGGA,142935.250,4308.2997,N,07726.2653,W,1,11,0.78,147.8,M,-34.4,M,,*56
$GPRMC,142935.500,A,4308.2997,N,07726.2653,W,0.00,2.95,160818,,,A*75
$GPGGA,142935.750,4308.2997,N,07726.2653,W,1,11,0.78,147.8,M,-34.4,M,,*53
$GPRMC,142936.000,A,4308.2997,N,07726.2653,W,0.00,2.95,160818,,,A*73
$GPGGA,142936.250,4308.2997,N,07726.2653,W,1,11,0.78,147.8,M,-34.4,M,,*55
$GPRMC,142936.500,A,4308.2997,N,07726.2653,W,0.01,2.95,160818,,,A*77
$GPGGA,142936.750,4308.2997,N,07726.2653,W,1,11,0.78,147.8,M,-34.4,M,,*50
$GPRMC,142937.000,A,4308.2997,N,07726.2653,W,0.00,2.95,160818,,,A*72
$GPGGA,142937.250,4308.2997,N,07726.2653,W,1,11,0.78,147.7,M,-34.4,M,,*5B
$GPRMC,142937.500,A,4308.2997,N,07726.2653,W,0.01,2.95,160818,,,A*76
$GPGGA,142937.750,4308.2997,N,07726.2654,W,1,11,0.78,147.7,M,-34.4,M,,*59
$GPRMC,142938.000,A,4308.2997,N,07726.2654,W,0.00,2.95,160818,,,A*7A
$GPGGA,142938.250,4308.2997,N,07726.2654,W,1,11,0.78,147.7,M,-34.4,M,,*53
$GPRMC,142938.500,A,4308.2997,N,07726.2654,W,0.01,2.95,160818,,,A*7E
$GPGGA,142938.750,4308.2997,N,07726.2654,W,1,11,0.78,147.7,M,-34.4,M,,*56
$GPRMC,142939.000,A,4308.2997,N,07726.2654,W,0.00,2.95,160818,,,A*7B
$GPGGA,142939.250,4308.2997,N,07726.2654,W,1,11,0.78,147.7,M,-34.4,M,,*52
$GPRMC,142939.500,A,4308.2997,N,07726.2654,W,0.01,2.95,160818,,,A*7F
$GPGGA,142939.750,4308.2997,N,07726.2654,W,1,11,0.78,147.7,M,-34.4,M,,*57
$GPRMC,142940.000,A,4308.2997,N,07726.2654,W,0.00,2.95,160818,,,A*75
$GPGGA,142940.250,4308.2997,N,07726.2654,W,1,11,0.78,147.7,M,-34.4,M,,*5C
$GPRMC,142940.500,A,4308.2997,N,07726.2654,W,0.00,2.95,160818,,,A*70
$GPGGA,142940.750,4308.2997,N,07726.2654,W,1,11,0.78,147.7,M,-34.4,M,,*59
$GPRMC,142941.000,A,4308.2997,N,07726.2654,W,0.00,2.95,160818,,,A*74
$GPGGA,142941.250,4308.2997,N,07726.2654,W,1,11,0.78,147.7,M,-34.4,M,,*5D
$GPRMC,142941.500,A,4308.2997,N,07726.2654,W,0.00,2.95,160818,,,A*71
$GPGGA,142941.750,4308.2997,N,07726.2654,W,1,11,0.78,147.7,M,-34.4,M,,*58
$GPRMC,142942.000,A,4308.2997,N,07726.2654,W,0.00,2.95,160818,,,A*77
$GPGGA,142942.250,4308.2997,N,07726.2654,W,1,11,0.78,147.7,M,-34.4,M,,*5E
$GPRMC,142942.500,A,4308.2997,N,07726.2654,W,0.00,2.95,160818,,,A*72
$GPGGA,142942.750,4308.2997,N,07726.2654,W,1,11,0.78,147.7,M,-34.4,M,,*5B
$GPRMC,142943.000,A,4308.2997,N,07726.2654,W,0.01,2.95,160818,,,A*77
$GPGGA,142943.250,4308.2998,N,07726.2654,W,1,11,0.78,147.7,M,-34.4,M,,*50
$GPRMC,142943.500,A,4308.2998,N,07726.2654,W,0.01,2.95,160818,,,A*7D
$GPGGA,142943.750,4308.2998,N,07726.2654,W,1,11,0.78,147.7,M,-34.4,M,,*55
$GPRMC,142944.000,A,4308.2998,N,07726.2654,W,0.01,2.95,160818,,,A*7F
$GPGGA,142944.250,4308.2998,N,07726.2654,W,1,11,0.78,147.7,M,-34.4,M,,*57
$GPRMC,142944.500,A,4308.2998,N,07726.2654,W,0.01,2.95,160818,,,A*7A
$GPGGA,142944.750,4308.2998,N,07726.2654,W,1,11,0.78,147.7,M,-34.4,M,,*52
$GPRMC,142945.000,A,4308.2998,N,07726.2654,W,0.01,2.95,160818,,,A*7E
$GPGGA,142945.250,4308.2998,N,07726.2654,W,1,11,0.78,147.7,M,-34.4,M,,*56
$GPRMC,142945.500,A,4308.2998,N,07726.2654,W,0.01,2.95,160818,,,A*7B
$GPGGA,142945.750,4308.2998,N,07726.2654,W,1,11,0.78,147.7,M,-34.4,M,,*53
$GPRMC,142946.000,A,4308.2998,N,07726.2654,W,0.00,2.95,160818,,,A*7C
$GPGGA,142946.250,4308.2998,N,07726.2654,W,1,11,0.78,147.7,M,-34.4,M,,*55
$GPRMC,142946.500,A,4308.2998,N,07726.2654,W,0.00,2.95,160818,,,A*79
$GPGGA,142946.750,4308.2998,N,07726.2654,W,1,11,0.78,147.7,M,-34.4,M,,*50
$GPRMC,142947.000,A,4308.2998,N,07726.2654,W,0.01,2.95,160818,,,A*7C
$GPGGA,142947.250,4308.2998,N,07726.2654,W,1,11,0.78,147.7,M,-34.4,M,,*54
$GPRMC,142947.500,A,4308.2998,N,07726.2654,W,0.01,2.95,160818,,,A*79
$GPGGA,142947.750,4308.2998,N,07726.2654,W,1,11,0.78,147.7,M,-34.4,M,,*51
$GPRMC,142948.000,A,4308.2998,N,07726.2654,W,0.01,2.95,160818,,,A*73
$GPGGA,142948.250,4308.2998,N,07726.2654,W,1,11,0.78,147.7,M,-34.4,M,,*5B
$GPRMC,142948.500,A,4308.2998,N,07726.2654,W,0.01,2.95,160818,,,A*76
$GPGGA,142948.750,4308.2998,N,07726.2654,W,1,11,0.78,147.7,M,-34.4,M,,*5E
$GPRMC,142949.000,A,4308.2998,N,07726.2654,W,0.01,2.95,160818,,,A*72
$GPGGA,142949.250,4308.2998,N,07726.2654,W,1,11,0.78,147.7,M,-34.4,M,,*5A
$GPRMC,142949.500,A,4308.2998,N,07726.2654,W,0.00,2.95,160818,,,A*76
$GPGGA,142949.750,4308.2998,N,07726.2654,W,1,11,0.78,147.7,M,-34.4,M,,*5F
$GPRMC,142950.000,A,4308.2998,N,07726.2654,W,0.01,2.95,160818,,,A*7A
$GPGGA,142950.250,4308.2998,N,07726.2654,W,1,11,0.78,147.7,M,-34.4,M,,*52
$GPRMC,142950.500,A,4308.2998,N,07726.2654,W,0.01,2.95,160818,,,A*7F
$GPGGA,142950.750,4308.2998,N,07726.2654,W,1,11,0.78,147.7,M,-34.4,M,,*57
$GPRMC,142951.000,A,4308.2998,N,07726.2654,W,0.01,2.95,160818,,,A*7B
$GPGGA,142951.250,4308.2998,N,07726.2654,W,1,11,0.78,147.6,M,-34.4,M,,*52
$GPRMC,142951.500,A,4308.2998,N,07726.2654,W,0.01,2.95,160818,,,A*7E
$GPGGA,142951.750,4308.2998,N,07726.2654,W,1,11,0.78,147.6,M,-34.4,M,,*57
$GPRMC,142952.000,A,4308.2998,N,07726.2654,W,0.01,2.95,160818,,,A*78
$GPGGA,142952.250,4308.2998,N,07726.2654,W,1,11,0.78,147.6,M,-34.4,M,,*51
$GPRMC,142952.500,A,4308.2998,N,07726.2654,W,0.01,2.95,160818,,,A*7D
$GPGGA,142952.750,4308.2998,N,07726.2654,W,1,11,0.78,147.6,M,-34.4,M,,*54
$GPRMC,142953.000,A,4308.2998,N,07726.2654,W,0.01,2.95,160818,,,A*79
$GPGGA,142953.250,4308.2998,N,07726.2654,W,1,11,0.78,147.6,M,-34.4,M,,*50
$GPRMC,142953.500,A,4308.2998,N,07726.2654,W,0.00,2.95,160818,,,A*7D
$GPGGA,142953.750,4308.2998,N,07726.2654,W,1,11,0.78,147.6,M,-34.4,M,,*55
$GPRMC,142954.000,A,4308.2998,N,07726.2654,W,0.00,2.95,160818,,,A*7F
$GPGGA,142954.250,4308.2998,N,07726.2654,W,1,11,0.78,147.6,M,-34.4,M,,*57
$GPRMC,142954.500,A,4308.2998,N,07726.2654,W,0.00,2.95,160818,,,A*7A
$GPGGA,142954.750,4308.2998,N,07726.2654,W,1,11,0.78,147.6,M,-34.4,M,,*52
$GPRMC,142955.000,A,4308.2998,N,07726.2654,W,0.00,2.95,160818,,,A*7E
$GPGGA,142955.250,4308.2998,N,07726.2654,W,1,11,0.78,147.6,M,-34.4,M,,*56
$GPRMC,142955.500,A,4308.2998,N,07726.2654,W,0.00,2.95,160818,,,A*7B
$GPGGA,142955.750,4308.2998,N,07726.2654,W,1,11,0.78,147.6,M,-34.4,M,,*53
$GPRMC,142956.000,A,4308.2998,N,07726.2654,W,0.00,2.95,160818,,,A*7D
$GPGGA,142956.250,4308.2998,N,07726.2654,W,1,11,0.78,147.6,M,-34.4,M,,*55
$GPRMC,142956.500,A,4308.2998,N,07726.2654,W,0.00,2.95,160818,,,A*78
$GPGGA,142956.750,4308.2998,N,07726.2654,W,1,11,0.78,147.6,M,-34.4,M,,*50
$GPRMC,142957.000,A,4308.2998,N,07726.2654,W,0.01,2.95,160818,,,A*7D
$GPGGA,142957.250,4308.2998,N,07726.2654,W,1,11,0.78,147.6,M,-34.4,M,,*54
$GPRMC,142957.500,A,4308.2998,N,07726.2654,W,0.01,2.95,160818,,,A*78
$GPGGA,142957.750,4308.2998,N,07726.2654,W,1,10,0.86,147.6,M,-34.4,M,,*51
$GPRMC,142958.000,A,4308.2998,N,07726.2654,W,0.00,2.95,160818,,,A*73
$GPGGA,142958.250,4308.2998,N,07726.2654,W,1,10,0.86,147.6,M,-34.4,M,,*5B
$GPRMC,142958.500,A,4308.2998,N,07726.2654,W,0.00,2.95,160818,,,A*76
$GPGGA,142958.750,4308.2998,N,07726.2654,W,1,11,0.78,147.6,M,-34.4,M,,*5E
$GPRMC,142959.000,A,4308.2998,N,07726.2654,W,0.00,2.95,160818,,,A*72
$GPGGA,142959.250,4308.2998,N,07726.2654,W,1,11,0.78,147.6,M,-34.4,M,,*5A
$GPRMC,142959.500,A,4308.2998,N,07726.2654,W,0.00,2.95,160818,,,A*77
$GPGGA,142959.750,4308.2998,N,07726.2654,W,1,11,0.78,147.6,M,-34.4,M,,*5F
$GPRMC,143000.000,A,4308.2998,N,07726.2654,W,0.00,2.95,160818,,,A*76
$GPGGA,143000.250,4308.2998,N,07726.2654,W,1,11,0.78,147.6,M,-34.4,M,,*5E
$GPRMC,143000.500,A,4308.2998,N,07726.2654,W,0.00,2.95,160818,,,A*73
$GPGGA,143000.750,4308.2998,N,07726.2654,W,1,11,0.78,147.6,M,-34.4,M,,*5B
$GPRMC,143001.000,A,4308.2998,N,07726.2654,W,0.01,2.95,160818,,,A*76
$GPGGA,143001.250,4308.2998,N,07726.2654,W,1,11,0.78,147.6,M,-34.4,M,,*5F
$GPRMC,143001.500,A,4308.2998,N,07726.2654,W,0.00,2.95,160818,,,A*72
$GPGGA,143001.750,4308.2998,N,07726.2654,W,1,11,0.78,147.6,M,-34.4,M,,*5A
$GPRMC,143002.000,A,4308.2998,N,07726.2654,W,0.00,2.95,160818,,,A*74
$GPGGA,143002.250,4308.2998,N,07726.2654,W,1,11,0.78,147.6,M,-34.4,M,,*5C
$GPRMC,143002.500,A,4308.2998,N,07726.2654,W,0.00,2.95,160818,,,A*71
$GPGGA,143002.750,4308.2998,N,07726.2654,W,1,11,0.78,147.6,M,-34.4,M,,*59
$GPRMC,143003.000,A,4308.2998,N,07726.2654,W,0.00,2.95,160818,,,A*75
$GPGGA,143003.250,4308.2998,N,07726.2654,W,1,11,0.78,147.6,M,-34.4,M,,*5D
$GPRMC,143003.500,A,4308.2998,N,07726.2654,W,0.00,2.95,160818,,,A*70
$GPGGA,143003.750,4308.2998,N,07726.2654,W,1,10,0.86,147.6,M,-34.4,M,,*58
$GPRMC,143004.000,A,4308.2998,N,07726.2654,W,0.00,2.95,160818,,,A*72
$GPGGA,143004.250,4308.2998,N,07726.2654,W,1,10,0.86,147.6,M,-34.4,M,,*5A
$GPRMC,143004.500,A,4308.2998,N,07726.2654,W,0.00,2.95,160818,,,A*77
$GPGGA,143004.750,4308.2998,N,07726.2654,W,1,11,0.78,147.6,M,-34.4,M,,*5F
$GPRMC,143005.000,A,4308.2998,N,07726.2654,W,0.00,2.95,160818,,,A*73
$GPGGA,143005.250,4308.2998,N,07726.2654,W,1,11,0.78,147.6,M,-34.4,M,,*5B
$GPRMC,143005.500,A,4308.2998,N,07726.2654,W,0.00,2.95,160818,,,A*76
$GPGGA,143005.750,4308.2998,N,07726.2654,W,1,11,0.78,147.6,M,-34.4,M,,*5E
$GPRMC,143006.000,A,4308.2998,N,07726.2654,W,0.00,2.95,160818,,,A*70
$GPGGA,143006.250,4308.2998,N,07726.2654,W,1,11,0.78,147.6,M,-34.4,M,,*58
$GPRMC,143006.500,A,4308.2998,N,07726.2654,W,0.00,2.95,160818,,,A*75
$GPGGA,143006.750,4308.2998,N,07726.2654,W,1,11,0.78,147.6,M,-34.4,M,,*5D
$GPRMC,143007.000,A,4308.2998,N,07726.2654,W,0.00,2.95,160818,,,A*71
$GPGGA,143007.250,4308.2998,N,07726.2654,W,1,11,0.78,147.6,M,-34.4,M,,*59
$GPRMC,143007.500,A,4308.2998,N,07726.2654,W,0.00,2.95,160818,,,A*74
$GPGGA,143007.750,4308.2998,N,07726.2654,W,1,11,0.78,147.6,M,-34.4,M,,*5C
$GPRMC,143008.000,A,4308.2998,N,07726.2654,W,0.00,2.95,160818,,,A*7E
$GPGGA,143008.250,4308.2998,N,07726.2654,W,1,11,0.78,147.6,M,-34.4,M,,*56
$GPRMC,143008.500,A,4308.2998,N,07726.2654,W,0.00,2.95,160818,,,A*7B
$GPGGA,143008.750,4308.2998,N,07726.2654,W,1,11,0.78,147.6,M,-34.4,M,,*53
$GPRMC,143009.000,A,4308.2998,N,07726.2654,W,0.00,2.95,160818,,,A*7F
$GPGGA,143009.250,4308.2998,N,07726.2654,W,1,11,0.78,147.6,M,-34.4,M,,*57
$GPRMC,143009.500,A,4308.2998,N,07726.2654,W,0.00,2.95,160818,,,A*7A
$GPGGA,143009.750,4308.2998,N,07726.2654,W,1,11,0.78,147.6,M,-34.4,M,,*52
$GPRMC,143010.000,A,4308.2998,N,07726.2654,W,0.00,2.95,160818,,,A*77
$GPGGA,143010.250,4308.2998,N,07726.2654,W,1,11,0.78,147.6,M,-34.4,M,,*5F
$GPRMC,143010.500,A,4308.2998,N,07726.2654,W,0.00,2.95,160818,,,A*72
$GPGGA,143010.750,4308.2998,N,07726.2654,W,1,11,0.78,147.6,M,-34.4,M,,*5A
$GPRMC,143011.000,A,4308.2998,N,07726.2654,W,0.00,2.95,160818,,,A*76
$GPGGA,143011.250,4308.2998,N,07726.2654,W,1,11,0.78,147.6,M,-34.4,M,,*5E
$GPRMC,143011.500,A,4308.2998,N,07726.2654,W,0.01,2.95,160818,,,A*72
$GPGGA,143011.750,4308.2998,N,07726.2654,W,1,11,0.78,147.6,M,-34.4,M,,*5B
$GPRMC,143012.000,A,4308.2998,N,07726.2654,W,0.00,2.95,160818,,,A*75
$GPGGA,143012.250,4308.2998,N,07726.2654,W,1,11,0.78,147.6,M,-34.4,M,,*5D
$GPRMC,143012.500,A,4308.2998,N,07726.2654,W,0.00,2.95,160818,,,A*70
$GPGGA,143012.750,4308.2998,N,07726.2654,W,1,11,0.78,147.6,M,-34.4,M,,*58
$GPRMC,143013.000,A,4308.2998,N,07726.2654,W,0.00,2.95,160818,,,A*74
$GPGGA,143013.250,4308.2998,N,07726.2654,W,1,11,0.78,147.6,M,-34.4,M,,*5C
$GPRMC,143013.500,A,4308.2998,N,07726.2654,W,0.00,2.95,160818,,,A*71
$GPGGA,143013.750,4308.2998,N,07726.2654,W,1,11,0.78,147.6,M,-34.4,M,,*59
$GPRMC,143014.000,A,4308.2998,N,07726.2654,W,0.00,2.95,160818,,,A*73
$GPGGA,143014.250,4308.2998,N,07726.2654,W,1,11,0.78,147.6,M,-34.4,M,,*5B
$GPRMC,143014.500,A,4308.2998,N,07726.2654,W,0.00,2.95,160818,,,A*76
$GPGGA,143014.750,4308.2998,N,07726.2654,W,1,11,0.78,147.6,M,-34.4,M,,*5E
$GPRMC,143015.000,A,4308.2998,N,07726.2654,W,0.00,2.95,160818,,,A*72
$GPGGA,143015.250,4308.2998,N,07726.2654,W,1,11,0.78,147.6,M,-34.4,M,,*5A
$GPRMC,143015.500,A,4308.2998,N,07726.2654,W,0.00,2.95,160818,,,A*77
$GPGGA,143015.750,4308.2998,N,07726.2654,W,1,11,0.78,147.6,M,-34.4,M,,*5F
$GPRMC,143016.000,A,4308.2998,N,07726.2654,W,0.00,2.95,160818,,,A*71
$GPGGA,143016.250,4308.2998,N,07726.2654,W,1,11,0.78,147.6,M,-34.4,M,,*59
$GPRMC,143016.500,A,4308.2998,N,07726.2654,W,0.00,2.95,160818,,,A*74
$GPGGA,143016.750,4308.2998,N,07726.2654,W,1,11,0.78,147.6,M,-34.4,M,,*5C
$GPRMC,143017.000,A,4308.2998,N,07726.2654,W,0.00,2.95,160818,,,A*70
$GPGGA,143017.250,4308.2998,N,07726.2654,W,1,11,0.78,147.6,M,-34.4,M,,*58
$GPRMC,143017.500,A,4308.2998,N,07726.2654,W,0.00,2.95,160818,,,A*75
$GPGGA,143017.750,4308.2998,N,07726.2654,W,1,11,0.78,147.6,M,-34.4,M,,*5D
$GPRMC,143018.000,A,4308.2998,N,07726.2654,W,0.00,2.95,160818,,,A*7F
$GPGGA,143018.250,4308.2998,N,07726.2654,W,1,11,0.78,147.6,M,-34.4,M,,*57
$GPRMC,143018.500,A,4308.2998,N,07726.2654,W,0.00,2.95,160818,,,A*7A
$GPGGA,143018.750,4308.2998,N,07726.2654,W,1,11,0.78,147.6,M,-34.4,M,,*52
$GPRMC,143019.000,A,4308.2998,N,07726.2654,W,0.00,2.95,160818,,,A*7E
$GPGGA,143019.250,4308.2998,N,07726.2654,W,1,11,0.78,147.6,M,-34.4,M,,*56
$GPRMC,143019.500,A,4308.2998,N,07726.2654,W,0.00,2.95,160818,,,A*7B
$GPGGA,143019.750,4308.2998,N,07726.2654,W,1,11,0.78,147.6,M,-34.4,M,,*53
$GPRMC,143020.000,A,4308.2998,N,07726.2654,W,0.00,2.95,160818,,,A*74
$GPGGA,143020.250,4308.2998,N,07726.2654,W,1,11,0.78,147.6,M,-34.4,M,,*5C
$GPRMC,143020.500,A,4308.2998,N,07726.2654,W,0.00,2.95,160818,,,A*71
$GPGGA,143020.750,4308.2998,N,07726.2654,W,1,11,0.78,147.6,M,-34.4,M,,*59
$GPRMC,143021.000,A,4308.2998,N,07726.2654,W,0.00,2.95,160818,,,A*75
$GPGGA,143021.250,4308.2998,N,07726.2654,W,1,11,0.78,147.6,M,-34.4,M,,*5D
$GPRMC,143021.500,A,4308.2998,N,07726.2654,W,0.00,2.95,160818,,,A*70
$GPGGA,143021.750,4308.2998,N,07726.2654,W,1,11,0.78,147.6,M,-34.4,M,,*58
$GPRMC,143022.000,A,4308.2998,N,07726.2654,W,0.00,2.95,160818,,,A*76
$GPGGA,143022.250,4308.2998,N,07726.2654,W,1,11,0.78,147.6,M,-34.4,M,,*5E
$GPRMC,143022.500,A,4308.2998,N,07726.2654,W,0.00,2.95,160818,,,A*73
$GPGGA,143022.750,4308.2998,N,07726.2654,W,1,11,0.78,147.6,M,-34.4,M,,*5B
$GPRMC,143023.000,A,4308.2998,N,07726.2654,W,0.01,2.95,160818,,,A*76
$GPGGA,143023.250,4308.2998,N,07726.2654,W,1,11,0.78,147.6,M,-34.4,M,,*5F
$GPRMC,143023.500,A,4308.2998,N,07726.2654,W,0.01,2.95,160818,,,A*73
$GPGGA,143023.750,4308.2998,N,07726.2654,W,1,11,0.78,147.6,M,-34.4,M,,*5A
$GPRMC,143024.000,A,4308.2998,N,07726.2654,W,0.00,2.95,160818,,,A*70
$GPGGA,143024.250,4308.2998,N,07726.2654,W,1,11,0.78,147.6,M,-34.4,M,,*58
$GPRMC,143024.500,A,4308.2998,N,07726.2654,W,0.01,2.95,160818,,,A*74
$GPGGA,143024.750,4308.2998,N,07726.2654,W,1,11,0.78,147.6,M,-34.4,M,,*5D
$GPRMC,143025.000,A,4308.2998,N,07726.2654,W,0.01,2.95,160818,,,A*70
$GPGGA,143025.250,4308.2998,N,07726.2654,W,1,11,0.78,147.6,M,-34.4,M,,*59
$GPRMC,143025.500,A,4308.2998,N,07726.2654,W,0.01,2.95,160818,,,A*75
$GPGGA,143025.750,4308.2998,N,07726.2654,W,1,11,0.78,147.6,M,-34.4,M,,*5C
$GPRMC,143026.000,A,4308.2998,N,07726.2654,W,0.00,2.95,160818,,,A*72
$GPGGA,143026.250,4308.2998,N,07726.2654,W,1,11,0.78,147.6,M,-34.4,M,,*5A
$GPRMC,143026.500,A,4308.2998,N,07726.2654,W,0.00,2.95,160818,,,A*77
$GPGGA,143026.750,4308.2998,N,07726.2654,W,1,11,0.78,147.6,M,-34.4,M,,*5F
$GPRMC,143027.000,A,4308.2998,N,07726.2654,W,0.00,2.95,160818,,,A*73
$GPGGA,143027.250,4308.2998,N,07726.2654,W,1,11,0.78,147.6,M,-34.4,M,,*5B
$GPRMC,143027.500,A,4308.2998,N,07726.2654,W,0.00,2.95,160818,,,A*76
$GPGGA,143027.750,4308.2998,N,07726.2654,W,1,11,0.78,147.6,M,-34.4,M,,*5E
$GPRMC,143028.000,A,4308.2998,N,07726.2654,W,0.00,2.95,160818,,,A*7C
$GPGGA,143028.250,4308.2998,N,07726.2654,W,1,11,0.78,147.6,M,-34.4,M,,*54
$GPRMC,143028.500,A,4308.2998,N,07726.2654,W,0.00,2.95,160818,,,A*79
$GPGGA,143028.750,4308.2998,N,07726.2654,W,1,11,0.78,147.6,M,-34.4,M,,*51
$GPRMC,143029.000,A,4308.2998,N,07726.2654,W,0.00,2.95,160818,,,A*7D
$GPGGA,143029.250,4308.2998,N,07726.2654,W,1,11,0.78,147.6,M,-34.4,M,,*55
$GPRMC,143029.500,A,4308.2998,N,07726.2654,W,0.00,2.95,160818,,,A*78
$GPGGA,143029.750,4308.2998,N,07726.2654,W,1,11,0.78,147.6,M,-34.4,M,,*50
$GPRMC,143030.000,A,4308.2998,N,07726.2654,W,0.01,2.95,160818,,,A*74
$GPGGA,143030.250,4308.2998,N,07726.2654,W,1,11,0.78,147.6,M,-34.4,M,,*5D
$GPRMC,143030.500,A,4308.2998,N,07726.2654,W,0.00,2.95,160818,,,A*70
$GPGGA,143030.750,4308.2998,N,07726.2654,W,1,11,0.78,147.6,M,-34.4,M,,*58
$GPRMC,143031.000,A,4308.2998,N,07726.2654,W,0.00,2.95,160818,,,A*74
$GPGGA,143031.250,4308.2998,N,07726.2654,W,1,11,0.78,147.6,M,-34.4,M,,*5C
$GPRMC,143031.500,A,4308.2998,N,07726.2654,W,0.00,2.95,160818,,,A*71
$GPGGA,143031.750,4308.2998,N,07726.2654,W,1,11,0.78,147.6,M,-34.4,M,,*59
$GPRMC,143032.000,A,4308.2998,N,07726.2654,W,0.00,2.95,160818,,,A*77
$GPGGA,143032.250,4308.2998,N,07726.2654,W,1,11,0.78,147.6,M,-34.4,M,,*5F
$GPRMC,143032.500,A,4308.2998,N,07726.2654,W,0.00,2.95,160818,,,A*72
$GPGGA,143032.750,4308.2998,N,07726.2654,W,1,11,0.78,147.6,M,-34.4,M,,*5A
$GPRMC,143033.000,A,4308.2998,N,07726.2654,W,0.00,2.95,160818,,,A*76
$GPGGA,143033.250,4308.2998,N,07726.2654,W,1,11,0.78,147.6,M,-34.4,M,,*5E
$GPRMC,143033.500,A,4308.2998,N,07726.2654,W,0.01,2.95,160818,,,A*72
$GPGGA,143033.750,4308.2998,N,07726.2654,W,1,11,0.78,147.6,M,-34.4,M,,*5B
$GPRMC,143034.000,A,4308.2998,N,07726.2654,W,0.00,2.95,160818,,,A*71
$GPGGA,143034.250,4308.2998,N,07726.2654,W,1,11,0.78,147.6,M,-34.4,M,,*59
$GPRMC,143034.500,A,4308.2998,N,07726.2654,W,0.00,2.95,160818,,,A*74
$GPGGA,143034.750,4308.2998,N,07726.2654,W,1,11,0.78,147.6,M,-34.4,M,,*5C
$GPRMC,143035.000,A,4308.2998,N,07726.2654,W,0.00,2.95,160818,,,A*70
$GPGGA,143035.250,4308.2998,N,07726.2654,W,1,11,0.78,147.6,M,-34.4,M,,*58
$GPRMC,143035.500,A,4308.2998,N,07726.2654,W,0.00,2.95,160818,,,A*75
$GPGGA,143035.750,4308.2998,N,07726.2654,W,1,11,0.78,147.6,M,-34.4,M,,*5D
$GPRMC,143036.000,A,4308.2998,N,07726.2654,W,0.00,2.95,160818,,,A*73
$GPGGA,143036.250,4308.2998,N,07726.2654,W,1,11,0.78,147.6,M,-34.4,M,,*5B
$GPRMC,143036.500,A,4308.2998,N,07726.2654,W,0.00,2.95,160818,,,A*76
$GPGGA,143036.750,4308.2998,N,07726.2654,W,1,11,0.78,147.6,M,-34.4,M,,*5E
$GPRMC,143037.000,A,4308.2998,N,07726.2654,W,0.00,2.95,160818,,,A*72
$GPGGA,143037.250,4308.2998,N,07726.2654,W,1,11,0.78,147.6,M,-34.4,M,,*5A
$GPRMC,143037.500,A,4308.2998,N,07726.2654,W,0.00,2.95,160818,,,A*77
$GPGGA,143037.750,4308.2998,N,07726.2654,W,1,11,0.78,147.6,M,-34.4,M,,*5F
$GPRMC,143038.000,A,4308.2998,N,07726.2654,W,0.00,2.95,160818,,,A*7D
$GPGGA,143038.250,4308.2998,N,07726.2654,W,1,11,0.78,147.6,M,-34.4,M,,*55
$GPRMC,143038.500,A,4308.2998,N,07726.2654,W,0.00,2.95,160818,,,A*78
$GPGGA,143038.750,4308.2998,N,07726.2654,W,1,11,0.78,147.6,M,-34.4,M,,*50
$GPRMC,143039.000,A,4308.2998,N,07726.2654,W,0.00,2.95,160818,,,A*7C
$GPGGA,143039.250,4308.2998,N,07726.2654,W,1,11,0.78,147.6,M,-34.4,M,,*54
$GPRMC,143039.500,A,4308.2998,N,07726.2654,W,0.00,2.95,160818,,,A*79
$GPGGA,143039.750,4308.2998,N,07726.2654,W,1,11,0.78,147.6,M,-34.4,M,,*51
$GPRMC,143040.000,A,4308.2998,N,07726.2654,W,0.00,2.95,160818,,,A*72
$GPGGA,143040.250,4308.2998,N,07726.2654,W,1,11,0.78,147.6,M,-34.4,M,,*5A
$GPRMC,143040.500,A,4308.2998,N,07726.2654,W,0.00,2.95,160818,,,A*77
$GPGGA,143040.750,4308.2998,N,07726.2654,W,1,11,0.78,147.6,M,-34.4,M,,*5F
$GPRMC,143041.000,A,4308.2998,N,07726.2654,W,0.00,2.95,160818,,,A*73
$GPGGA,143041.250,4308.2998,N,07726.2654,W,1,11,0.78,147.6,M,-34.4,M,,*5B
$GPRMC,143041.500,A,4308.2998,N,07726.2654,W,0.00,2.95,160818,,,A*76
$GPGGA,143041.750,4308.2998,N,07726.2654,W,1,11,0.78,147.6,M,-34.4,M,,*5E
$GPRMC,143042.000,A,4308.2998,N,07726.2654,W,0.00,2.95,160818,,,A*70
$GPGGA,143042.250,4308.2998,N,07726.2654,W,1,11,0.78,147.6,M,-34.4,M,,*58
$GPRMC,143042.500,A,4308.2998,N,07726.2654,W,0.00,2.95,160818,,,A*75
$GPGGA,143042.750,4308.2998,N,07726.2654,W,1,11,0.78,147.6,M,-34.4,M,,*5D
$GPRMC,143043.000,A,4308.2998,N,07726.2654,W,0.00,2.95,160818,,,A*71
$GPGGA,143043.250,4308.2998,N,07726.2654,W,1,11,0.78,147.6,M,-34.4,M,,*59
$GPRMC,143043.500,A,4308.2998,N,07726.2654,W,0.00,2.95,160818,,,A*74
$GPGGA,143043.750,4308.2998,N,07726.2654,W,1,11,0.78,147.6,M,-34.4,M,,*5C
$GPRMC,143044.000,A,4308.2998,N,07726.2654,W,0.00,2.95,160818,,,A*76
$GPGGA,143044.250,4308.2998,N,07726.2654,W,1,11,0.78,147.6,M,-34.4,M,,*5E
$GPRMC,143044.500,A,4308.2998,N,07726.2654,W,0.00,2.95,160818,,,A*73
$GPGGA,143044.750,4308.2998,N,07726.2654,W,1,11,0.78,147.6,M,-34.4,M,,*5B
$GPRMC,143045.000,A,4308.2998,N,07726.2654,W,0.00,2.95,160818,,,A*77
$GPGGA,143045.250,4308.2998,N,07726.2654,W,1,11,0.78,147.6,M,-34.4,M,,*5F
$GPRMC,143045.500,A,4308.2998,N,07726.2654,W,0.00,2.95,160818,,,A*72
$GPGGA,143045.750,4308.2998,N,07726.2654,W,1,11,0.78,147.6,M,-34.4,M,,*5A
$GPRMC,143046.000,A,4308.2998,N,07726.2654,W,0.00,2.95,160818,,,A*74
$GPGGA,143046.250,4308.2998,N,07726.2654,W,1,11,0.78,147.6,M,-34.4,M,,*5C
$GPRMC,143046.500,A,4308.2998,N,07726.2654,W,0.00,2.95,160818,,,A*71
$GPGGA,143046.750,4308.2998,N,07726.2654,W,1,11,0.78,147.6,M,-34.4,M,,*59
$GPRMC,143047.000,A,4308.2998,N,07726.2654,W,0.00,2.95,160818,,,A*75
$GPGGA,143047.250,4308.2998,N,07726.2654,W,1,11,0.78,147.6,M,-34.4,M,,*5D
$GPRMC,143047.500,A,4308.2998,N,07726.2654,W,0.00,2.95,160818,,,A*70
$GPGGA,143047.750,4308.2998,N,07726.2654,W,1,11,0.78,147.6,M,-34.4,M,,*58
$GPRMC,143048.000,A,4308.2998,N,07726.2654,W,0.00,2.95,160818,,,A*7A
$GPGGA,143048.250,4308.2998,N,07726.2654,W,1,11,0.78,147.6,M,-34.4,M,,*52
$GPRMC,143048.500,A,4308.2998,N,07726.2654,W,0.00,2.95,160818,,,A*7F
$GPGGA,143048.750,4308.2998,N,07726.2654,W,1,11,0.78,147.6,M,-34.4,M,,*57
$GPRMC,143049.000,A,4308.2998,N,07726.2654,W,0.00,2.95,160818,,,A*7B
$GPGGA,143049.250,4308.2998,N,07726.2654,W,1,11,0.78,147.6,M,-34.4,M,,*53
$GPRMC,143049.500,A,4308.2998,N,07726.2654,W,0.00,2.95,160818,,,A*7E
$GPGGA,143049.750,4308.2998,N,07726.2654,W,1,11,0.78,147.6,M,-34.4,M,,*56
$GPRMC,143050.000,A,4308.2998,N,07726.2654,W,0.00,2.95,160818,,,A*73
$GPGGA,143050.250,4308.2998,N,07726.2654,W,1,11,0.78,147.6,M,-34.4,M,,*5B
$GPRMC,143050.500,A,4308.2998,N,07726.2654,W,0.00,2.95,160818,,,A*76
$GPGGA,143050.750,4308.2998,N,07726.2654,W,1,11,0.78,147.6,M,-34.4,M,,*5E
$GPRMC,143051.000,A,4308.2998,N,07726.2654,W,0.00,2.95,160818,,,A*72
$GPGGA,143051.250,4308.2998,N,07726.2654,W,1,11,0.78,147.6,M,-34.4,M,,*5A
$GPRMC,143051.500,A,4308.2998,N,07726.2654,W,0.00,2.95,160818,,,A*77
$GPGGA,143051.750,4308.2998,N,07726.2654,W,1,11,0.78,147.6,M,-34.4,M,,*5F
$GPRMC,143052.000,A,4308.2998,N,07726.2654,W,0.00,2.95,160818,,,A*71
$GPGGA,143052.250,4308.2998,N,07726.2654,W,1,11,0.78,147.6,M,-34.4,M,,*59
$GPRMC,143052.500,A,4308.2998,N,07726.2654,W,0.00,2.95,160818,,,A*74
$GPGGA,143052.750,4308.2998,N,07726.2654,W,1,11,0.78,147.6,M,-34.4,M,,*5C
$GPRMC,143053.000,A,4308.2998,N,07726.2654,W,0.00,2.95,160818,,,A*70
$GPGGA,143053.250,4308.2998,N,07726.2654,W,1,11,0.78,147.6,M,-34.4,M,,*58
$GPRMC,143053.500,A,4308.2998,N,07726.2654,W,0.00,2.95,160818,,,A*75
$GPGGA,143053.750,4308.2998,N,07726.2654,W,1,11,0.78,147.6,M,-34.4,M,,*5D
$GPRMC,143054.000,A,4308.2998,N,07726.2654,W,0.00,2.95,160818,,,A*77
$GPGGA,143054.250,4308.2998,N,07726.2654,W,1,11,0.78,147.6,M,-34.4,M,,*5F
$GPRMC,143054.500,A,4308.2998,N,07726.2654,W,0.00,2.95,160818,,,A*72
$GPGGA,143054.750,4308.2998,N,07726.2654,W,1,11,0.78,147.6,M,-34.4,M,,*5A
$GPRMC,143055.000,A,4308.2998,N,07726.2654,W,0.00,2.95,160818,,,A*76
$GPGGA,143055.250,4308.2998,N,07726.2654,W,1,11,0.78,147.6,M,-34.4,M,,*5E
$GPRMC,143055.500,A,4308.2998,N,07726.2654,W,0.00,2.95,160818,,,A*73
$GPGGA,143055.750,4308.2998,N,07726.2654,W,1,11,0.78,147.6,M,-34.4,M,,*5B
$GPRMC,143056.000,A,4308.2998,N,07726.2654,W,0.00,2.95,160818,,,A*75
$GPGGA,143056.250,4308.2998,N,07726.2654,W,1,11,0.78,147.6,M,-34.4,M,,*5D
$GPRMC,143056.500,A,4308.2998,N,07726.2654,W,0.00,2.95,160818,,,A*70
$GPGGA,143056.750,4308.2998,N,07726.2654,W,1,11,0.78,147.6,M,-34.4,M,,*58
$GPRMC,143057.000,A,4308.2998,N,07726.2654,W,0.00,2.95,160818,,,A*74
$GPGGA,143057.250,4308.2998,N,07726.2654,W,1,11,0.78,147.6,M,-34.4,M,,*5C
$GPRMC,143057.500,A,4308.2998,N,07726.2654,W,0.00,2.95,160818,,,A*71
$GPGGA,143057.750,4308.2998,N,07726.2654,W,1,11,0.78,147.6,M,-34.4,M,,*59
$GPRMC,143058.000,A,4308.2998,N,07726.2654,W,0.00,2.95,160818,,,A*7B
$GPGGA,143058.250,4308.2998,N,07726.2654,W,1,11,0.78,147.6,M,-34.4,M,,*53
$GPRMC,143058.500,A,4308.2998,N,07726.2654,W,0.01,2.95,160818,,,A*7F
$GPGGA,143058.750,4308.2998,N,07726.2654,W,1,11,0.78,147.6,M,-34.4,M,,*56
$GPRMC,143059.000,A,4308.2998,N,07726.2654,W,0.01,2.95,160818,,,A*7B
$GPGGA,143059.250,4308.2998,N,07726.2654,W,1,11,0.78,147.6,M,-34.4,M,,*52
$GPRMC,143059.500,A,4308.2998,N,07726.2654,W,0.01,2.95,160818,,,A*7E
$GPGGA,143059.750,4308.2998,N,07726.2654,W,1,11,0.78,147.6,M,-34.4,M,,*57
$GPRMC,143100.000,A,4308.2998,N,07726.2654,W,0.01,2.95,160818,,,A*76
$GPGGA,143100.250,4308.2998,N,07726.2654,W,1,11,0.78,147.6,M,-34.4,M,,*5F
$GPRMC,143100.500,A,4308.2998,N,07726.2654,W,0.01,2.95,160818,,,A*73
$GPGGA,143100.750,4308.2999,N,07726.2654,W,1,11,0.78,147.6,M,-34.4,M,,*5B
$GPRMC,143101.000,A,4308.2999,N,07726.2654,W,0.01,2.95,160818,,,A*76
$GPGGA,143101.250,4308.2999,N,07726.2654,W,1,11,0.78,147.6,M,-34.4,M,,*5F
$GPRMC,143101.500,A,4308.2999,N,07726.2654,W,0.01,2.95,160818,,,A*73
$GPGGA,143101.750,4308.2999,N,07726.2654,W,1,11,0.78,147.6,M,-34.4,M,,*5A
$GPRMC,143102.000,A,4308.2999,N,07726.2654,W,0.01,2.95,160818,,,A*75
$GPGGA,143102.250,4308.2999,N,07726.2654,W,1,11,0.78,147.6,M,-34.4,M,,*5C
$GPRMC,143102.500,A,4308.2999,N,07726.2654,W,0.01,2.95,160818,,,A*70
$GPGGA,143102.750,4308.2999,N,07726.2654,W,1,11,0.78,147.6,M,-34.4,M,,*59
$GPRMC,143103.000,A,4308.2999,N,07726.2655,W,0.00,2.95,160818,,,A*74
$GPGGA,143103.250,4308.2999,N,07726.2655,W,1,11,0.78,147.6,M,-34.4,M,,*5C
$GPRMC,143103.500,A,4308.2999,N,07726.2655,W,0.01,2.95,160818,,,A*70
$GPGGA,143103.750,4308.2999,N,07726.2655,W,1,11,0.78,147.6,M,-34.4,M,,*59
$GPRMC,143104.000,A,4308.2999,N,07726.2655,W,0.01,2.95,160818,,,A*72
$GPGGA,143104.250,4308.2999,N,07726.2655,W,1,11,0.78,147.6,M,-34.4,M,,*5B
$GPRMC,143104.500,A,4308.2999,N,07726.2655,W,0.00,2.95,160818,,,A*76
$GPGGA,143104.750,4308.2999,N,07726.2655,W,1,11,0.78,147.6,M,-34.4,M,,*5E
$GPRMC,143105.000,A,4308.2999,N,07726.2655,W,0.01,2.95,160818,,,A*73
$GPGGA,143105.250,4308.2999,N,07726.2655,W,1,11,0.78,147.6,M,-34.4,M,,*5A
$GPRMC,143105.500,A,4308.2999,N,07726.2655,W,0.02,2.95,160818,,,A*75
$GPGGA,143105.750,4308.2999,N,07726.2655,W,1,11,0.78,147.6,M,-34.4,M,,*5F
$GPRMC,143106.000,A,4308.2999,N,07726.2655,W,0.01,2.95,160818,,,A*70
$GPGGA,143106.250,4308.2999,N,07726.2655,W,1,11,0.78,147.6,M,-34.4,M,,*59
$GPRMC,143106.500,A,4308.2999,N,07726.2655,W,0.01,2.95,160818,,,A*75
$GPGGA,143106.750,4308.2999,N,07726.2655,W,1,11,0.78,147.6,M,-34.4,M,,*5C
$GPRMC,143107.000,A,4308.2999,N,07726.2655,W,0.01,2.95,160818,,,A*71
$GPGGA,143107.250,4308.2999,N,07726.2655,W,1,11,0.78,147.6,M,-34.4,M,,*58
$GPRMC,143107.500,A,4308.2999,N,07726.2655,W,0.01,2.95,160818,,,A*74
$GPGGA,143107.750,4308.2999,N,07726.2655,W,1,11,0.78,147.6,M,-34.4,M,,*5D
$GPRMC,143108.000,A,4308.2999,N,07726.2655,W,0.01,2.95,160818,,,A*7E
$GPGGA,143108.250,4308.2999,N,07726.2655,W,1,11,0.78,147.6,M,-34.4,M,,*57
$GPRMC,143108.500,A,4308.2999,N,07726.2655,W,0.01,2.95,160818,,,A*7B
$GPGGA,143108.750,4308.2999,N,07726.2655,W,1,11,0.78,147.6,M,-34.4,M,,*52
$GPRMC,143109.000,A,4308.2999,N,07726.2655,W,0.01,2.95,160818,,,A*7F
$GPGGA,143109.250,4308.2999,N,07726.2655,W,1,11,0.78,147.6,M,-34.4,M,,*56
$GPRMC,143109.500,A,4308.2999,N,07726.2655,W,0.01,2.95,160818,,,A*7A
$GPGGA,143109.750,4308.2999,N,07726.2655,W,1,11,0.78,147.6,M,-34.4,M,,*53
$GPRMC,143110.000,A,4308.2999,N,07726.2655,W,0.01,2.95,160818,,,A*77
$GPGGA,143110.250,4308.2999,N,07726.2655,W,1,11,0.78,147.6,M,-34.4,M,,*5E
$GPRMC,143110.500,A,4308.2999,N,07726.2655,W,0.01,2.95,160818,,,A*72
$GPGGA,143110.750,4308.2999,N,07726.2655,W,1,11,0.78,147.6,M,-34.4,M,,*5B
$GPRMC,143111.000,A,4308.2999,N,07726.2655,W,0.01,2.95,160818,,,A*76
