Vers 60
USE_SERIAL_FEEDBACK=true
DEVELOPMENT_MODE=false
USE_RMC_ONLY=false

$GPGGA,174513.000,4308.3019,N,07726.2643,W,2,08,1.62,141.7,M,-34.4,M,0000,0000*5B
$GPRMC,174513.000,A,4308.3019,N,07726.2643,W,0.00,311.71,170818,,,D*7D
$GPGGA,174513.250,4308.3019,N,07726.2643,W,2,08,1.62,141.7,M,-34.4,M,0000,0000*5C
$GPRMC,174513.250,A,4308.3019,N,07726.2643,W,0.00,311.71,170818,,,D*7A
$GPGGA,174513.500,4308.3019,N,07726.2643,W,2,08,1.62,141.7,M,-34.4,M,0000,0000*5E
$GPRMC,174513.500,A,4308.3019,N,07726.2643,W,0.01,311.71,170818,,,D*79
$GPGGA,174513.750,4308.3019,N,07726.2643,W,2,08,1.62,141.7,M,-34.4,M,0000,0000*59
$GPRMC,174513.750,A,4308.3019,N,07726.2643,W,0.01,311.71,170818,,,D*7E
$GPGGA,174514.000,4308.3019,N,07726.2643,W,2,08,1.62,141.7,M,-34.4,M,0000,0000*5C
$GPRMC,174514.000,A,4308.3019,N,07726.2643,W,0.00,311.71,170818,,,D*7A
$GPGGA,174514.250,4308.3019,N,07726.2643,W,2,08,1.62,141.7,M,-34.4,M,0000,0000*5B
$GPRMC,174514.250,A,4308.3019,N,07726.2643,W,0.00,311.71,170818,,,D*7D
$GPGGA,174514.500,4308.3019,N,07726.2643,W,2,08,1.62,141.7,M,-34.4,M,0000,0000*59
$GPRMC,174514.500,A,4308.3019,N,07726.2643,W,0.01,311.71,170818,,,D*7E
$GPGGA,174514.750,4308.3019,N,07726.2643,W,2,08,1.62,141.7,M,-34.4,M,0000,0000*5E
$GPRMC,174514.750,A,4308.3019,N,07726.2643,W,0.01,311.71,170818,,,D*79
$GPGGA,174515.000,4308.3019,N,07726.2643,W,2,08,1.62,141.7,M,-34.4,M,0000,0000*5D
$GPRMC,174515.000,A,4308.3019,N,07726.2643,W,0.00,311.71,170818,,,D*7B
$GPGGA,174515.250,4308.3019,N,07726.2643,W,2,08,1.62,141.7,M,-34.4,M,0000,0000*5A
$GPRMC,174515.250,A,4308.3019,N,07726.2643,W,0.00,311.71,170818,,,D*7C
$GPGGA,174515.500,4308.3019,N,07726.2643,W,2,08,1.62,141.7,M,-34.4,M,0000,0000*58
$GPRMC,174515.500,A,4308.3019,N,07726.2643,W,0.00,311.71,170818,,,D*7E
$GPGGA,174515.750,4308.3019,N,07726.2643,W,2,08,1.62,141.7,M,-34.4,M,0000,0000*5F
$GPRMC,174515.750,A,4308.3019,N,07726.2643,W,0.01,311.71,170818,,,D*78
$GPGGA,174516.000,4308.3019,N,07726.2643,W,2,08,1.62,141.7,M,-34.4,M,0000,0000*5E
$GPRMC,174516.000,A,4308.3019,N,07726.2643,W,0.00,311.71,170818,,,D*78
$GPGGA,174516.250,4308.3019,N,07726.2643,W,2,08,1.62,141.7,M,-34.4,M,0000,0000*59
$GPRMC,174516.250,A,4308.3019,N,07726.2643,W,0.00,311.71,170818,,,D*7F
$GPGGA,174516.500,4308.3019,N,07726.2643,W,2,08,1.62,141.7,M,-34.4,M,0000,0000*5B
$GPRMC,174516.500,A,4308.3019,N,07726.2643,W,0.00,311.71,170818,,,D*7D
$GPGGA,174516.750,4308.3019,N,07726.2643,W,2,08,1.62,141.7,M,-34.4,M,0000,0000*5C
$GPRMC,174516.750,A,4308.3019,N,07726.2643,W,0.00,311.71,170818,,,D*7A
$GPGGA,174517.000,4308.3019,N,07726.2643,W,2,08,1.62,141.7,M,-34.4,M,0000,0000*5F
$GPRMC,174517.000,A,4308.3019,N,07726.2643,W,0.00,311.71,170818,,,D*79
$GPGGA,174517.250,4308.3019,N,07726.2643,W,2,08,1.62,141.7,M,-34.4,M,0000,0000*58
$GPRMC,174517.250,A,4308.3019,N,07726.2643,W,0.00,311.71,170818,,,D*7E
$GPGGA,174517.500,4308.3019,N,07726.2643,W,2,08,1.62,141.7,M,-34.4,M,0000,0000*5A
$GPRMC,174517.500,A,4308.3019,N,07726.2643,W,0.00,311.71,170818,,,D*7C
$GPGGA,174517.750,4308.3019,N,07726.2643,W,2,08,1.62,141.7,M,-34.4,M,0000,0000*5D
$GPRMC,174517.750,A,4308.3019,N,07726.2643,W,0.00,311.71,170818,,,D*7B
$GPGGA,174518.000,4308.3019,N,07726.2643,W,2,08,1.61,141.7,M,-34.4,M,0000,0000*53
$GPRMC,174518.000,A,4308.3019,N,07726.2643,W,0.00,311.71,170818,,,D*76
$GPGGA,174518.250,4308.3019,N,07726.2643,W,2,08,1.62,141.7,M,-34.4,M,0000,0000*57
$GPRMC,174518.250,A,4308.3019,N,07726.2643,W,0.00,311.71,170818,,,D*71
$GPGGA,174518.500,4308.3019,N,07726.2643,W,2,08,1.62,141.7,M,-34.4,M,0000,0000*55
$GPRMC,174518.500,A,4308.3019,N,07726.2643,W,0.00,311.71,170818,,,D*73
$GPGGA,174518.750,4308.3019,N,07726.2643,W,2,08,1.62,141.7,M,-34.4,M,0000,0000*52
$GPRMC,174518.750,A,4308.3019,N,07726.2643,W,0.00,311.71,170818,,,D*74
$GPGGA,174519.000,4308.3019,N,07726.2643,W,2,08,1.62,141.7,M,-34.4,M,0000,0000*51
$GPRMC,174519.000,A,4308.3019,N,07726.2643,W,0.00,311.71,170818,,,D*77
$GPGGA,174519.250,4308.3019,N,07726.2643,W,2,08,1.62,141.7,M,-34.4,M,0000,0000*56
$GPRMC,174519.250,A,4308.3019,N,07726.2643,W,0.00,311.71,170818,,,D*70
$GPGGA,174519.500,4308.3019,N,07726.2643,W,2,08,1.62,141.7,M,-34.4,M,0000,0000*54
$GPRMC,174519.500,A,4308.3019,N,07726.2643,W,0.00,311.71,170818,,,D*72
$GPGGA,174519.750,4308.3019,N,07726.2643,W,2,08,1.62,141.7,M,-34.4,M,0000,0000*53
$GPRMC,174519.750,A,4308.3019,N,07726.2643,W,0.00,311.71,170818,,,D*75
$GPGGA,174520.000,4308.3019,N,07726.2643,W,2,08,1.61,141.7,M,-34.4,M,0000,0000*58
$GPRMC,174520.000,A,4308.3019,N,07726.2643,W,0.00,311.71,170818,,,D*7D
$GPGGA,174520.250,4308.3019,N,07726.2643,W,2,08,1.61,141.7,M,-34.4,M,0000,0000*5F
$GPRMC,174520.250,A,4308.3019,N,07726.2643,W,0.01,311.71,170818,,,D*7B
$GPGGA,174520.500,4308.3019,N,07726.2643,W,2,08,1.62,141.7,M,-34.4,M,0000,0000*5E
$GPRMC,174520.500,A,4308.3019,N,07726.2643,W,0.01,311.71,170818,,,D*79
$GPGGA,174520.750,4308.3019,N,07726.2643,W,2,08,1.62,141.7,M,-34.4,M,0000,0000*59
$GPRMC,174520.750,A,4308.3019,N,07726.2643,W,0.00,311.71,170818,,,D*7F
$GPGGA,174521.000,4308.3019,N,07726.2643,W,2,08,1.62,141.7,M,-34.4,M,0000,0000*5A
$GPRMC,174521.000,A,4308.3019,N,07726.2643,W,0.00,311.71,170818,,,D*7C
$GPGGA,174521.250,4308.3019,N,07726.2643,W,2,08,1.62,141.7,M,-34.4,M,0000,0000*5D
$GPRMC,174521.250,A,4308.3019,N,07726.2643,W,0.00,311.71,170818,,,D*7B
$GPGGA,174521.500,4308.3019,N,07726.2643,W,2,08,1.61,141.7,M,-34.4,M,0000,0000*5C
$GPRMC,174521.500,A,4308.3019,N,07726.2643,W,0.00,311.71,170818,,,D*79
$GPGGA,174521.750,4308.3019,N,07726.2643,W,2,08,1.62,141.7,M,-34.4,M,0000,0000*58
$GPRMC,174521.750,A,4308.3019,N,07726.2643,W,0.00,311.71,170818,,,D*7E
$GPGGA,174522.000,4308.3019,N,07726.2643,W,2,08,1.62,141.7,M,-34.4,M,0000,0000*59
$GPRMC,174522.000,A,4308.3019,N,07726.2643,W,0.00,311.71,170818,,,D*7F
$GPGGA,174522.250,4308.3019,N,07726.2643,W,2,08,1.61,141.7,M,-34.4,M,0000,0000*5D
$GPRMC,174522.250,A,4308.3019,N,07726.2643,W,0.00,311.71,170818,,,D*78
$GPGGA,174522.500,4308.3019,N,07726.2643,W,2,08,1.61,141.7,M,-34.4,M,0000,0000*5F
$GPRMC,174522.500,A,4308.3019,N,07726.2643,W,0.00,311.71,170818,,,D*7A
$GPGGA,174522.750,4308.3019,N,07726.2643,W,2,08,1.61,141.7,M,-34.4,M,0000,0000*58
$GPRMC,174522.750,A,4308.3019,N,07726.2643,W,0.00,311.71,170818,,,D*7D
$GPGGA,174523.000,4308.3019,N,07726.2643,W,2,08,1.61,141.7,M,-34.4,M,0000,0000*5B
$GPRMC,174523.000,A,4308.3019,N,07726.2643,W,0.00,311.71,170818,,,D*7E
$GPGGA,174523.250,4308.3019,N,07726.2643,W,2,08,1.61,141.7,M,-34.4,M,0000,0000*5C
$GPRMC,174523.250,A,4308.3019,N,07726.2643,W,0.00,311.71,170818,,,D*79
$GPGGA,174523.500,4308.3019,N,07726.2643,W,2,08,1.61,141.7,M,-34.4,M,0000,0000*5E
$GPRMC,174523.500,A,4308.3019,N,07726.2643,W,0.01,311.71,170818,,,D*7A
$GPGGA,174523.750,4308.3019,N,07726.2643,W,2,08,1.61,141.7,M,-34.4,M,0000,0000*59
$GPRMC,174523.750,A,4308.3019,N,07726.2643,W,0.01,311.71,170818,,,D*7D
$GPGGA,174524.000,4308.3019,N,07726.2643,W,2,08,1.61,141.7,M,-34.4,M,0000,0000*5C
$GPRMC,174524.000,A,4308.3019,N,07726.2643,W,0.00,311.71,170818,,,D*79
$GPGGA,174524.250,4308.3019,N,07726.2643,W,2,08,1.61,141.7,M,-34.4,M,0000,0000*5B
$GPRMC,174524.250,A,4308.3019,N,07726.2643,W,0.01,311.71,170818,,,D*7F
$GPGGA,174524.500,4308.3019,N,07726.2643,W,2,08,1.61,141.7,M,-34.4,M,0000,0000*59
$GPRMC,174524.500,A,4308.3019,N,07726.2643,W,0.01,311.71,170818,,,D*7D
$GPGGA,174524.750,4308.3019,N,07726.2643,W,2,08,1.61,141.7,M,-34.4,M,0000,0000*5E
$GPRMC,174524.750,A,4308.3019,N,07726.2643,W,0.01,311.71,170818,,,D*7A
$GPGGA,174525.000,4308.3019,N,07726.2643,W,2,08,1.61,141.7,M,-34.4,M,0000,0000*5D
$GPRMC,174525.000,A,4308.3019,N,07726.2643,W,0.03,311.71,170818,,,D*7B
$GPGGA,174525.250,4308.3019,N,07726.2643,W,2,08,1.61,141.7,M,-34.4,M,0000,0000*5A
$GPRMC,174525.250,A,4308.3019,N,07726.2643,W,0.04,311.71,170818,,,D*7B
$GPGGA,174525.500,4308.3019,N,07726.2643,W,2,08,1.61,141.7,M,-34.4,M,0000,0000*58
$GPRMC,174525.500,A,4308.3019,N,07726.2643,W,0.05,311.71,170818,,,D*78
$GPGGA,174525.750,4308.3019,N,07726.2643,W,2,08,1.39,141.7,M,-34.4,M,0000,0000*52
$GPRMC,174525.750,A,4308.3019,N,07726.2643,W,0.11,311.71,170818,,,D*7A
$GPGGA,174526.000,4308.3019,N,07726.2643,W,2,08,1.39,141.7,M,-34.4,M,0000,0000*53
$GPRMC,174526.000,A,4308.3019,N,07726.2643,W,0.45,311.71,170818,,,D*7A
$GPGGA,174526.250,4308.3020,N,07726.2643,W,2,08,1.39,141.7,M,-34.4,M,0000,0000*5E
$GPRMC,174526.250,A,4308.3020,N,07726.2643,W,0.92,4.83,170818,,,D*77
$GPGGA,174526.500,4308.3022,N,07726.2644,W,2,08,1.61,141.7,M,-34.4,M,0000,0000*54
$GPRMC,174526.500,A,4308.3022,N,07726.2644,W,1.83,358.59,170818,,,D*7C
$GPGGA,174526.750,4308.3024,N,07726.2644,W,2,08,1.61,141.7,M,-34.4,M,0000,0000*55
$GPRMC,174526.750,A,4308.3024,N,07726.2644,W,2.60,352.81,170818,,,D*7C
$GPGGA,174527.000,4308.3028,N,07726.2645,W,2,08,1.61,141.8,M,-34.4,M,0000,0000*54
$GPRMC,174527.000,A,4308.3028,N,07726.2645,W,3.13,354.91,170818,,,D*70
$GPGGA,174527.250,4308.3034,N,07726.2648,W,2,08,1.61,141.8,M,-34.4,M,0000,0000*53
$GPRMC,174527.250,A,4308.3034,N,07726.2648,W,3.87,354.69,170818,,,D*7D
$GPGGA,174527.500,4308.3039,N,07726.2648,W,2,08,1.61,141.8,M,-34.4,M,0000,0000*5C
$GPRMC,174527.500,A,4308.3039,N,07726.2648,W,4.37,357.92,170818,,,D*79
$GPGGA,174527.750,4308.3043,N,07726.2649,W,2,08,1.61,141.8,M,-34.4,M,0000,0000*57
$GPRMC,174527.750,A,4308.3043,N,07726.2649,W,4.73,359.69,170818,,,D*78
$GPGGA,174528.000,4308.3048,N,07726.2650,W,2,08,1.61,141.8,M,-34.4,M,0000,0000*59
$GPRMC,174528.000,A,4308.3048,N,07726.2650,W,4.90,0.48,170818,,,D*77
$GPGGA,174528.250,4308.3054,N,07726.2651,W,2,08,1.61,141.8,M,-34.4,M,0000,0000*52
$GPRMC,174528.250,A,4308.3054,N,07726.2651,W,5.22,1.65,170818,,,D*7A
$GPGGA,174528.500,4308.3059,N,07726.2651,W,2,08,1.61,141.8,M,-34.4,M,0000,0000*5D
$GPRMC,174528.500,A,4308.3059,N,07726.2651,W,5.29,4.05,170818,,,D*7D
$GPGGA,174528.750,4308.3065,N,07726.2651,W,2,08,1.61,141.8,M,-34.4,M,0000,0000*55
$GPRMC,174528.750,A,4308.3065,N,07726.2651,W,5.57,5.24,170818,,,D*7E
$GPGGA,174529.000,4308.3070,N,07726.2652,W,2,08,1.61,141.8,M,-34.4,M,0000,0000*51
$GPRMC,174529.000,A,4308.3070,N,07726.2652,W,5.62,5.45,170818,,,D*7B
$GPGGA,174529.250,4308.3075,N,07726.2652,W,2,08,1.61,141.8,M,-34.4,M,0000,0000*53
$GPRMC,174529.250,A,4308.3075,N,07726.2652,W,5.68,6.53,170818,,,D*77
$GPGGA,174529.500,4308.3079,N,07726.2651,W,2,08,1.61,141.8,M,-34.4,M,0000,0000*5E
$GPRMC,174529.500,A,4308.3079,N,07726.2651,W,5.70,7.81,170818,,,D*7D
$GPGGA,174529.750,4308.3082,N,07726.2650,W,2,08,1.61,141.8,M,-34.4,M,0000,0000*5C
$GPRMC,174529.750,A,4308.3082,N,07726.2650,W,5.51,8.12,170818,,,D*79
$GPGGA,174530.000,4308.3085,N,07726.2650,W,2,08,1.61,141.8,M,-34.4,M,0000,0000*51
$GPRMC,174530.000,A,4308.3085,N,07726.2650,W,5.25,8.57,170818,,,D*76
$GPGGA,174530.250,4308.3088,N,07726.2649,W,2,08,1.61,141.8,M,-34.4,M,0000,0000*53
$GPRMC,174530.250,A,4308.3088,N,07726.2649,W,4.78,10.21,170818,,,D*45
$GPGGA,174530.500,4308.3090,N,07726.2649,W,2,08,1.61,141.8,M,-34.4,M,0000,0000*58
$GPRMC,174530.500,A,4308.3090,N,07726.2649,W,4.14,10.72,170818,,,D*42
$GPGGA,174530.750,4308.3093,N,07726.2649,W,2,08,1.61,141.8,M,-34.4,M,0000,0000*5C
$GPRMC,174530.750,A,4308.3093,N,07726.2649,W,3.78,9.69,170818,,,D*79
$GPGGA,174531.000,4308.3095,N,07726.2649,W,2,08,1.61,141.7,M,-34.4,M,0000,0000*56
$GPRMC,174531.000,A,4308.3095,N,07726.2649,W,3.50,9.60,170818,,,D*7F
$GPGGA,174531.250,4308.3096,N,07726.2648,W,2,08,1.61,141.7,M,-34.4,M,0000,0000*53
$GPRMC,174531.250,A,4308.3096,N,07726.2648,W,3.20,11.35,170818,,,D*44
$GPGGA,174531.500,4308.3098,N,07726.2648,W,2,08,1.61,141.7,M,-34.4,M,0000,0000*5F
$GPRMC,174531.500,A,4308.3098,N,07726.2648,W,2.89,13.39,170818,,,D*44
$GPGGA,174531.750,4308.3099,N,07726.2648,W,2,08,1.61,141.7,M,-34.4,M,0000,0000*59
$GPRMC,174531.750,A,4308.3099,N,07726.2648,W,2.40,14.35,170818,,,D*4C
$GPGGA,174532.000,4308.3100,N,07726.2647,W,2,08,1.61,141.6,M,-34.4,M,0000,0000*57
$GPRMC,174532.000,A,4308.3100,N,07726.2647,W,2.36,17.69,170818,,,D*48
$GPGGA,174532.250,4308.3101,N,07726.2647,W,2,08,1.39,141.6,M,-34.4,M,0000,0000*5C
$GPRMC,174532.250,A,4308.3101,N,07726.2647,W,2.16,21.34,170818,,,D*41
$GPGGA,174532.500,4308.3103,N,07726.2646,W,2,08,1.39,141.5,M,-34.4,M,0000,0000*5E
$GPRMC,174532.500,A,4308.3103,N,07726.2646,W,2.19,26.63,170818,,,D*4A
$GPGGA,174532.750,4308.3104,N,07726.2645,W,2,08,1.39,141.5,M,-34.4,M,0000,0000*5D
$GPRMC,174532.750,A,4308.3104,N,07726.2645,W,2.35,31.31,170818,,,D*46
$GPGGA,174533.000,4308.3105,N,07726.2643,W,2,08,1.39,141.5,M,-34.4,M,0000,0000*59
$GPRMC,174533.000,A,4308.3105,N,07726.2643,W,2.41,31.40,170818,,,D*47
$GPGGA,174533.250,4308.3106,N,07726.2642,W,2,08,1.39,141.4,M,-34.4,M,0000,0000*5D
$GPRMC,174533.250,A,4308.3106,N,07726.2642,W,2.49,36.60,170818,,,D*4F
$GPGGA,174533.500,4308.3108,N,07726.2640,W,2,08,1.39,141.4,M,-34.4,M,0000,0000*53
$GPRMC,174533.500,A,4308.3108,N,07726.2640,W,2.77,40.23,170818,,,D*4A
$GPGGA,174533.750,4308.3110,N,07726.2639,W,2,08,1.39,141.4,M,-34.4,M,0000,0000*53
$GPRMC,174533.750,A,4308.3110,N,07726.2639,W,2.82,43.33,170818,,,D*42
$GPGGA,174534.000,4308.3112,N,07726.2636,W,2,08,1.39,141.4,M,-34.4,M,0000,0000*5B
$GPRMC,174534.000,A,4308.3112,N,07726.2636,W,3.13,44.00,170818,,,D*44
$GPGGA,174534.250,4308.3114,N,07726.2634,W,2,08,1.39,141.4,M,-34.4,M,0000,0000*58
$GPRMC,174534.250,A,4308.3114,N,07726.2634,W,3.31,44.98,170818,,,D*46
$GPGGA,174534.500,4308.3115,N,07726.2632,W,2,08,1.39,141.3,M,-34.4,M,0000,0000*5A
$GPRMC,174534.500,A,4308.3115,N,07726.2632,W,3.37,48.11,170818,$GPGGA,174534.750,4308.3117,N,07726.2630,W,2,08,1.39,141.3,M,-34.4,M,0000,0000*5D
$GPRMC,174535.000,A,4308.3115,N,07726.2627,W,3.63,52.93,170818,,,D*48
$GPGGA,174535.250,4308.3115,N,07726.2626,W,2,08,1.39,141.2,M,-34.4,M,0000,0000*5D
$GPRMC,174535.500,A,4308.3116,N,07726.2624,W,3.58,56.42,170818,,,D*4D
$GPGGA,174535.750,4308.3118,N,07726.2623,W,2,08,1.39,141.1,M,-34.4,M,0000,0000*53
$GPRMC,174536.000,A,4308.3120,N,07726.2622,W,2.91,52.58,170818,,,D*43
$GPGGA,174536.250,4308.3121,N,07726.2621,W,2,08,1.39,141.0,M,-34.4,M,0000,0000*5C
$GPRMC,174536.500,A,4308.3121,N,07726.2621,W,1.74,29.44,170818,,,D*4D
$GPGGA,174536.750,4308.3120,N,07726.2622,W,2,08,1.39,140.9,M,-34.4,M,0000,0000*53
$GPRMC,174537.000,A,4308.3120,N,07726.2624,W,1.26,351.80,170818,,,D*7E
$GPGGA,174537.250,4308.3120,N,07726.2626,W,2,08,1.61,140.9,M,-34.4,M,0000,0000*5E
$GPRMC,174537.500,A,4308.3119,N,07726.2629,W,1.60,305.49,170818,,,D*7A
$GPGGA,174537.750,4308.3119,N,07726.2633,W,2,08,1.39,140.8,M,-34.4,M,0000,0000*59
$GPRMC,174538.000,A,4308.3121,N,07726.2636,W,2.42,294.56,170818,,,D*71
$GPGGA,174538.250,4308.3122,N,07726.2641,W,2,08,1.39,140.8,M,-34.4,M,0000,0000*5E
$GPRMC,174538.500,A,4308.3122,N,07726.2646,W,5.32,284.04,170818,,,D*76
$GPGGA,174538.750,4308.3122,N,07726.2652,W,2,08,1.61,140.7,M,-34.4,M,0000,0000*5B
$GPRMC,174539.000,A,4308.3123,N,07726.2658,W,6.80,279.75,170818,,,D*72
$GPGGA,174539.250,4308.3124,N,07726.2665,W,2,08,1.61,140.7,M,-34.4,M,0000,0000*5D
$GPRMC,174539.500,A,4308.3126,N,07726.2673,W,8.34,278.79,170818,,,D*77
$GPGGA,174539.750,4308.3128,N,07726.2681,W,2,08,1.61,140.6,M,-34.4,M,0000,0000*5F
$GPRMC,174540.000,A,4308.3129,N,07726.2690,W,9.28,278.63,170818,,,D*79
$GPGGA,174540.250,4308.3130,N,07726.2699,W,2,08,1.61,140.6,M,-34.4,M,0000,0000*54
$GPRMC,174540.500,A,4308.3131,N,07726.2709,W,10.31,279.34,170818,,,D*47
$GPGGA,174540.750,4308.3132,N,07726.2719,W,2,08,1.61,140.6,M,-34.4,M,0000,0000*5A
$GPRMC,174541.000,A,4308.3133,N,07726.2729,W,10.90,279.72,170818,,,D*4A
$GPGGA,174541.250,4308.3134,N,07726.2740,W,2,08,1.61,140.6,M,-34.4,M,0000,0000*54
$GPRMC,174541.500,A,4308.3135,N,07726.2751,W,11.47,280.39,170818,,,D*44
$GPGGA,174541.750,4308.3136,N,07726.2762,W,2,08,1.61,140.6,M,-34.4,M,0000,0000*53
$GPRMC,174542.000,A,4308.3138,N,07726.2773,W,11.84,281.60,170818,,,D*4D
$GPGGA,174542.250,4308.3140,N,07726.2785,W,2,08,1.61,140.7,M,-34.4,M,0000,0000*5C
$GPRMC,174542.500,A,4308.3142,N,07726.2796,W,12.54,282.63,170818,,,D*40
$GPGGA,174542.750,4308.3146,N,07726.2809,W,2,08,1.61,140.7,M,-34.4,M,0000,0000*54
$GPRMC,174543.000,A,4308.3150,N,07726.2820,W,12.67,283.71,170818,,,D*47
$GPGGA,174543.250,4308.3154,N,07726.2832,W,2,08,1.61,140.8,M,-34.4,M,0000,0000*54
$GPRMC,174543.500,A,4308.3157,N,07726.2844,W,12.95,286.13,170818,,,D*4B
$GPGGA,174543.750,4308.3160,N,07726.2856,W,2,08,1.61,140.8,M,-34.4,M,0000,0000*54
$GPRMC,174544.000,A,4308.3163,N,07726.2868,W,13.35,285.83,170818,,,D*41
$GPGGA,174544.250,4308.3165,N,07726.2881,W,2,08,1.61,140.9,M,-34.4,M,0000,0000*58
$GPRMC,174544.500,A,4308.3168,N,07726.2893,W,13.81,285.55,170818,,,D*4F
$GPGGA,174544.750,4308.3171,N,07726.2907,W,2,08,1.61,141.0,M,-34.4,M,0000,0000*5F
$GPRMC,174545.000,A,4308.3174,N,07726.2920,W,14.46,286.60,170818,,,D*46
$GPGGA,174545.250,4308.3176,N,07726.2933,W,2,08,1.61,141.1,M,-34.4,M,0000,0000*5A
$GPRMC,174545.500,A,4308.3179,N,07726.2947,W,15.13,288.03,170818,,,D*45
$GPGGA,174545.750,4308.3182,N,07726.2960,W,2,08,1.61,141.3,M,-34.4,M,0000,0000*50
$GPRMC,174546.000,A,4308.3186,N,07726.2974,W,15.37,289.50,170818,,,D*42
$GPGGA,174546.250,4308.3190,N,07726.2988,W,2,08,1.39,141.4,M,-34.4,M,0000,0000*59
$GPRMC,174546.500,A,4308.3194,N,07726.3002,W,16.02,290.55,170818,,,D*45
$GPGGA,174546.750,4308.3199,N,07726.3017,W,2,08,1.61,141.5,M,-34.4,M,0000,0000*57
$GPRMC,174547.000,A,4308.3205,N,07726.3032,W,16.57,292.56,170818,,,D*48
$GPGGA,174547.250,4308.3211,N,07726.3048,W,2,08,1.39,141.6,M,-34.4,M,0000,0000*54
$GPRMC,174547.500,A,4308.3220,N,07726.3065,W,17.42,294.57,170818,,,D*4A
$GPGGA,174547.750,4308.3229,N,07726.3082,W,2,08,1.61,141.5,M,-34.4,M,0000,0000*52
$GPRMC,174548.000,A,4308.3237,N,07726.3099,W,18.49,296.52,170818,,,D*46
$GPGGA,174548.250,4308.3245,N,07726.3115,W,2,08,1.61,141.6,M,-34.4,M,0000,0000*5E
$GPRMC,174548.500,A,4308.3252,N,07726.3131,W,19.13,298.12,170818,,,D*47
$GPGGA,174548.750,4308.3259,N,07726.3147,W,2,08,1.61,141.7,M,-34.4,M,0000,0000*50
$GPRMC,174549.000,A,4308.3266,N,07726.3164,W,19.63,298.73,170818,,,D*44
$GPGGA,174549.250,4308.3274,N,07726.3180,W,2,08,1.61,141.8,M,-34.4,M,0000,0000*5F
$GPRMC,174549.500,A,4308.3280,N,07726.3196,W,20.07,299.00,170818,,,D*49
$GPGGA,174549.750,4308.3287,N,07726.3213,W,2,08,1.61,141.8,M,-34.4,M,0000,0000*5F
$GPRMC,174550.000,A,4308.3294,N,07726.3229,W,20.53,298.97,170818,,,D*48
$GPGGA,174550.250,4308.3301,N,07726.3246,W,2,08,1.61,141.9,M,-34.4,M,0000,0000*5C
$GPRMC,174550.500,A,4308.3309,N,07726.3263,W,21.23,299.76,170818,,,D*4E
$GPGGA,174550.750,4308.3318,N,07726.3281,W,2,08,1.61,142.0,M,-34.4,M,0000,0000*50
$GPRMC,174551.000,A,4308.3325,N,07726.3298,W,21.60,300.21,170818,,,D*44
$GPGGA,174551.250,4308.3333,N,07726.3316,W,2,08,1.61,142.1,M,-34.4,M,0000,0000*53
$GPRMC,174551.500,A,4308.3341,N,07726.3334,W,21.58,300.58,170818,,,D*41
$GPGGA,174551.750,4308.3350,N,07726.3352,W,2,08,1.61,142.2,M,-34.4,M,0000,0000*50
$GPRMC,174552.000,A,4308.3358,N,07726.3370,W,21.96,301.19,170818,,,D*49
$GPGGA,174552.250,4308.3367,N,07726.3388,W,2,08,1.61,142.3,M,-34.4,M,0000,0000*54
$GPRMC,174552.500,A,4308.3376,N,07726.3405,W,21.66,302.30,170818,,,D*42
$GPGGA,174552.750,4308.3385,N,07726.3422,W,2,08,1.61,142.3,M,-34.4,M,0000,0000*5A
$GPRMC,174553.000,A,4308.3394,N,07726.3439,W,21.23,303.37,170818,,,D*42
$GPGGA,174553.250,4308.3403,N,07726.3456,W,2,08,1.61,142.4,M,-34.4,M,0000,0000*53
$GPRMC,174553.500,A,4308.3412,N,07726.3472,W,20.29,306.03,170818,,,D*48
$GPGGA,174553.750,4308.3420,N,07726.3487,W,2,08,1.61,142.9,M,-34.4,M,0000,0000*56
$GPRMC,174554.000,A,4308.3429,N,07726.3502,W,19.79,306.52,170818,,,D*4F
$GPGGA,174554.250,4308.3438,N,07726.3518,W,2,08,1.61,143.0,M,-34.4,M,0000,0000*52
$GPRMC,174554.500,A,4308.3446,N,07726.3532,W,19.18,308.43,170818,,,D*49
$GPGGA,174554.750,4308.3456,N,07726.3547,W,2,08,1.61,143.2,M,-34.4,M,0000,0000*57
$GPRMC,174555.000,A,4308.3465,N,07726.3561,W,18.55,310.16,170818,,,D*4B
$GPGGA,174555.250,4308.3478,N,07726.3573,W,2,08,1.61,143.5,M,-34.4,M,0000,0000*5F
$GPRMC,174555.500,A,4308.3487,N,07726.3587,W,19.02,314.01,170818,,,D*4B
$GPGGA,174555.750,4308.3497,N,07726.3600,W,2,08,1.61,143.8,M,-34.4,M,0000,0000*51
$GPRMC,174556.000,A,4308.3506,N,07726.3613,W,19.02,314.03,170818,,,D*49
$GPGGA,174556.250,4308.3515,N,07726.3626,W,2,08,1.61,143.9,M,-34.4,M,0000,0000*59
$GPRMC,174556.500,A,4308.3525,N,07726.3638,W,18.67,315.40,170818,,,D*40
$GPGGA,174556.750,4308.3535,N,07726.3651,W,2,08,1.61,144.1,M,-34.4,M,0000,0000*51
$GPRMC,174557.000,A,4308.3545,N,07726.3663,W,18.31,317.10,170818,,,D*48
$GPGGA,174557.250,4308.3555,N,07726.3674,W,2,08,1.61,144.3,M,-34.4,M,0000,0000*56
$GPRMC,174557.500,A,4308.3565,N,07726.3685,W,17.87,320.00,170818,,,D*40
$GPGGA,174557.750,4308.3575,N,07726.3695,W,2,08,1.60,144.5,M,-34.4,M,0000,0000*59
$GPRMC,174558.000,A,4308.3586,N,07726.3705,W,17.48,323.34,170818,,,D*49
$GPGGA,174558.250,4308.3597,N,07726.3714,W,2,08,1.61,144.7,M,-34.4,M,0000,0000*54
$GPRMC,174558.500,A,4308.3609,N,07726.3724,W,17.71,327.47,170818,,,D*41
$GPGGA,174558.750,4308.3622,N,07726.3733,W,2,08,1.60,145.0,M,-34.4,M,0000,0000*5E
$GPRMC,174559.000,A,4308.3634,N,07726.3741,W,17.78,330.80,170818,,,D*4C
$GPGGA,174559.250,4308.3645,N,07726.3748,W,2,08,1.61,145.2,M,-34.4,M,0000,0000*54
$GPRMC,174559.500,A,4308.3656,N,07726.3755,W,17.86,335.58,170818,,,D*49
$GPGGA,174559.750,4308.3667,N,07726.3761,W,2,08,1.60,145.5,M,-34.4,M,0000,0000*5C
$GPRMC,174600.000,A,4308.3679,N,07726.3767,W,18.23,338.57,170818,,,D*4D
$GPGGA,174600.250,4308.3692,N,07726.3773,W,2,08,1.61,145.8,M,-34.4,M,0000,0000*53
$GPRMC,174600.500,A,4308.3706,N,07726.3778,W,19.17,343.39,170818,,,D*4D
$GPGGA,174600.750,4308.3718,N,07726.3783,W,2,08,1.60,146.1,M,-34.4,M,0000,0000*51
$GPRMC,174601.000,A,4308.3730,N,07726.3788,W,19.52,345.98,170818,,,D*4F
$GPGGA,174601.250,4308.3743,N,07726.3793,W,2,08,1.60,146.4,M,-34.4,M,0000,0000*5F
$GPRMC,174601.500,A,4308.3757,N,07726.3796,W,19.72,349.19,170818,,,D*43
$GPGGA,174601.750,4308.3770,N,07726.3799,W,2,08,1.60,146.7,M,-34.4,M,0000,0000*53
$GPRMC,174602.000,A,4308.3784,N,07726.3801,W,19.95,351.60,170818,,,D*44
$GPGGA,174602.250,4308.3798,N,07726.3802,W,2,08,1.60,147.1,M,-34.4,M,0000,0000*59
$GPRMC,174602.500,A,4308.3813,N,07726.3802,W,20.52,355.40,170818,,,D*44
$GPGGA,174602.750,4308.3829,N,07726.3802,W,2,08,1.60,147.4,M,-34.4,M,0000,0000*5C
$GPRMC,174603.000,A,4308.3844,N,07726.3803,W,21.08,357.02,170818,,,D*49
$GPGGA,174603.250,4308.3859,N,07726.3803,W,2,08,1.60,147.6,M,-34.4,M,0000,0000*5C
$GPRMC,174603.500,A,4308.3875,N,07726.3802,W,21.65,0.07,170818,,,D*40
$GPGGA,174603.750,4308.3890,N,07726.3800,W,2,08,1.60,147.7,M,-34.4,M,0000,0000*5E
$GPRMC,174604.000,A,4308.3905,N,07726.3798,W,21.58,2.26,170818,,,D*47
$GPGGA,174604.250,4308.3920,N,07726.3796,W,2,08,1.60,147.8,M,-34.4,M,0000,0000*59
$GPRMC,174604.500,A,4308.3936,N,07726.3793,W,21.65,4.14,170818,,,D*40
$GPGGA,174604.750,4308.3952,N,07726.3791,W,2,08,1.60,147.9,M,-34.4,M,0000,0000*5F
$GPRMC,174605.000,A,4308.3967,N,07726.3788,W,21.68,4.74,170818,,,D*41
$GPGGA,174605.250,4308.3983,N,07726.3786,W,2,08,1.60,148.2,M,-34.4,M,0000,0000*55
$GPRMC,174605.500,A,4308.3998,N,07726.3783,W,21.50,5.70,170818,,,D*41
$GPGGA,174605.750,4308.4014,N,07726.3779,W,2,08,1.60,148.4,M,-34.4,M,0000,0000*56
$GPRMC,174606.000,A,4308.4028,N,07726.3776,W,21.40,6.97,170818,,,D*43
$GPGGA,174606.250,4308.4042,N,07726.3773,W,2,08,1.60,148.7,M,-34.4,M,0000,0000*5A
$GPRMC,174606.500,A,4308.4056,N,07726.3768,W,20.71,8.32,170818,,,D*42
$GPGGA,174606.750,4308.4070,N,07726.3764,W,2,08,1.60,148.8,M,-34.4,M,0000,0000*57
$GPRMC,174607.000,A,4308.4083,N,07726.3760,W,20.56,9.85,170818,,,D*4E
$GPGGA,174607.250,4308.4097,N,07726.3755,W,2,08,1.60,149.0,M,-34.4,M,0000,0000*51
$GPRMC,174607.500,A,4308.4110,N,07726.3751,W,20.06,10.88,170818,,,D*72
$GPGGA,174607.750,4308.4123,N,07726.3746,W,2,08,1.60,149.1,M,-34.4,M,0000,0000*59
$GPRMC,174608.000,A,4308.4137,N,07726.3742,W,19.98,11.39,170818,,,D*79
$GPGGA,174608.250,4308.4151,N,07726.3738,W,2,08,1.60,149.2,M,-34.4,M,0000,0000*5C
$GPRMC,174608.500,A,4308.4165,N,07726.3734,W,19.93,11.06,170818,,,D*7D
$GPGGA,174608.750,4308.4178,N,07726.3730,W,2,08,1.60,149.4,M,-34.4,M,0000,0000*5C
$GPRMC,174609.000,A,4308.4191,N,07726.3726,W,19.69,10.98,170818,,,D*72
$GPGGA,174609.250,4308.4205,N,07726.3722,W,2,08,1.60,149.5,M,-34.4,M,0000,0000*53
$GPRMC,174609.500,A,4308.4218,N,07726.3718,W,19.36,10.74,170818,,,D*70
$GPGGA,174609.750,4308.4231,N,07726.3714,W,2,08,1.60,149.5,M,-34.4,M,0000,0000*54
$GPRMC,174610.000,A,4308.4244,N,07726.3710,W,19.16,10.61,170818,,,D*7A
$GPGGA,174610.250,4308.4257,N,07726.3706,W,2,08,1.60,149.7,M,-34.4,M,0000,0000*58
$GPRMC,174610.500,A,4308.4269,N,07726.3702,W,18.91,10.36,170818,,,D*7F
$GPGGA,174610.750,4308.4282,N,07726.3699,W,2,08,1.60,149.8,M,-34.4,M,0000,0000*5D
$GPRMC,174611.000,A,4308.4294,N,07726.3695,W,18.66,10.52,170818,,,D*7C
$GPGGA,174611.250,4308.4307,N,07726.3691,W,2,08,1.60,150.0,M,-34.4,M,0000,0000*5D
$GPRMC,174611.500,A,4308.4320,N,07726.3688,W,18.13,9.80,170818,,,D*4E
$GPGGA,174611.750,4308.4332,N,07726.3685,W,2,08,1.60,150.1,M,-34.4,M,0000,0000*5A
$GPRMC,174612.000,A,4308.4344,N,07726.3681,W,18.02,9.72,170818,,,D*4E
$GPGGA,174612.250,4308.4356,N,07726.3678,W,2,08,1.60,150.2,M,-34.4,M,0000,0000*5F
$GPRMC,174612.500,A,4308.4368,N,07726.3674,W,17.36,9.39,170818,,,D*48
$GPGGA,174612.750,4308.4379,N,07726.3671,W,2,08,1.60,150.2,M,-34.4,M,0000,0000*5E
$GPRMC,174613.000,A,4308.4391,N,07726.3667,W,16.93,9.29,170818,,,D*47
$GPGGA,174613.250,4308.4402,N,07726.3663,W,2,08,1.60,150.3,M,-34.4,M,0000,0000*53
$GPRMC,174613.500,A,4308.4413,N,07726.3659,W,16.14,8.33,170818,,,D*47
$GPGGA,174613.750,4308.4423,N,07726.3656,W,2,08,1.60,150.3,M,-34.4,M,0000,0000*53
$GPRMC,174614.000,A,4308.4434,N,07726.3653,W,15.52,7.61,170818,,,D*43
$GPGGA,174614.250,4308.4444,N,07726.3652,W,2,08,1.60,150.4,M,-34.4,M,0000,0000*53
$GPRMC,174614.500,A,4308.4454,N,07726.3650,W,13.93,5.75,170818,,,D*4F
$GPGGA,174614.750,4308.4462,N,07726.3647,W,2,08,1.60,150.1,M,-34.4,M,0000,0000*53
$GPRMC,174615.000,A,4308.4471,N,07726.3645,W,12.55,5.10,170818,,,D*40
$GPGGA,174615.250,4308.4478,N,07726.3643,W,2,08,1.60,150.0,M,-34.4,M,0000,0000*59
$GPRMC,174615.500,A,4308.4484,N,07726.3642,W,10.47,2.06,170818,,,D*49
$GPGGA,174615.750,4308.4490,N,07726.3642,W,2,08,1.60,149.9,M,-34.4,M,0000,0000*5A
$GPRMC,174616.000,A,4308.4496,N,07726.3641,W,9.52,2.12,170818,,,D*76
$GPGGA,174616.250,4308.4500,N,07726.3641,W,2,08,1.60,149.9,M,-34.4,M,0000,0000*57
$GPRMC,174616.500,A,4308.4504,N,07726.3640,W,7.46,358.45,170818,,,D*7D
$GPGGA,174616.750,4308.4509,N,07726.3639,W,2,08,1.60,149.7,M,-34.4,M,0000,0000*5A
$GPRMC,174617.000,A,4308.4513,N,07726.3638,W,6.16,358.80,170818,,,D*7D
$GPGGA,174617.250,4308.4517,N,07726.3636,W,2,08,1.60,149.3,M,-34.4,M,0000,0000*5A
$GPRMC,174617.500,A,4308.4520,N,07726.3635,W,4.73,356.96,170818,,,D*7D
$GPGGA,174617.750,4308.4523,N,07726.3634,W,2,08,1.60,148.6,M,-34.4,M,0000,0000*5E
$GPRMC,174618.000,A,4308.4526,N,07726.3633,W,3.64,357.47,170818,,,D*7B
$GPGGA,174618.250,4308.4528,N,07726.3632,W,2,08,1.60,147.9,M,-34.4,M,0000,0000*59
$GPRMC,174618.500,A,4308.4529,N,07726.3632,W,2.34,354.39,170818,,,D*7E
$GPGGA,174618.750,4308.4530,N,07726.3632,W,2,08,1.60,147.2,M,-34.4,M,0000,0000*5E
$GPRMC,174619.000,A,4308.4530,N,07726.3633,W,1.70,354.39,170818,,,D*70
$GPGGA,174619.250,4308.4530,N,07726.3633,W,2,08,1.38,146.7,M,-34.4,M,0000,0000*52
$GPRMC,174619.500,A,4308.4530,N,07726.3633,W,1.26,354.39,170818,,,D*76
$GPGGA,174619.750,4308.4529,N,07726.3634,W,2,08,1.38,146.4,M,-34.4,M,0000,0000*5B
$GPRMC,174620.000,A,4308.4529,N,07726.3633,W,0.99,354.39,170818,,,D*74
$GPGGA,174620.250,4308.4528,N,07726.3633,W,2,08,1.38,146.1,M,-34.4,M,0000,0000*57
$GPRMC,174620.500,A,4308.4527,N,07726.3633,W,0.85,354.39,170818,,,D*72
$GPGGA,174620.750,4308.4526,N,07726.3633,W,2,08,1.38,145.9,M,-34.4,M,0000,0000*57
$GPRMC,174621.000,A,4308.4526,N,07726.3633,W,0.76,354.39,170818,,,D*7B
$GPGGA,174621.250,4308.4525,N,07726.3634,W,2,08,1.38,145.7,M,-34.4,M,0000,0000*59
$GPRMC,174621.500,A,4308.4525,N,07726.3634,W,0.69,354.39,170818,,,D*74
$GPGGA,174621.750,4308.4524,N,07726.3634,W,2,08,1.38,145.5,M,-34.4,M,0000,0000*5F
$GPRMC,174622.000,A,4308.4524,N,07726.3634,W,0.65,354.39,170818,,,D*7F
$GPGGA,174622.250,4308.4524,N,07726.3634,W,2,08,1.38,145.3,M,-34.4,M,0000,0000*5F
$GPRMC,174622.500,A,4308.4524,N,07726.3634,W,0.59,354.39,170818,,,D*75
$GPGGA,174622.750,4308.4525,N,07726.3634,W,2,08,1.38,145.2,M,-34.4,M,0000,0000*5A
$GPRMC,174623.000,A,4308.4525,N,07726.3635,W,0.57,354.39,170818,,,D*7F
$GPGGA,174623.250,4308.4526,N,07726.3635,W,2,08,1.38,145.1,M,-34.4,M,0000,0000*5F
$GPRMC,174623.500,A,4308.4526,N,07726.3635,W,0.57,354.39,170818,,,D*79
$GPGGA,174623.750,4308.4526,N,07726.3635,W,2,08,1.38,145.0,M,-34.4,M,0000,0000*5B
$GPRMC,174624.000,A,4308.4527,N,07726.3635,W,0.54,354.39,170818,,,D*79
$GPGGA,174624.250,4308.4527,N,07726.3635,W,2,08,1.38,144.9,M,-34.4,M,0000,0000*50
$GPRMC,174624.500,A,4308.4527,N,07726.3635,W,0.48,354.39,170818,,,D*71
$GPGGA,174624.750,4308.4528,N,07726.3636,W,2,08,1.38,144.9,M,-34.4,M,0000,0000*59
$GPRMC,174625.000,A,4308.4528,N,07726.3636,W,0.45,354.39,170818,,,D*74
$GPGGA,174625.250,4308.4528,N,07726.3636,W,2,08,1.38,144.8,M,-34.4,M,0000,0000*5C
$GPRMC,174625.500,A,4308.4528,N,07726.3636,W,0.40,354.39,170818,,,D*74
$GPGGA,174625.750,4308.4529,N,07726.3637,W,2,08,1.38,144.8,M,-34.4,M,0000,0000*59
$GPRMC,174626.000,A,4308.4529,N,07726.3637,W,0.35,354.39,170818,,,D*70
$GPGGA,174626.250,4308.4529,N,07726.3637,W,2,08,1.38,144.7,M,-34.4,M,0000,0000*50
$GPRMC,174626.500,A,4308.4529,N,07726.3637,W,0.30,354.39,170818,,,D*70
$GPGGA,174626.750,4308.4529,N,07726.3638,W,2,08,1.38,144.7,M,-34.4,M,0000,0000*5A
$GPRMC,174627.000,A,4308.4529,N,07726.3638,W,0.24,354.39,170818,,,D*7E
$GPGGA,174627.250,4308.4529,N,07726.3638,W,2,08,1.38,144.7,M,-34.4,M,0000,0000*5E
$GPRMC,174627.500,A,4308.4529,N,07726.3638,W,0.16,354.39,170818,,,D*7A
$GPGGA,174627.750,4308.4529,N,07726.3638,W,2,08,1.38,144.6,M,-34.4,M,0000,0000*5A
$GPRMC,174628.000,A,4308.4529,N,07726.3638,W,0.10,354.39,170818,,,D*76
$GPGGA,174628.250,4308.4529,N,07726.3638,W,2,08,1.38,144.6,M,-34.4,M,0000,0000*50
$GPRMC,174628.500,A,4308.4530,N,07726.3638,W,0.05,354.39,170818,,,D*7F
$GPGGA,174628.750,4308.4530,N,07726.3638,W,2,08,1.60,144.6,M,-34.4,M,0000,0000*50
$GPRMC,174629.000,A,4308.4530,N,07726.3638,W,0.02,354.39,170818,,,D*7C
$GPGGA,174629.250,4308.4530,N,07726.3638,W,2,08,1.38,144.5,M,-34.4,M,0000,0000*5A
$GPRMC,174629.500,A,4308.4530,N,07726.3638,W,0.03,354.39,170818,,,D*78
$GPGGA,174629.750,4308.4529,N,07726.3638,W,2,08,1.38,144.5,M,-34.4,M,0000,0000*57
$GPRMC,174630.000,A,4308.4529,N,07726.3638,W,0.04,354.39,170818,,,D*7A
$GPGGA,174630.250,4308.4529,N,07726.3638,W,2,08,1.38,144.5,M,-34.4,M,0000,0000*5A
$GPRMC,174630.500,A,4308.4529,N,07726.3638,W,0.05,354.39,170818,,,D*7E
$GPGGA,174630.750,4308.4529,N,07726.3638,W,2,08,1.38,144.5,M,-34.4,M,0000,0000*5F
$GPRMC,174631.000,A,4308.4529,N,07726.3638,W,0.09,354.39,170818,,,D*76
$GPGGA,174631.250,4308.4529,N,07726.3638,W,2,08,1.38,144.5,M,-34.4,M,0000,0000*5B
$GPRMC,174631.500,A,4308.4529,N,07726.3638,W,0.18,354.39,170818,,,D*73
$GPGGA,174631.750,4308.4529,N,07726.3638,W,2,08,1.38,144.4,M,-34.4,M,0000,0000*5F
$GPRMC,174632.000,A,4308.4529,N,07726.3638,W,0.25,354.39,170818,,,D*7B
$GPGGA,174632.250,4308.4529,N,07726.3638,W,2,08,1.38,144.4,M,-34.4,M,0000,0000*59
$GPRMC,174632.500,A,4308.4528,N,07726.3638,W,0.29,354.39,170818,,,D*73
$GPGGA,174632.750,4308.4528,N,07726.3638,W,2,08,1.38,144.4,M,-34.4,M,0000,0000*5D
$GPRMC,174633.000,A,4308.4528,N,07726.3638,W,0.33,354.39,170818,,,D*7C
$GPGGA,174633.250,4308.4528,N,07726.3638,W,2,08,1.38,144.4,M,-34.4,M,0000,0000*59
$GPRMC,174633.500,A,4308.4527,N,07726.3638,W,0.34,354.39,170818,,,D*71
$GPGGA,174633.750,4308.4527,N,07726.3638,W,2,08,1.38,144.4,M,-34.4,M,0000,0000*53
$GPRMC,174634.000,A,4308.4527,N,07726.3638,W,0.37,175.88,170818,,,D*7B
$GPGGA,174634.250,4308.4527,N,07726.3638,W,2,08,1.38,144.4,M,-34.4,M,0000,0000*51
$GPRMC,174634.500,A,4308.4526,N,07726.3638,W,0.38,175.37,170818,,,D*74
$GPGGA,174634.750,4308.4526,N,07726.3638,W,2,08,1.38,144.4,M,-34.4,M,0000,0000*55
$GPRMC,174635.000,A,4308.4526,N,07726.3638,W,0.43,173.78,170818,,,D*71
$GPGGA,174635.250,4308.4525,N,07726.3638,W,2,08,1.38,144.4,M,-34.4,M,0000,0000*52
$GPRMC,174635.500,A,4308.4525,N,07726.3638,W,0.51,172.36,170818,,,D*7F
$GPGGA,174635.750,4308.4525,N,07726.3637,W,2,08,1.38,144.4,M,-34.4,M,0000,0000*58
$GPRMC,174636.000,A,4308.4524,N,07726.3637,W,0.56,170.72,170818,,,D*72
$GPGGA,174636.250,4308.4524,N,07726.3637,W,2,08,1.38,144.4,M,-34.4,M,0000,0000*5F
$GPRMC,174636.500,A,4308.4523,N,07726.3637,W,0.54,168.39,170818,,,D*74
$GPGGA,174636.750,4308.4523,N,07726.3637,W,2,08,1.38,144.4,M,-34.4,M,0000,0000*5D
$GPRMC,174637.000,A,4308.4523,N,07726.3637,W,0.47,163.21,170818,,,D*70
$GPGGA,174637.250,4308.4523,N,07726.3636,W,2,08,1.38,144.4,M,-34.4,M,0000,0000*58
$GPRMC,174637.500,A,4308.4523,N,07726.3636,W,0.65,151.19,170818,,,D*7E
$GPGGA,174637.750,4308.4523,N,07726.3635,W,2,08,1.38,144.4,M,-34.4,M,0000,0000*5E
$GPRMC,174638.000,A,4308.4523,N,07726.3634,W,1.15,123.45,170818,,,D*7C
$GPGGA,174638.250,4308.4524,N,07726.3634,W,2,08,1.38,144.4,M,-34.4,M,0000,0000*52
$GPRMC,174638.500,A,4308.4525,N,07726.3633,W,2.71,123.45,170818,,,D*79
$GPGGA,174638.750,4308.4528,N,07726.3635,W,2,08,1.59,144.4,M,-34.4,M,0000,0000*5D
$GPRMC,174639.000,A,4308.4534,N,07726.3639,W,3.49,343.49,170818,,,D*75
$GPGGA,174639.250,4308.4537,N,07726.3643,W,2,08,1.38,144.5,M,-34.4,M,0000,0000*50
$GPRMC,174639.500,A,4308.4540,N,07726.3651,W,5.61,316.20,170818,,,D*7E
$GPGGA,174639.750,4308.4545,N,07726.3660,W,2,08,1.59,144.7,M,-34.4,M,0000,0000*54
$GPRMC,174640.000,A,4308.4550,N,07726.3667,W,7.17,307.94,170818,,,D*7D
$GPGGA,174640.250,4308.4554,N,07726.3676,W,2,08,1.59,144.8,M,-34.4,M,0000,0000*57
$GPRMC,174640.500,A,4308.4560,N,07726.3685,W,8.62,300.77,170818,,,D*70
$GPGGA,174640.750,4308.4565,N,07726.3696,W,2,08,1.59,144.9,M,-34.4,M,0000,0000*5F
$GPRMC,174641.000,A,4308.4568,N,07726.3708,W,10.88,292.57,170818,,,D*4D
$GPGGA,174641.250,4308.4572,N,07726.3721,W,2,08,1.59,145.0,M,-34.4,M,0000,0000*58
$GPRMC,174641.500,A,4308.4574,N,07726.3735,W,13.08,286.38,170818,,,D*4C
$GPGGA,174641.750,4308.4577,N,07726.3750,W,2,08,1.59,145.0,M,-34.4,M,0000,0000*5E
$GPRMC,174642.000,A,4308.4580,N,07726.3765,W,14.47,283.45,170818,,,D*47
$GPGGA,174642.250,4308.4581,N,07726.3780,W,2,08,1.59,145.0,M,-34.4,M,0000,0000*5C
$GPRMC,174642.500,A,4308.4583,N,07726.3797,W,15.86,280.90,170818,,,D*4B
$GPGGA,174642.750,4308.4584,N,07726.3813,W,2,08,1.59,145.0,M,-34.4,M,0000,0000*59
$GPRMC,174643.000,A,4308.4587,N,07726.3830,W,16.69,279.44,170818,,,D*44
$GPGGA,174643.250,4308.4590,N,07726.3848,W,2,08,1.59,144.9,M,-34.4,M,0000,0000*5E
$GPRMC,174643.500,A,4308.4593,N,07726.3865,W,17.38,280.23,170818,,,D*46
$GPGGA,174643.750,4308.4596,N,07726.3882,W,2,08,1.59,144.8,M,-34.4,M,0000,0000*5A
$GPRMC,174644.000,A,4308.4600,N,07726.3899,W,17.51,281.22,170818,,,D*41
$GPGGA,174644.250,4308.4603,N,07726.3916,W,2,08,1.59,144.7,M,-34.4,M,0000,0000*54
$GPRMC,174644.500,A,4308.4605,N,07726.3933,W,17.50,281.19,170818,,,D*49
$GPGGA,174644.750,4308.4608,N,07726.3950,W,2,08,1.59,144.6,M,-34.4,M,0000,0000*59
$GPRMC,174645.000,A,4308.4610,N,07726.3967,W,17.48,281.27,170818,,,D*4C
$GPGGA,174645.250,4308.4613,N,07726.3983,W,2,08,1.59,144.5,M,-34.4,M,0000,0000*5A
$GPRMC,174645.500,A,4308.4616,N,07726.4000,W,17.27,281.04,170818,,,D*48
$GPGGA,174645.750,4308.4618,N,07726.4016,W,2,08,1.59,144.3,M,-34.4,M,0000,0000*50
$GPRMC,174646.000,A,4308.4620,N,07726.4033,W,17.13,280.30,170818,,,D*4A
$GPGGA,174646.250,4308.4621,N,07726.4050,W,2,08,1.59,144.1,M,-34.4,M,0000,0000*5C
$GPRMC,174646.500,A,4308.4623,N,07726.4066,W,16.98,280.03,170818,,,D*4E
$GPGGA,174646.750,4308.4623,N,07726.4082,W,2,08,1.59,143.9,M,-34.4,M,0000,0000*5B
$GPRMC,174647.000,A,4308.4625,N,07726.4100,W,16.88,279.41,170818,,,D*4C
$GPGGA,174647.250,4308.4627,N,07726.4117,W,2,08,1.59,143.7,M,-34.4,M,0000,0000*58
$GPRMC,174647.500,A,4308.4629,N,07726.4134,W,16.87,278.94,170818,,,D*44
$GPGGA,174647.750,4308.4633,N,07726.4150,W,2,08,1.59,143.5,M,-34.4,M,0000,0000*59
$GPRMC,174648.000,A,4308.4635,N,07726.4168,W,16.88,278.62,170818,,,D*4C
$GPGGA,174648.250,4308.4636,N,07726.4184,W,2,08,1.59,143.3,M,-34.4,M,0000,0000*59
$GPRMC,174648.500,A,4308.4639,N,07726.4201,W,16.26,278.23,170818,,,D*48
$GPGGA,174648.750,4308.4641,N,07726.4216,W,2,08,1.59,143.2,M,-34.4,M,0000,0000*55
$GPRMC,174649.000,A,4308.4643,N,07726.4231,W,15.37,278.84,170818,,,D*4C
$GPGGA,174649.250,4308.4645,N,07726.4244,W,2,08,1.59,143.0,M,-34.4,M,0000,0000*50
$GPRMC,174649.500,A,4308.4647,N,07726.4257,W,13.81,279.22,170818,,,D*4B
$GPGGA,174649.750,4308.4648,N,07726.4269,W,2,08,1.59,142.9,M,-34.4,M,0000,0000*5F
$GPRMC,174650.000,A,4308.4650,N,07726.4281,W,12.47,279.84,170818,,,D*4C
$GPGGA,174650.250,4308.4652,N,07726.4292,W,2,08,1.59,142.8,M,-34.4,M,0000,0000*5C
$GPRMC,174650.500,A,4308.4654,N,07726.4301,W,10.85,281.33,170818,,,D*43
$GPGGA,174650.750,4308.4656,N,07726.4311,W,2,08,1.59,142.7,M,-34.4,M,0000,0000*58
$GPRMC,174651.000,A,4308.4658,N,07726.4320,W,9.76,282.59,170818,,,D*73
$GPGGA,174651.250,4308.4661,N,07726.4328,W,2,08,1.59,142.5,M,-34.4,M,0000,0000*50
$GPRMC,174651.500,A,4308.4663,N,07726.4335,W,8.31,282.96,170818,,,D*7B
$GPGGA,174651.750,4308.4665,N,07726.4342,W,2,08,1.59,142.5,M,-34.4,M,0000,0000*5D
$GPRMC,174652.000,A,4308.4667,N,07726.4348,W,7.22,282.85,170818,,,D*7C
$GPGGA,174652.250,4308.4670,N,07726.4354,W,2,08,1.59,142.4,M,-34.4,M,0000,0000*59
$GPRMC,174652.500,A,4308.4672,N,07726.4358,W,5.64,285.99,170818,,,D*76
$GPGGA,174652.750,4308.4674,N,07726.4362,W,2,08,1.59,142.5,M,-34.4,M,0000,0000*5C
$GPRMC,174653.000,A,4308.4676,N,07726.4366,W,4.49,288.26,170818,,,D*7C
$GPGGA,174653.250,4308.4677,N,07726.4369,W,2,08,1.59,142.3,M,-34.4,M,0000,0000*56
$GPRMC,174653.500,A,4308.4678,N,07726.4370,W,3.00,290.95,170818,,,D*7B
$GPGGA,174653.750,4308.4679,N,07726.4372,W,2,08,1.38,142.2,M,-34.4,M,0000,0000*51
$GPRMC,174654.000,A,4308.4680,N,07726.4373,W,2.09,290.95,170818,,,D*75
$GPGGA,174654.250,4308.4681,N,07726.4374,W,2,08,1.38,142.1,M,-34.4,M,0000,0000*51
$GPRMC,174654.500,A,4308.4683,N,07726.4372,W,1.33,290.95,170818,,,D*78
$GPGGA,174654.750,4308.4683,N,07726.4370,W,2,08,1.38,141.9,M,-34.4,M,0000,0000*59
$GPRMC,174655.000,A,4308.4683,N,07726.4369,W,0.94,290.95,170818,,,D*7A
$GPGGA,174655.250,4308.4683,N,07726.4369,W,2,08,1.38,141.8,M,-34.4,M,0000,0000*54
$GPRMC,174655.500,A,4308.4684,N,07726.4368,W,0.80,290.95,170818,,,D*7C
$GPGGA,174655.750,4308.4685,N,07726.4368,W,2,08,1.38,141.7,M,-34.4,M,0000,0000*59
$GPRMC,174656.000,A,4308.4686,N,07726.4368,W,0.70,290.95,170818,,,D*77
$GPGGA,174656.250,4308.4686,N,07726.4367,W,2,08,1.38,141.5,M,-34.4,M,0000,0000*51
$GPRMC,174656.500,A,4308.4688,N,07726.4367,W,0.63,290.95,170818,,,D*71
$GPGGA,174656.750,4308.4689,N,07726.4367,W,2,08,1.38,141.3,M,-34.4,M,0000,0000*5D
$GPRMC,174657.000,A,4308.4690,N,07726.4366,W,0.59,290.95,170818,,,D*74
$GPGGA,174657.250,4308.4690,N,07726.4366,W,2,08,1.38,141.5,M,-34.4,M,0000,0000*56
$GPRMC,174657.500,A,4308.4691,N,07726.4365,W,0.51,290.95,170818,,,D*7B
$GPGGA,174657.750,4308.4691,N,07726.4365,W,2,08,1.38,141.5,M,-34.4,M,0000,0000*51
$GPRMC,174658.000,A,4308.4691,N,07726.4365,W,0.34,290.95,170818,,,D*72
$GPGGA,174658.250,4308.4692,N,07726.4365,W,2,08,1.38,141.4,M,-34.4,M,0000,0000*59
$GPRMC,174658.500,A,4308.4692,N,07726.4365,W,0.30,290.95,170818,,,D*70
$GPGGA,174658.750,4308.4692,N,07726.4365,W,2,08,1.59,141.3,M,-34.4,M,0000,0000*5C
$GPRMC,174659.000,A,4308.4692,N,07726.4365,W,0.29,290.95,170818,,,D*7C
$GPGGA,174659.250,4308.4692,N,07726.4365,W,2,08,1.59,141.3,M,-34.4,M,0000,0000*58
$GPRMC,174659.500,A,4308.4693,N,07726.4365,W,0.27,290.95,170818,,,D*76
$GPGGA,174659.750,4308.4693,N,07726.4365,W,2,08,1.59,141.2,M,-34.4,M,0000,0000*5D
$GPRMC,174700.000,A,4308.4693,N,07726.4365,W,0.20,290.95,170818,,,D*79
$GPGGA,174700.250,4308.4693,N,07726.4365,W,2,08,1.37,141.1,M,-34.4,M,0000,0000*5E
$GPRMC,174700.500,A,4308.4693,N,07726.4365,W,0.17,290.95,170818,,,D*78
$GPGGA,174700.750,4308.4693,N,07726.4365,W,2,08,1.37,141.1,M,-34.4,M,0000,0000*5B
$GPRMC,174701.000,A,4308.4693,N,07726.4365,W,0.15,290.95,170818,,,D*7E
$GPGGA,174701.250,4308.4693,N,07726.4365,W,2,08,1.38,141.0,M,-34.4,M,0000,0000*51
$GPRMC,174701.500,A,4308.4693,N,07726.4365,W,0.17,290.95,170818,,,D*79
$GPGGA,174701.750,4308.4694,N,07726.4365,W,2,08,1.38,141.0,M,-34.4,M,0000,0000*53
$GPRMC,174702.000,A,4308.4694,N,07726.4365,W,0.18,290.95,170818,,,D*77
$GPGGA,174702.250,4308.4694,N,07726.4364,W,2,08,1.38,140.9,M,-34.4,M,0000,0000*5C
$GPRMC,174702.500,A,4308.4694,N,07726.4364,W,0.20,290.95,170818,,,D*78
$GPGGA,174702.750,4308.4694,N,07726.4364,W,2,08,1.59,140.9,M,-34.4,M,0000,0000*5E
$GPRMC,174703.000,A,4308.4694,N,07726.4364,W,0.15,290.95,170818,,,D*7A
$GPGGA,174703.250,4308.4694,N,07726.4364,W,2,08,1.59,140.9,M,-34.4,M,0000,0000*5A
$GPRMC,174703.500,A,4308.4694,N,07726.4364,W,0.11,290.95,170818,,,D*7B
$GPGGA,174703.750,4308.4694,N,07726.4364,W,2,08,1.59,140.8,M,-34.4,M,0000,0000*5E
$GPRMC,174704.000,A,4308.4694,N,07726.4364,W,0.09,290.95,170818,,,D*70
$GPGGA,174704.250,4308.4694,N,07726.4364,W,2,08,1.59,140.8,M,-34.4,M,0000,0000*5C
$GPRMC,174704.500,A,4308.4694,N,07726.4364,W,0.10,290.95,170818,,,D*7D
$GPGGA,174704.750,4308.4695,N,07726.4364,W,2,08,1.37,140.8,M,-34.4,M,0000,0000*50
$GPRMC,174705.000,A,4308.4695,N,07726.4364,W,0.12,290.95,170818,,,D*7A
$GPGGA,174705.250,4308.4695,N,07726.4364,W,2,08,1.37,140.7,M,-34.4,M,0000,0000*5B
$GPRMC,174705.500,A,4308.4695,N,07726.4364,W,0.17,290.95,170818,,,D*7A
$GPGGA,174705.750,4308.4695,N,07726.4364,W,2,08,1.59,140.7,M,-34.4,M,0000,0000*56
$GPRMC,174706.000,A,4308.4695,N,07726.4364,W,0.20,290.95,170818,,,D*78
$GPGGA,174706.250,4308.4695,N,07726.4364,W,2,08,1.59,140.7,M,-34.4,M,0000,0000*50
$GPRMC,174706.500,A,4308.4695,N,07726.4364,W,0.23,290.95,170818,,,D*7E
$GPGGA,174706.750,4308.4695,N,07726.4364,W,2,08,1.59,140.7,M,-34.4,M,0000,0000*55
$GPRMC,174707.000,A,4308.4696,N,07726.4364,W,0.22,290.95,170818,,,D*78
$GPGGA,174707.250,4308.4696,N,07726.4364,W,2,08,1.37,140.6,M,-34.4,M,0000,0000*5B
$GPRMC,174707.500,A,4308.4696,N,07726.4364,W,0.23,290.95,170818,,,D*7C
$GPGGA,174707.750,4308.4696,N,07726.4363,W,2,08,1.37,140.6,M,-34.4,M,0000,0000*59
$GPRMC,174708.000,A,4308.4696,N,07726.4363,W,0.21,25.69,170818,,,D*4C
$GPGGA,174708.250,4308.4696,N,07726.4363,W,2,08,1.37,140.6,M,-34.4,M,0000,0000*53
$GPRMC,174708.500,A,4308.4696,N,07726.4363,W,0.17,27.12,170818,,,D*42
$GPGGA,174708.750,4308.4696,N,07726.4363,W,2,08,1.37,140.6,M,-34.4,M,0000,0000*56
$GPRMC,174709.000,A,4308.4696,N,07726.4363,W,0.13,27.12,170818,,,D*42
$GPGGA,174709.250,4308.4696,N,07726.4363,W,2,08,1.37,140.6,M,-34.4,M,0000,0000*52
$GPRMC,174709.500,A,4308.4696,N,07726.4363,W,0.13,27.12,170818,,,D*47
$GPGGA,174709.750,4308.4696,N,07726.4362,W,2,08,1.37,140.6,M,-34.4,M,0000,0000*56
$GPRMC,174710.000,A,4308.4696,N,07726.4362,W,0.09,27.12,170818,,,D*40
$GPGGA,174710.250,4308.4696,N,07726.4362,W,2,08,1.37,140.6,M,-34.4,M,0000,0000*5B
$GPRMC,174710.500,A,4308.4696,N,07726.4362,W,0.05,27.12,170818,,,D*49
$GPGGA,174710.750,4308.4696,N,07726.4362,W,2,08,1.37,140.5,M,-34.4,M,0000,0000*5D
$GPRMC,174711.000,A,4308.4696,N,07726.4362,W,0.04,27.12,170818,,,D*4C
$GPGGA,174711.250,4308.4696,N,07726.4362,W,2,08,1.37,140.5,M,-34.4,M,0000,0000*59
$GPRMC,174711.500,A,4308.4696,N,07726.4362,W,0.09,27.12,170818,,,D*44
$GPGGA,174711.750,4308.4696,N,07726.4362,W,2,08,1.37,140.5,M,-34.4,M,0000,0000*5C
$GPRMC,174712.000,A,4308.4696,N,07726.4362,W,0.14,27.12,170818,,,D*4E
$GPGGA,174712.250,4308.4696,N,07726.4362,W,2,08,1.37,140.5,M,-34.4,M,0000,0000*5A
$GPRMC,174712.500,A,4308.4696,N,07726.4362,W,0.15,27.12,170818,,,D*4A
$GPGGA,174712.750,4308.4696,N,07726.4362,W,2,08,1.37,140.5,M,-34.4,M,0000,0000*5F
$GPRMC,174713.000,A,4308.4696,N,07726.4363,W,0.16,27.12,170818,,,D*4C
$GPGGA,174713.250,4308.4695,N,07726.4363,W,2,08,1.37,140.5,M,-34.4,M,0000,0000*59
$GPRMC,174713.500,A,4308.4695,N,07726.4363,W,0.16,27.12,170818,,,D*4A
$GPGGA,174713.750,4308.4695,N,07726.4363,W,2,08,1.37,140.5,M,-34.4,M,0000,0000*5C
$GPRMC,174714.000,A,4308.4695,N,07726.4363,W,0.18,27.12,170818,,,D*46
$GPGGA,174714.250,4308.4695,N,07726.4363,W,2,08,1.37,140.5,M,-34.4,M,0000,0000*5E
$GPRMC,174714.500,A,4308.4695,N,07726.4363,W,0.24,27.12,170818,,,D*4C
$GPGGA,174714.750,4308.4695,N,07726.4363,W,2,08,1.37,140.5,M,-34.4,M,0000,0000*5B
$GPRMC,174715.000,A,4308.4694,N,07726.4363,W,0.28,27.12,170818,,,D*45
$GPGGA,174715.250,4308.4694,N,07726.4363,W,2,08,1.37,140.5,M,-34.4,M,0000,0000*5E
$GPRMC,174715.500,A,4308.4694,N,07726.4363,W,0.28,27.12,170818,,,D*40
$GPGGA,174715.750,4308.4694,N,07726.4363,W,2,08,1.37,140.5,M,-34.4,M,0000,0000*5B
$GPRMC,174716.000,A,4308.4694,N,07726.4363,W,0.25,27.12,170818,,,D*4B
$GPGGA,174716.250,4308.4693,N,07726.4362,W,2,08,1.37,140.5,M,-34.4,M,0000,0000*5B
$GPRMC,174716.500,A,4308.4693,N,07726.4362,W,0.27,27.12,170818,,,D*4A
$GPGGA,174716.750,4308.4693,N,07726.4362,W,2,08,1.37,140.5,M,-34.4,M,0000,0000*5E
$GPRMC,174717.000,A,4308.4693,N,07726.4362,W,0.29,27.12,170818,,,D*40
$GPGGA,174717.250,4308.4693,N,07726.4362,W,2,08,1.37,140.5,M,-34.4,M,0000,0000*5A
$GPRMC,174717.500,A,4308.4692,N,07726.4362,W,0.30,27.12,170818,,,D*4C
$GPGGA,174717.750,4308.4692,N,07726.4362,W,2,08,1.37,140.5,M,-34.4,M,0000,0000*5E
$GPRMC,174718.000,A,4308.4692,N,07726.4362,W,0.28,159.53,170818,,,D*72
$GPGGA,174718.250,4308.4692,N,07726.4361,W,2,08,1.37,140.5,M,-34.4,M,0000,0000*57
$GPRMC,174718.500,A,4308.4692,N,07726.4361,W,0.22,158.25,170818,,,D*7E
$GPGGA,174718.750,4308.4692,N,07726.4361,W,2,08,1.37,140.5,M,-34.4,M,0000,0000*52
$GPRMC,174719.000,A,4308.4691,N,07726.4361,W,0.17,157.13,170818,,,D*75
$GPGGA,174719.250,4308.4691,N,07726.4361,W,2,08,1.37,140.5,M,-34.4,M,0000,0000*55
$GPRMC,174719.500,A,4308.4691,N,07726.4361,W,0.14,156.14,170818,,,D*75
$GPGGA,174719.750,4308.4691,N,07726.4361,W,2,08,1.37,140.5,M,-34.4,M,0000,0000*50
$GPRMC,174720.000,A,4308.4691,N,07726.4361,W,0.16,155.15,170818,,,D*7A
$GPGGA,174720.250,4308.4691,N,07726.4361,W,2,08,1.37,140.5,M,-34.4,M,0000,0000*5F
$GPRMC,174720.500,A,4308.4691,N,07726.4361,W,0.15,154.74,170818,,,D*7A
$GPGGA,174720.750,4308.4691,N,07726.4361,W,2,08,1.37,140.5,M,-34.4,M,0000,0000*5A
$GPRMC,174721.000,A,4308.4691,N,07726.4361,W,0.13,154.57,170818,,,D*79
$GPGGA,174721.250,4308.4691,N,07726.4360,W,2,08,1.37,140.5,M,-34.4,M,0000,0000*5F
$GPRMC,174721.500,A,4308.4690,N,07726.4360,W,0.19,154.57,170818,,,D*76
$GPGGA,174721.750,4308.4690,N,07726.4361,W,2,08,1.37,140.5,M,-34.4,M,0000,0000*5A
$GPRMC,174722.000,A,4308.4690,N,07726.4361,W,0.84,154.57,170818,,,D*75
$GPGGA,174722.250,4308.4691,N,07726.4362,W,2,08,1.37,140.5,M,-34.4,M,0000,0000*5E
$GPRMC,174722.500,A,4308.4691,N,07726.4363,W,1.55,245.19,170818,,,D*77
$GPGGA,174722.750,4308.4691,N,07726.4365,W,2,08,1.37,140.5,M,-34.4,M,0000,0000*5C
$GPRMC,174723.000,A,4308.4691,N,07726.4368,W,3.11,274.05,170818,,,D*75
$GPGGA,174723.250,4308.4691,N,07726.4372,W,2,08,1.37,140.4,M,-34.4,M,0000,0000*5F
$GPRMC,174723.500,A,4308.4690,N,07726.4377,W,5.03,275.27,170818,,,D*7B
$GPGGA,174723.750,4308.4689,N,07726.4382,W,2,08,1.58,140.4,M,-34.4,M,0000,0000*55
$GPRMC,174724.000,A,4308.4688,N,07726.4388,W,6.12,275.89,170818,,,D*77
$GPGGA,174724.250,4308.4688,N,07726.4394,W,2,08,1.58,140.4,M,-34.4,M,0000,0000*51
$GPRMC,174724.500,A,4308.4687,N,07726.4401,W,7.39,277.49,170818,,,D*7D
$GPGGA,174724.750,4308.4686,N,07726.4409,W,2,08,1.58,140.4,M,-34.4,M,0000,0000*59
$GPRMC,174725.000,A,4308.4685,N,07726.4416,W,7.88,276.97,170818,,,D*75
$GPGGA,174725.250,4308.4685,N,07726.4424,W,2,08,1.58,140.5,M,-34.4,M,0000,0000*50
$GPRMC,174725.500,A,4308.4684,N,07726.4431,W,8.18,277.98,170818,,,D*7C
$GPGGA,174725.750,4308.4683,N,07726.4438,W,2,08,1.58,140.6,M,-34.4,M,0000,0000*5D
$GPRMC,174726.000,A,4308.4682,N,07726.4445,W,7.78,278.09,170818,,,D*71
$GPGGA,174726.250,4308.4682,N,07726.4452,W,2,08,1.58,140.7,M,-34.4,M,0000,0000*57
$GPRMC,174726.500,A,4308.4681,N,07726.4458,W,6.86,278.75,170818,,,D*70
$GPGGA,174726.750,4308.4680,N,07726.4464,W,2,08,1.58,140.9,M,-34.4,M,0000,0000*5B
$GPRMC,174727.000,A,4308.4679,N,07726.4469,W,5.60,277.20,170818,,,D*75
$GPGGA,174727.250,4308.4679,N,07726.4474,W,2,08,1.58,141.0,M,-34.4,M,0000,0000*50
$GPRMC,174727.500,A,4308.4678,N,07726.4478,W,3.98,276.42,170818,,,D*75
$GPGGA,174727.750,4308.4676,N,07726.4481,W,2,08,1.58,141.0,M,-34.4,M,0000,0000*50
$GPRMC,174728.000,A,4308.4676,N,07726.4484,W,2.85,271.31,170818,,,D*7C
$GPGGA,174728.250,4308.4675,N,07726.4486,W,2,08,1.37,141.1,M,-34.4,M,0000,0000*56
$GPRMC,174728.500,A,4308.4674,N,07726.4487,W,1.16,252.15,170818,,,D*76
$GPGGA,174728.750,4308.4674,N,07726.4488,W,2,08,1.37,141.1,M,-34.4,M,0000,0000*5C
$GPRMC,174729.000,A,4308.4674,N,07726.4488,W,0.56,243.43,170818,,,D*7B
$GPGGA,174729.250,4308.4674,N,07726.4488,W,2,08,1.37,141.1,M,-34.4,M,0000,0000*58
$GPRMC,174729.500,A,4308.4673,N,07726.4487,W,0.37,243.43,170818,,,D*71
$GPGGA,174729.750,4308.4673,N,07726.4485,W,2,08,1.37,141.1,M,-34.4,M,0000,0000*57
$GPRMC,174730.000,A,4308.4672,N,07726.4484,W,0.83,114.04,170818,,,D*73
$GPGGA,174730.250,4308.4672,N,07726.4483,W,2,08,1.37,141.2,M,-34.4,M,0000,0000*5E
$GPRMC,174730.500,A,4308.4672,N,07726.4482,W,1.25,106.78,170818,,,D*75
$GPGGA,174730.750,4308.4672,N,07726.4480,W,2,08,1.37,141.2,M,-34.4,M,0000,0000*58
$GPRMC,174731.000,A,4308.4672,N,07726.4479,W,1.33,103.86,170818,,,D*76
$GPGGA,174731.250,4308.4672,N,07726.4478,W,2,08,1.37,141.3,M,-34.4,M,0000,0000*5A
$GPRMC,174731.500,A,4308.4672,N,07726.4478,W,1.33,100.10,170818,,,D*7E
$GPGGA,174731.750,4308.4671,N,07726.4477,W,2,08,1.37,141.3,M,-34.4,M,0000,0000*53
$GPRMC,174732.000,A,4308.4671,N,07726.4476,W,1.26,100.18,170818,,,D*79
$GPGGA,174732.250,4308.4671,N,07726.4476,W,2,08,1.37,141.3,M,-34.4,M,0000,0000*54
$GPRMC,174732.500,A,4308.4671,N,07726.4476,W,0.99,102.16,170818,,,D*75
$GPGGA,174732.750,4308.4671,N,07726.4476,W,2,08,1.37,141.3,M,-34.4,M,0000,0000*51
$GPRMC,174733.000,A,4308.4671,N,07726.4476,W,0.72,107.60,170818,,,D*70
$GPGGA,174733.250,4308.4670,N,07726.4476,W,2,08,1.37,141.3,M,-34.4,M,0000,0000*54
$GPRMC,174733.500,A,4308.4670,N,07726.4475,W,0.59,112.05,170818,,,D*79
$GPGGA,174733.750,4308.4669,N,07726.4475,W,2,08,1.37,141.3,M,-34.4,M,0000,0000*5A
$GPRMC,174734.000,A,4308.4669,N,07726.4475,W,0.47,112.05,170818,,,D*7C
$GPGGA,174734.250,4308.4669,N,07726.4475,W,2,08,1.37,141.4,M,-34.4,M,0000,0000*5F
$GPRMC,174734.500,A,4308.4669,N,07726.4475,W,0.21,112.05,170818,,,D*79
$GPGGA,174734.750,4308.4668,N,07726.4475,W,2,08,1.37,141.4,M,-34.4,M,0000,0000*5B
$GPRMC,174735.000,A,4308.4669,N,07726.4476,W,0.17,112.05,170818,,,D*7B
$GPGGA,174735.250,4308.4668,N,07726.4477,W,2,08,1.37,141.4,M,-34.4,M,0000,0000*5D
$GPRMC,174735.500,A,4308.4668,N,07726.4479,W,0.77,263.86,170818,,,D*78
$GPGGA,174735.750,4308.4668,N,07726.4482,W,2,08,1.37,141.4,M,-34.4,M,0000,0000*52
$GPRMC,174736.000,A,4308.4669,N,07726.4484,W,1.59,270.87,170818,,,D*73
$GPGGA,174736.250,4308.4673,N,07726.4489,W,2,08,1.37,141.5,M,-34.4,M,0000,0000*54
$GPRMC,174736.500,A,4308.4675,N,07726.4494,W,4.91,278.78,170818,,,D*73
$GPGGA,174736.750,4308.4676,N,07726.4500,W,2,08,1.58,141.5,M,-34.4,M,0000,0000*5D
$GPRMC,174737.000,A,4308.4677,N,07726.4507,W,6.86,276.98,170818,,,D*7A
$GPGGA,174737.250,4308.4677,N,07726.4514,W,2,08,1.58,141.6,M,-34.4,M,0000,0000*5E
$GPRMC,174737.500,A,4308.4677,N,07726.4522,W,8.31,276.18,170818,,,D*72
$GPGGA,174737.750,4308.4677,N,07726.4531,W,2,08,1.58,141.6,M,-34.4,M,0000,0000*5C
$GPRMC,174738.000,A,4308.4677,N,07726.4541,W,9.02,272.26,170818,,,D*75
$GPGGA,174738.250,4308.4677,N,07726.4550,W,2,08,1.58,141.7,M,-34.4,M,0000,0000*50
$GPRMC,174738.500,A,4308.4674,N,07726.4560,W,9.35,267.19,170818,,,D*7C
$GPGGA,174738.750,4308.4668,N,07726.4570,W,2,08,1.58,141.8,M,-34.4,M,0000,0000*56
$GPRMC,174739.000,A,4308.4666,N,07726.4579,W,9.56,243.99,170818,,,D*78
$GPGGA,174739.250,4308.4661,N,07726.4588,W,2,08,1.58,141.9,M,-34.4,M,0000,0000*5D
$GPRMC,174739.500,A,4308.4656,N,07726.4598,W,10.47,235.34,170818,,,D*4F
$GPGGA,174739.750,4308.4652,N,07726.4606,W,2,08,1.58,141.9,M,-34.4,M,0000,0000*5D
$GPRMC,174740.000,A,4308.4647,N,07726.4614,W,10.43,228.01,170818,,,D*4D
$GPGGA,174740.250,4308.4640,N,07726.4621,W,2,08,1.58,141.9,M,-34.4,M,0000,0000*50
$GPRMC,174740.500,A,4308.4632,N,07726.4629,W,11.15,219.91,170818,,,D*4D
$GPGGA,174740.750,4308.4624,N,07726.4636,W,2,08,1.58,141.8,M,-34.4,M,0000,0000*50
$GPRMC,174741.000,A,4308.4616,N,07726.4643,W,12.10,213.61,170818,,,D*40
$GPGGA,174741.250,4308.4606,N,07726.4649,W,2,08,1.58,141.7,M,-34.4,M,0000,0000*53
$GPRMC,174741.500,A,4308.4596,N,07726.4655,W,13.42,207.24,170818,,,D*4B
$GPGGA,174741.750,4308.4588,N,07726.4659,W,2,08,1.58,141.6,M,-34.4,M,0000,0000*53
$GPRMC,174742.000,A,4308.4578,N,07726.4664,W,14.85,203.00,170818,,,D*41
$GPGGA,174742.250,4308.4567,N,07726.4670,W,2,08,1.58,141.4,M,-34.4,M,0000,0000*5D
$GPRMC,174742.500,A,4308.4555,N,07726.4675,W,16.37,201.02,170818,,,D*40
$GPGGA,174742.750,4308.4542,N,07726.4681,W,2,08,1.58,141.2,M,-34.4,M,0000,0000*57
$GPRMC,174743.000,A,4308.4529,N,07726.4686,W,17.57,199.97,170818,,,D*4A
$GPGGA,174743.250,4308.4516,N,07726.4692,W,2,08,1.58,141.1,M,-34.4,M,0000,0000*53
$GPRMC,174743.500,A,4308.4502,N,07726.4698,W,18.65,200.23,170818,,,D*4B
$GPGGA,174743.750,4308.4488,N,07726.4704,W,2,08,1.58,141.0,M,-34.4,M,0000,0000*5F
$GPRMC,174744.000,A,4308.4473,N,07726.4711,W,19.59,200.15,170818,,,D*45
$GPGGA,174744.250,4308.4458,N,07726.4717,W,2,08,1.58,140.8,M,-34.4,M,0000,0000*5B
$GPRMC,174744.500,A,4308.4443,N,07726.4724,W,20.65,200.45,170818,,,D*45
$GPGGA,174744.750,4308.4428,N,07726.4731,W,2,08,1.58,140.6,M,-34.4,M,0000,0000*53
$GPRMC,174745.000,A,4308.4412,N,07726.4738,W,21.46,200.70,170818,,,D*4E
$GPGGA,174745.250,4308.4396,N,07726.4746,W,2,08,1.58,140.4,M,-34.4,M,0000,0000*57
$GPRMC,174745.500,A,4308.4381,N,07726.4754,W,22.29,201.75,170818,,,D*42
$GPGGA,174745.750,4308.4366,N,07726.4762,W,2,08,1.58,140.3,M,-34.4,M,0000,0000*5C
$GPRMC,174746.000,A,4308.4350,N,07726.4771,W,22.66,202.26,170818,,,D*41
$GPGGA,174746.250,4308.4333,N,07726.4779,W,2,08,1.58,140.2,M,-34.4,M,0000,0000*51
$GPRMC,174746.500,A,4308.4316,N,07726.4788,W,23.90,201.71,170818,,,D*49
$GPGGA,174746.750,4308.4298,N,07726.4796,W,2,08,1.58,140.1,M,-34.4,M,0000,0000*56
$GPRMC,174747.000,A,4308.4279,N,07726.4805,W,25.24,200.91,170818,,,D*49
$GPGGA,174747.250,4308.4261,N,07726.4814,W,2,08,1.58,140.1,M,-34.4,M,0000,0000*51
$GPRMC,174747.500,A,4308.4242,N,07726.4822,W,26.07,199.52,170818,,,D*4F
$GPGGA,174747.750,4308.4224,N,07726.4830,W,2,08,1.58,140.0,M,-34.4,M,0000,0000*52
$GPRMC,174748.000,A,4308.4204,N,07726.4839,W,27.33,198.89,170818,,,D*4C
$GPGGA,174748.250,4308.4184,N,07726.4847,W,2,08,1.58,139.8,M,-34.4,M,0000,0000*57
$GPRMC,174748.500,A,4308.4164,N,07726.4857,W,28.70,198.93,170818,,,D*47
$GPGGA,174748.750,4308.4143,N,07726.4866,W,2,08,1.58,139.7,M,-34.4,M,0000,0000*55
$GPRMC,174749.000,A,4308.4124,N,07726.4876,W,29.25,199.36,170818,,,D*4B
$GPGGA,174749.250,4308.4104,N,07726.4885,W,2,08,1.58,139.5,M,-34.4,M,0000,0000*5D
$GPRMC,174749.500,A,4308.4083,N,07726.4894,W,29.50,199.02,170818,,,D*4B
$GPGGA,174749.750,4308.4062,N,07726.4904,W,2,08,1.58,139.3,M,-34.4,M,0000,0000*57
$GPRMC,174750.000,A,4308.4041,N,07726.4913,W,30.17,198.60,170818,,,D*48
$GPGGA,174750.250,4308.4020,N,07726.4922,W,2,08,1.58,139.1,M,-34.4,M,0000,0000*5A
$GPRMC,174750.500,A,4308.3999,N,07726.4931,W,30.24,197.62,170818,,,D*4B
$GPGGA,174750.750,4308.3978,N,07726.4940,W,2,08,1.58,138.8,M,-34.4,M,0000,0000*50
$GPRMC,174751.000,A,4308.3956,N,07726.4949,W,31.13,197.27,170818,,,D*47
$GPGGA,174751.250,4308.3935,N,07726.4957,W,2,08,1.58,138.5,M,-34.4,M,0000,0000*56
$GPRMC,174751.500,A,4308.3913,N,07726.4966,W,31.50,196.80,170818,,,D*45
$GPGGA,174751.750,4308.3891,N,07726.4974,W,2,08,1.58,138.3,M,-34.4,M,0000,0000*5B
$GPRMC,174752.000,A,4308.3870,N,07726.4983,W,31.73,196.44,170818,,,D*45
$GPGGA,174752.250,4308.3848,N,07726.4991,W,2,08,1.37,138.2,M,-34.4,M,0000,0000*5A
$GPRMC,174752.500,A,4308.3826,N,07726.4999,W,31.82,196.00,170818,,,D*46
$GPGGA,174752.750,4308.3803,N,07726.5007,W,2,08,1.57,138.0,M,-34.4,M,0000,0000*53
$GPRMC,174753.000,A,4308.3780,N,07726.5015,W,32.05,195.13,170818,,,D*40
$GPGGA,174753.250,4308.3756,N,07726.5023,W,2,08,1.57,137.9,M,-34.4,M,0000,0000*58
$GPRMC,174753.500,A,4308.3733,N,07726.5030,W,33.23,193.22,170818,,,D*4B
$GPGGA,174753.750,4308.3710,N,07726.5037,W,2,08,1.57,137.7,M,-34.4,M,0000,0000*54
$GPRMC,174754.000,A,4308.3686,N,07726.5044,W,33.49,191.95,170818,,,D*47
$GPGGA,174754.250,4308.3663,N,07726.5050,W,2,08,1.57,137.5,M,-34.4,M,0000,0000*50
$GPRMC,174754.500,A,4308.3639,N,07726.5056,W,33.75,191.09,170818,,,D*4F
$GPGGA,174754.750,4308.3615,N,07726.5063,W,2,08,1.57,137.4,M,-34.4,M,0000,0000*55
$GPRMC,174755.000,A,4308.3591,N,07726.5068,W,34.04,190.38,170818,,,D*45
$GPGGA,174755.250,4308.3567,N,07726.5074,W,2,08,1.57,137.2,M,-34.4,M,0000,0000*57
$GPRMC,174755.500,A,4308.3543,N,07726.5078,W,34.41,188.96,170818,,,D*42
$GPGGA,174755.750,4308.3517,N,07726.5083,W,2,08,1.57,137.2,M,-34.4,M,0000,0000*5D
$GPRMC,174756.000,A,4308.3493,N,07726.5087,W,34.97,187.71,170818,,,D*45
$GPGGA,174756.250,4308.3470,N,07726.5091,W,2,08,1.57,137.2,M,-34.4,M,0000,0000*58
$GPRMC,174756.500,A,4308.3446,N,07726.5094,W,34.68,187.02,170818,,,D*4E
$GPGGA,174756.750,4308.3422,N,07726.5098,W,2,08,1.57,137.2,M,-34.4,M,0000,0000*53
$GPRMC,174757.000,A,4308.3399,N,07726.5100,W,34.53,186.13,170818,,,D*4A
$GPGGA,174757.250,4308.3375,N,07726.5103,W,2,08,1.57,137.3,M,-34.4,M,0000,0000*50
$GPRMC,174757.500,A,4308.3352,N,07726.5105,W,34.31,185.35,170818,,,D*4E
$GPGGA,174757.750,4308.3329,N,07726.5107,W,2,08,1.36,137.3,M,-34.4,M,0000,0000*5F
$GPRMC,174758.000,A,4308.3306,N,07726.5110,W,33.94,184.95,170818,,,D*42
$GPGGA,174758.250,4308.3283,N,07726.5112,W,2,08,1.36,137.3,M,-34.4,M,0000,0000*50
$GPRMC,174758.500,A,4308.3261,N,07726.5113,W,33.72,184.16,170818,,,D*47
$GPGGA,174758.750,4308.3239,N,07726.5115,W,2,08,1.57,137.3,M,-34.4,M,0000,0000*54
$GPRMC,174759.000,A,4308.3217,N,07726.5116,W,33.46,183.60,170818,,,D*46
$GPGGA,174759.250,4308.3195,N,07726.5118,W,2,08,1.37,137.4,M,-34.4,M,0000,0000*59
$GPRMC,174759.500,A,4308.3173,N,07726.5119,W,33.24,183.37,170818,,,D*4B
$GPGGA,174759.750,4308.3151,N,07726.5121,W,2,08,1.57,137.5,M,-34.4,M,0000,0000*59
$GPRMC,174800.000,A,4308.3130,N,07726.5123,W,31.88,183.60,170818,,,D*45
$GPGGA,174800.250,4308.3108,N,07726.5124,W,2,08,1.36,137.5,M,-34.4,M,0000,0000*51
$GPRMC,174800.500,A,4308.3086,N,07726.5126,W,31.60,183.51,170818,,,D*4D
$GPGGA,174800.750,4308.3064,N,07726.5127,W,2,08,1.57,137.6,M,-34.4,M,0000,0000*58
$GPRMC,174801.000,A,4308.3043,N,07726.5129,W,31.04,183.25,170818,,,D*4E
$GPGGA,174801.250,4308.3022,N,07726.5130,W,2,08,1.36,137.7,M,-34.4,M,0000,0000*5E
$GPRMC,174801.500,A,4308.3001,N,07726.5132,W,30.79,182.88,170818,,,D*4A
$GPGGA,174801.750,4308.2979,N,07726.5133,W,2,08,1.57,137.8,M,-34.4,M,0000,0000*56
$GPRMC,174802.000,A,4308.2956,N,07726.5134,W,30.91,182.72,170818,,,D*43
$GPGGA,174802.250,4308.2934,N,07726.5135,W,2,08,1.36,138.0,M,-34.4,M,0000,0000*5F
$GPRMC,174802.500,A,4308.2911,N,07726.5135,W,31.53,181.99,170818,,,D*4D
$GPGGA,174802.750,4308.2888,N,07726.5135,W,2,08,1.57,138.2,M,-34.4,M,0000,0000*59
$GPRMC,174803.000,A,4308.2865,N,07726.5136,W,32.07,181.47,170818,,,D*49
$GPGGA,174803.250,4308.2841,N,07726.5136,W,2,08,1.36,138.3,M,-34.4,M,0000,0000*5D
$GPRMC,174803.500,A,4308.2818,N,07726.5136,W,32.26,181.16,170818,,,D*41
$GPGGA,174803.750,4308.2795,N,07726.5137,W,2,08,1.57,138.4,M,-34.4,M,0000,0000*5F
$GPRMC,174804.000,A,4308.2772,N,07726.5137,W,32.80,180.92,170818,,,D*40
$GPGGA,174804.250,4308.2749,N,07726.5137,W,2,08,1.36,138.6,M,-34.4,M,0000,0000*59
$GPRMC,174804.500,A,4308.2726,N,07726.5137,W,32.82,180.96,170818,,,D*42
$GPGGA,174804.750,4308.2703,N,07726.5137,W,2,08,1.57,138.8,M,-34.4,M,0000,0000*5B
$GPRMC,174805.000,A,4308.2678,N,07726.5138,W,33.23,181.05,170818,,,D*42
$GPGGA,174805.250,4308.2654,N,07726.5138,W,2,08,1.57,138.9,M,-34.4,M,0000,0000*52
$GPRMC,174805.500,A,4308.2630,N,07726.5138,W,33.57,181.02,170818,,,D*4F
$GPGGA,174805.750,4308.2606,N,07726.5139,W,2,08,1.57,139.0,M,-34.4,M,0000,0000*59
$GPRMC,174806.000,A,4308.2582,N,07726.5139,W,33.90,181.21,170818,,,D*48
$GPGGA,174806.250,4308.2558,N,07726.5140,W,2,08,1.57,139.1,M,-34.4,M,0000,0000*58
$GPRMC,174806.500,A,4308.2533,N,07726.5140,W,34.00,181.49,170818,,,D*49
