Vers 57
USE_SERIAL_FEEDBACK=false
DEVELOPMENT_MODE=false
USE_RMC_ONLY=false

$GPRMC,164634.400,A,4308.3217,N,07726.2535,W,0.17,277.87,190818,,,A*75
$GPGGA,164634.600,4308.3217,N,07726.2535,W,1,04,10.01,145.7,M,-34.4,M,,*6A
$GPRMC,164634.800,A,4308.3218,N,07726.2534,W,0.05,19.98,190818,,,A*40
$GPGGA,164635.000,4308.3218,N,07726.2534,W,1,04,10.02,145.8,M,-34.4,M,,*6F
$GPRMC,164635.200,A,4308.3215,N,07726.2535,W,0.08,158.04,190818,,,A*7B
$GPGGA,164635.400,4308.3213,N,07726.2536,W,1,04,10.02,145.5,M,-34.4,M,,*6F
$GPRMC,164635.600,A,4308.3211,N,07726.2536,W,0.14,42.25,190818,,,A*4C
$GPGGA,164635.800,4308.3210,N,07726.2536,W,1,04,10.03,145.2,M,-34.4,M,,*66
$GPRMC,164636.000,A,4308.3203,N,07726.2539,W,0.19,194.39,190818,,,A*7F
$GPGGA,164636.200,4308.3203,N,07726.2539,W,1,04,10.03,144.8,M,-34.4,M,,*69
$GPRMC,164636.400,A,4308.3205,N,07726.2537,W,0.42,97.91,190818,,,A*4D
$GPGGA,164636.600,4308.3206,N,07726.2536,W,1,04,10.04,144.8,M,-34.4,M,,*60
$GPRMC,164636.800,A,4308.3206,N,07726.2536,W,0.36,17.98,190818,,,A*41
$GPGGA,164637.000,4308.3208,N,07726.2535,W,1,04,10.04,144.7,M,-34.4,M,,*65
$GPRMC,164637.200,A,4308.3209,N,07726.2535,W,0.69,352.57,190818,,,A*7D
$GPGGA,164637.400,4308.3209,N,07726.2535,W,1,04,10.86,144.6,M,-34.4,M,,*6B
$GPRMC,164637.600,A,4308.3215,N,07726.2532,W,0.87,7.67,190818,,,A*73
$GPGGA,164637.800,4308.3219,N,07726.2530,W,1,04,10.86,145.0,M,-34.4,M,,*64
$GPRMC,164638.000,A,4308.3222,N,07726.2528,W,0.67,19.51,190818,,,A*41
$GPGGA,164638.200,4308.3222,N,07726.2528,W,1,04,10.06,145.1,M,-34.4,M,,*69
$GPRMC,164638.400,A,4308.3223,N,07726.2528,W,0.63,14.91,190818,,,A*41
$GPGGA,164638.600,4308.3224,N,07726.2527,W,1,04,10.87,145.1,M,-34.4,M,,*6D
$GPRMC,164638.800,A,4308.3224,N,07726.2527,W,0.69,17.33,190818,,,A*44
$GPGGA,164639.000,4308.3224,N,07726.2527,W,1,04,10.07,145.2,M,-34.4,M,,*61
$GPRMC,164639.200,A,4308.3225,N,07726.2527,W,0.71,12.97,190818,,,A*4C
$GPGGA,164639.400,4308.3225,N,07726.2527,W,1,04,10.88,145.2,M,-34.4,M,,*63
$GPRMC,164639.600,A,4308.3225,N,07726.2527,W,0.69,14.27,190818,,,A*4C
$GPGGA,164639.800,4308.3224,N,07726.2527,W,1,04,10.88,145.2,M,-34.4,M,,*6E
$GPRMC,164640.000,A,4308.3225,N,07726.2527,W,0.77,2.70,190818,,,A*7E
$GPGGA,164640.200,4308.3225,N,07726.2527,W,1,04,10.89,145.1,M,-34.4,M,,*69
$GPRMC,164640.400,A,4308.3226,N,07726.2527,W,0.78,6.83,190818,,,A*7E
$GPGGA,164640.600,4308.3226,N,07726.2527,W,1,04,10.89,145.1,M,-34.4,M,,*6E
$GPRMC,164640.800,A,4308.3227,N,07726.2527,W,0.79,5.85,190818,,,A*77
$GPGGA,164641.000,4308.3228,N,07726.2527,W,1,04,10.90,145.1,M,-34.4,M,,*6F
$GPRMC,164641.200,A,4308.3229,N,07726.2526,W,0.78,8.44,190818,,,A*72
$GPGGA,164641.400,4308.3230,N,07726.2525,W,1,04,10.90,145.1,M,-34.4,M,,*60
$GPRMC,164641.600,A,4308.3231,N,07726.2525,W,0.79,11.31,190818,,,A*47
$GPGGA,164641.800,4308.3231,N,07726.2525,W,1,04,10.90,145.1,M,-34.4,M,,*6D
$GPRMC,164642.000,A,4308.3232,N,07726.2525,W,0.78,12.51,190818,,,A*45
$GPGGA,164642.200,4308.3232,N,07726.2524,W,1,04,10.91,144.9,M,-34.4,M,,*6E
$GPRMC,164642.400,A,4308.3232,N,07726.2524,W,0.77,13.73,190818,,,A*4E
$GPGGA,164642.600,4308.3233,N,07726.2524,W,1,04,10.91,144.9,M,-34.4,M,,*6B
$GPRMC,164642.800,A,4308.3233,N,07726.2524,W,0.76,13.91,190818,,,A*4E
$GPGGA,164643.000,4308.3234,N,07726.2524,W,1,04,10.92,144.9,M,-34.4,M,,*68
$GPRMC,164643.200,A,4308.3235,N,07726.2523,W,0.77,17.72,190818,,,A*4C
$GPGGA,164643.400,4308.3235,N,07726.2523,W,1,04,10.13,144.9,M,-34.4,M,,*63
$GPRMC,164643.600,A,4308.3235,N,07726.2523,W,0.76,19.64,190818,,,A*40
$GPGGA,164643.800,4308.3236,N,07726.2523,W,1,04,10.14,145.0,M,-34.4,M,,*63
$GPRMC,164644.000,A,4308.3236,N,07726.2523,W,0.77,23.12,190818,,,A*4B
$GPGGA,164644.200,4308.3236,N,07726.2523,W,1,04,10.14,144.9,M,-34.4,M,,*66
$GPRMC,164644.400,A,4308.3236,N,07726.2523,W,0.74,21.09,190818,,,A*44
$GPGGA,164644.600,4308.3236,N,07726.2523,W,1,04,10.14,144.8,M,-34.4,M,,*63
$GPRMC,164644.800,A,4308.3236,N,07726.2523,W,0.76,22.22,190818,,,A*40
$GPGGA,164645.000,4308.3237,N,07726.2522,W,1,04,10.15,144.8,M,-34.4,M,,*65
$GPRMC,164645.200,A,4308.3237,N,07726.2522,W,0.79,25.30,190818,,,A*40
$GPGGA,164645.400,4308.3237,N,07726.2521,W,1,04,10.16,144.9,M,-34.4,M,,*60
$GPRMC,164645.600,A,4308.3237,N,07726.2521,W,0.81,26.88,190818,,,A*40
$GPGGA,164645.800,4308.3237,N,07726.2522,W,1,04,10.17,145.0,M,-34.4,M,,*66
$GPRMC,164646.000,A,4308.3238,N,07726.2522,W,0.85,18.87,190818,,,A*4F
$GPGGA,164646.200,4308.3238,N,07726.2523,W,1,04,10.16,145.2,M,-34.4,M,,*62
$GPRMC,164646.400,A,4308.3238,N,07726.2523,W,0.85,14.69,190818,,,A*46
$GPGGA,164646.600,4308.3237,N,07726.2524,W,1,04,10.95,145.3,M,-34.4,M,,*64
$GPRMC,164646.800,A,4308.3238,N,07726.2524,W,0.83,9.89,190818,,,A*79
$GPGGA,164647.000,4308.3239,N,07726.2524,W,1,04,10.95,145.4,M,-34.4,M,,*6A
$GPRMC,164647.200,A,4308.3240,N,07726.2524,W,0.97,6.07,190818,,,A*71
$GPGGA,164647.400,4308.3243,N,07726.2525,W,1,04,10.96,145.6,M,-34.4,M,,*63
$GPRMC,164647.600,A,4308.3244,N,07726.2526,W,1.14,353.28,190818,,,A*77
$GPGGA,164647.800,4308.3244,N,07726.2526,W,1,04,10.97,145.6,M,-34.4,M,,*6A
$GPRMC,164648.000,A,4308.3244,N,07726.2527,W,1.12,347.86,190818,,,A*78
$GPGGA,164648.200,4308.3245,N,07726.2527,W,1,04,10.97,145.7,M,-34.4,M,,*6E
$GPRMC,164648.400,A,4308.3246,N,07726.2526,W,1.11,352.22,190818,,,A*76
$GPGGA,164648.600,4308.3247,N,07726.2526,W,1,04,10.97,145.7,M,-34.4,M,,*69
$GPRMC,164648.800,A,4308.3249,N,07726.2525,W,1.13,355.95,190818,,,A*7F
$GPGGA,164649.000,4308.3252,N,07726.2524,W,1,04,10.98,145.9,M,-34.4,M,,*69
$GPRMC,164649.200,A,4308.3253,N,07726.2524,W,1.17,359.87,190818,,,A*75
$GPGGA,164649.400,4308.3256,N,07726.2523,W,1,04,10.98,146.0,M,-34.4,M,,*64
$GPRMC,164649.600,A,4308.3257,N,07726.2522,W,1.16,1.57,190818,,,A*71
$GPGGA,164649.800,4308.3258,N,07726.2522,W,1,04,10.98,146.1,M,-34.4,M,,*66
$GPRMC,164650.000,A,4308.3259,N,07726.2522,W,1.10,3.04,190818,,,A*73
$GPGGA,164650.200,4308.3261,N,07726.2521,W,1,04,10.99,146.2,M,-34.4,M,,*6F
$GPRMC,164650.400,A,4308.3263,N,07726.2521,W,1.12,2.11,190818,,,A*7A
$GPGGA,164650.600,4308.3264,N,07726.2520,W,1,04,10.99,146.3,M,-34.4,M,,*6E
$GPRMC,164650.800,A,4308.3265,N,07726.2521,W,1.07,1.43,190818,,,A*70
$GPGGA,164651.000,4308.3267,N,07726.2520,W,1,04,11.00,146.5,M,-34.4,M,,*6D
$GPRMC,164651.200,A,4308.3267,N,07726.2520,W,1.05,2.49,190818,,,A*73
$GPGGA,164651.400,4308.3268,N,07726.2519,W,6,03,10.32,146.5,M,-34.4,M,,*6C
$GPRMC,164651.400,V,,,,,1.03,4.26,190818,,,E*48
$GPGGA,164651.600,4308.3270,N,07726.2519,W,1,04,11.01,146.6,M,-34.4,M,,*65
$GPRMC,164651.800,A,4308.3270,N,07726.2519,W,1.01,5.31,190818,,,A*79
$GPGGA,164652.000,4308.3272,N,07726.2518,W,1,04,11.01,146.6,M,-34.4,M,,*63
$GPRMC,164652.200,A,4308.3273,N,07726.2518,W,1.01,5.79,190818,,,A*7E
$GPGGA,164652.400,4308.3275,N,07726.2517,W,1,04,11.01,146.7,M,-34.4,M,,*6E
$GPRMC,164652.600,A,4308.3277,N,07726.2517,W,1.04,8.41,190818,,,A*72
$GPGGA,164652.800,4308.3278,N,07726.2516,W,1,04,11.02,146.8,M,-34.4,M,,*62
$GPRMC,164653.000,A,4308.3280,N,07726.2515,W,1.07,10.67,190818,,,A*41
$GPGGA,164653.200,4308.3281,N,07726.2516,W,1,04,11.02,147.0,M,-34.4,M,,*66
$GPRMC,164653.400,A,4308.3281,N,07726.2516,W,0.96,3.32,190818,,,A*7C
$GPGGA,164653.600,4308.3283,N,07726.2516,W,1,04,11.03,147.2,M,-34.4,M,,*63
$GPRMC,164653.800,A,4308.3285,N,07726.2516,W,0.94,2.97,190818,,,A*78
$GPGGA,164654.000,4308.3285,N,07726.2516,W,1,04,11.03,147.5,M,-34.4,M,,*63
$GPRMC,164654.200,A,4308.3286,N,07726.2515,W,0.89,6.01,190818,,,A*72
$GPGGA,164654.400,4308.3288,N,07726.2514,W,1,04,11.04,147.7,M,-34.4,M,,*6D
$GPRMC,164654.600,V,,,,,0.94,7.14,190818,,,E*42
$GPGGA,164654.800,4308.3292,N,07726.2513,W,6,03,10.38,147.8,M,-34.4,M,,*6C
$GPRMC,164654.800,V,,,,,0.98,9.91,190818,,,E*43
$GPGGA,164655.000,4308.3293,N,07726.2512,W,6,03,10.38,147.8,M,-34.4,M,,*65
$GPRMC,164655.000,V,,,,,1.03,12.56,190818,,,E*78
$GPGGA,164655.200,4308.3295,N,07726.2511,W,6,03,10.38,147.9,M,-34.4,M,,*63
$GPRMC,164655.200,V,,,,,1.08,14.96,190818,,,E*7B
$GPGGA,164655.400,4308.3296,N,07726.2510,W,6,03,10.38,147.9,M,-34.4,M,,*67
$GPRMC,164655.400,V,,,,,1.13,16.83,190818,,,E*71
$GPGGA,164655.600,4308.3296,N,07726.2510,W,1,03,10.38,147.9,M,-34.4,M,,*62
$GPRMC,164655.800,A,4308.3296,N,07726.2510,W,1.10,16.04,190818,,,A*48
$GPGGA,164656.000,4308.3295,N,07726.2511,W,1,04,10.30,148.0,M,-34.4,M,,*6C
$GPRMC,164656.200,A,4308.3294,N,07726.2512,W,0.95,12.75,190818,,,A*4F
$GPGGA,164656.400,4308.3293,N,07726.2512,W,1,04,11.05,148.0,M,-34.4,M,,*6A
$GPRMC,164656.600,A,4308.3293,N,07726.2512,W,0.95,12.86,190818,,,A*40
$GPGGA,164656.800,4308.3293,N,07726.2513,W,1,04,11.06,148.0,M,-34.4,M,,*64
$GPRMC,164657.000,A,4308.3292,N,07726.2513,W,0.90,10.80,190818,,,A*46
$GPGGA,164657.200,4308.3290,N,07726.2514,W,1,04,11.06,148.0,M,-34.4,M,,*6B
$GPRMC,164657.400,V,,,,,0.76,5.39,190818,,,E*42
$GPGGA,164657.600,4308.3287,N,07726.2516,W,1,04,11.07,148.0,M,-34.4,M,,*6A
$GPRMC,164657.800,A,4308.3287,N,07726.2516,W,0.75,9.02,190818,,,A*76
$GPGGA,164658.000,4308.3287,N,07726.2516,W,1,04,11.07,148.0,M,-34.4,M,,*63
$GPRMC,164658.200,A,4308.3287,N,07726.2516,W,0.81,11.05,190818,,,A*46
$GPGGA,164658.400,4308.3286,N,07726.2516,W,1,04,11.08,148.0,M,-34.4,M,,*69
$GPRMC,164658.600,A,4308.3285,N,07726.2517,W,0.79,10.44,190818,,,A*42
$GPGGA,164658.800,4308.3283,N,07726.2518,W,1,04,11.08,148.0,M,-34.4,M,,*6E
$GPRMC,164659.000,A,4308.3282,N,07726.2518,W,0.73,9.00,190818,,,A*7F
$GPGGA,164659.200,4308.3282,N,07726.2519,W,1,04,11.09,148.1,M,-34.4,M,,*65
$GPRMC,164659.400,A,4308.3281,N,07726.2520,W,0.79,357.19,190818,,,A*79
$GPGGA,164659.600,4308.3280,N,07726.2521,W,1,04,11.09,148.1,M,-34.4,M,,*68
$GPRMC,164659.800,A,4308.3280,N,07726.2521,W,0.81,355.88,190818,,,A*78
$GPGGA,164700.000,4308.3279,N,07726.2522,W,1,04,11.09,148.2,M,-34.4,M,,*65
$GPRMC,164700.200,A,4308.3274,N,07726.2524,W,0.67,354.41,190818,,,A*7D
$GPGGA,164700.400,4308.3269,N,07726.2527,W,1,05,4.05,148.2,M,-34.4,M,,*5C
$GPRMC,164700.600,A,4308.3265,N,07726.2529,W,0.46,338.00,190818,,,A*78
$GPGGA,164700.800,4308.3261,N,07726.2531,W,1,05,2.12,148.2,M,-34.4,M,,*5F
$GPRMC,164701.000,A,4308.3258,N,07726.2532,W,0.35,327.82,190818,,,A*7B
$GPGGA,164701.200,4308.3257,N,07726.2534,W,1,05,2.12,148.2,M,-34.4,M,,*54
$GPRMC,164701.400,A,4308.3253,N,07726.2536,W,0.34,316.07,190818,,,A*7E
$GPGGA,164701.600,4308.3246,N,07726.2540,W,1,05,2.12,148.1,M,-34.4,M,,*50
$GPRMC,164701.800,A,4308.3245,N,07726.2540,W,0.23,326.07,190818,,,A*71
$GPGGA,164702.000,4308.3243,N,07726.2540,W,1,05,2.12,148.1,M,-34.4,M,,*50
$GPRMC,164702.200,A,4308.3236,N,07726.2544,W,0.09,316.32,190818,,,A*75
$GPGGA,164702.400,4308.3229,N,07726.2548,W,1,05,2.12,148.1,M,-34.4,M,,*50
$GPRMC,164702.600,A,4308.3221,N,07726.2552,W,0.05,123.89,190818,,,A*78
$GPGGA,164702.800,4308.3214,N,07726.2555,W,1,05,2.12,148.0,M,-34.4,M,,*5F
$GPRMC,164703.000,A,4308.3207,N,07726.2559,W,0.05,150.19,190818,,,A*7D
$GPGGA,164703.200,4308.3200,N,07726.2563,W,1,05,2.12,148.0,M,-34.4,M,,*54
$GPRMC,164703.400,A,4308.3193,N,07726.2567,W,0.02,240.32,190818,,,A*76
$GPGGA,164703.600,4308.3186,N,07726.2570,W,1,05,2.12,147.8,M,-34.4,M,,*58
$GPRMC,164703.800,A,4308.3186,N,07726.2570,W,0.06,224.09,190818,,,A*76
$GPGGA,164704.000,4308.3186,N,07726.2570,W,1,05,2.12,147.8,M,-34.4,M,,*59
$GPRMC,164704.200,A,4308.3185,N,07726.2570,W,0.13,228.82,190818,,,A*73
$GPGGA,164704.400,4308.3185,N,07726.2571,W,1,05,2.12,147.8,M,-34.4,M,,*5F
$GPRMC,164704.600,A,4308.3185,N,07726.2571,W,0.28,220.30,190818,,,A*7F
$GPGGA,164704.800,4308.3184,N,07726.2571,W,1,05,2.12,147.8,M,-34.4,M,,*52
$GPRMC,164705.000,A,4308.3184,N,07726.2571,W,0.33,207.25,190818,,,A*72
$GPGGA,164705.200,4308.3184,N,07726.2571,W,1,05,2.12,147.8,M,-34.4,M,,*59
$GPRMC,164705.400,A,4308.3183,N,07726.2572,W,0.36,197.12,190818,,,A*79
$GPGGA,164705.600,4308.3183,N,07726.2572,W,1,05,2.12,147.8,M,-34.4,M,,*59
$GPRMC,164705.800,A,4308.3183,N,07726.2572,W,0.32,209.21,190818,,,A*75
$GPGGA,164706.000,4308.3183,N,07726.2572,W,1,05,2.12,147.8,M,-34.4,M,,*5C
$GPRMC,164706.200,A,4308.3182,N,07726.2572,W,0.27,221.73,190818,,,A*74
$GPGGA,164706.400,4308.3175,N,07726.2575,W,1,05,2.12,147.8,M,-34.4,M,,*56
$GPRMC,164706.600,A,4308.3174,N,07726.2575,W,0.24,218.88,190818,,,A*73
$GPGGA,164706.800,4308.3173,N,07726.2575,W,1,05,2.12,147.6,M,-34.4,M,,*52
$GPRMC,164707.000,A,4308.3173,N,07726.2575,W,0.24,234.44,190818,,,A*7D
$GPGGA,164707.200,4308.3166,N,07726.2578,W,1,05,2.12,147.4,M,-34.4,M,,*52
$GPRMC,164707.400,A,4308.3166,N,07726.2578,W,0.16,238.24,190818,,,A*7B
$GPGGA,164707.600,4308.3166,N,07726.2578,W,1,05,2.12,147.4,M,-34.4,M,,*56
$GPRMC,164707.800,A,4308.3166,N,07726.2578,W,0.14,204.64,190818,,,A*7E
$GPGGA,164708.000,4308.3166,N,07726.2579,W,1,05,2.12,147.4,M,-34.4,M,,*5E
$GPRMC,164708.200,A,4308.3165,N,07726.2579,W,0.21,223.69,190818,,,A*77
$GPGGA,164708.400,4308.3165,N,07726.2579,W,1,05,2.12,147.4,M,-34.4,M,,*59
$GPRMC,164708.600,A,4308.3165,N,07726.2579,W,0.27,213.29,190818,,,A*72
$GPGGA,164708.800,4308.3165,N,07726.2579,W,1,05,2.12,147.4,M,-34.4,M,,*55
$GPRMC,164709.000,A,4308.3165,N,07726.2579,W,0.31,210.32,190818,,,A*7B
$GPGGA,164709.200,4308.3165,N,07726.2579,W,1,05,2.12,147.4,M,-34.4,M,,*5E
$GPRMC,164709.400,A,4308.3164,N,07726.2579,W,0.29,219.98,190818,,,A*7E
$GPGGA,164709.600,4308.3164,N,07726.2580,W,1,05,2.12,147.4,M,-34.4,M,,*5D
$GPRMC,164709.800,A,4308.3164,N,07726.2580,W,0.27,224.32,190818,,,A*74
$GPGGA,164710.000,4308.3164,N,07726.2580,W,1,05,2.12,147.4,M,-34.4,M,,*53
$GPRMC,164710.200,A,4308.3164,N,07726.2580,W,0.29,200.98,190818,,,A*7E
$GPGGA,164710.400,4308.3164,N,07726.2580,W,1,05,2.12,147.4,M,-34.4,M,,*57
$GPRMC,164710.600,A,4308.3163,N,07726.2580,W,0.28,190.22,190818,,,A*77
$GPGGA,164710.800,4308.3163,N,07726.2580,W,1,05,2.12,147.4,M,-34.4,M,,*5C
$GPRMC,164711.000,A,4308.3163,N,07726.2580,W,0.28,191.55,190818,,,A*71
$GPGGA,164711.200,4308.3163,N,07726.2580,W,1,05,2.12,147.4,M,-34.4,M,,*57
$GPRMC,164711.400,A,4308.3162,N,07726.2580,W,0.35,195.34,190818,,,A*7B
$GPGGA,164711.600,4308.3162,N,07726.2580,W,1,05,2.12,147.4,M,-34.4,M,,*52
$GPRMC,164711.800,A,4308.3162,N,07726.2581,W,0.30,193.93,190818,,,A*78
$GPGGA,164712.000,4308.3162,N,07726.2581,W,1,05,2.12,147.4,M,-34.4,M,,*56
$GPRMC,164712.200,A,4308.3162,N,07726.2581,W,0.31,196.64,190818,,,A*7D
$GPGGA,164712.400,4308.3161,N,07726.2581,W,1,05,2.12,147.4,M,-34.4,M,,*51
$GPRMC,164712.600,A,4308.3161,N,07726.2581,W,0.43,198.14,190818,,,A*76
$GPGGA,164712.800,4308.3161,N,07726.2581,W,1,05,2.12,147.4,M,-34.4,M,,*5D
$GPRMC,164713.000,A,4308.3161,N,07726.2581,W,0.40,205.81,190818,,,A*79
$GPGGA,164713.200,4308.3160,N,07726.2581,W,1,05,2.12,147.4,M,-34.4,M,,*57
$GPRMC,164713.400,A,4308.3160,N,07726.2582,W,0.32,200.34,190818,,,A*71
$GPGGA,164713.600,4308.3160,N,07726.2582,W,1,05,2.12,147.4,M,-34.4,M,,*50
$GPRMC,164713.800,A,4308.3160,N,07726.2582,W,0.27,202.96,190818,,,A*73
$GPGGA,164714.000,4308.3160,N,07726.2582,W,1,05,2.12,147.4,M,-34.4,M,,*51
$GPRMC,164714.200,A,4308.3159,N,07726.2582,W,0.24,205.16,190818,,,A*78
$GPGGA,164714.400,4308.3159,N,07726.2582,W,1,05,2.12,147.4,M,-34.4,M,,*5F
$GPRMC,164714.600,A,4308.3159,N,07726.2582,W,0.20,196.43,190818,,,A*71
$GPGGA,164714.800,4308.3159,N,07726.2582,W,1,05,2.12,147.4,M,-34.4,M,,*53
$GPRMC,164715.000,A,4308.3159,N,07726.2582,W,0.17,197.71,190818,,,A*72
$GPGGA,164715.200,4308.3159,N,07726.2582,W,1,05,2.12,147.4,M,-34.4,M,,*58
$GPRMC,164715.400,A,4308.3159,N,07726.2582,W,0.12,214.97,190818,,,A*73
$GPGGA,164715.600,4308.3158,N,07726.2583,W,1,05,2.12,147.4,M,-34.4,M,,*5C
$GPRMC,164715.800,A,4308.3158,N,07726.2583,W,0.14,208.16,190818,,,A*7D
$GPGGA,164716.000,4308.3158,N,07726.2583,W,1,05,2.12,147.4,M,-34.4,M,,*59
$GPRMC,164716.200,A,4308.3158,N,07726.2583,W,0.06,260.34,190818,,,A*79
$GPGGA,164716.400,4308.3158,N,07726.2583,W,1,05,2.12,147.4,M,-34.4,M,,*5D
$GPRMC,164716.600,A,4308.3158,N,07726.2583,W,0.01,159.07,190818,,,A*73
$GPGGA,164716.800,4308.3158,N,07726.2583,W,1,05,2.12,147.4,M,-34.4,M,,*51
$GPRMC,164717.000,A,4308.3158,N,07726.2583,W,0.05,137.76,190818,,,A*7E
$GPGGA,164717.200,4308.3158,N,07726.2583,W,1,05,2.12,147.4,M,-34.4,M,,*5A
$GPRMC,164717.400,A,4308.3158,N,07726.2583,W,0.02,16.49,190818,,,A*43
$GPGGA,164717.600,4308.3158,N,07726.2583,W,1,05,2.12,147.4,M,-34.4,M,,*5E
$GPRMC,164717.800,A,4308.3158,N,07726.2583,W,0.06,343.47,190818,,,A*76
$GPGGA,164718.000,4308.3158,N,07726.2583,W,1,05,2.12,147.4,M,-34.4,M,,*57
$GPRMC,164718.200,A,4308.3158,N,07726.2583,W,0.06,133.98,190818,,,A*74
$GPGGA,164718.400,4308.3152,N,07726.2587,W,1,06,1.70,147.1,M,-34.4,M,,*5C
$GPRMC,164718.600,A,4308.3147,N,07726.2590,W,0.02,238.49,190818,,,A*7C
$GPGGA,164718.800,4308.3142,N,07726.2593,W,1,06,1.70,146.2,M,-34.4,M,,*56
$GPRMC,164719.000,A,4308.3137,N,07726.2595,W,0.04,344.90,190818,,,A*71
$GPGGA,164719.200,4308.3134,N,07726.2597,W,1,06,1.70,145.6,M,-34.4,M,,*5F
$GPRMC,164719.400,A,4308.3133,N,07726.2597,W,0.01,87.65,190818,,,A*40
$GPGGA,164719.600,4308.3133,N,07726.2597,W,1,06,1.70,145.6,M,-34.4,M,,*5C
$GPRMC,164719.800,A,4308.3133,N,07726.2597,W,0.02,102.40,190818,,,A*74
$GPGGA,164720.000,4308.3133,N,07726.2597,W,1,06,1.70,145.6,M,-34.4,M,,*50
$GPRMC,164720.200,A,4308.3133,N,07726.2597,W,0.02,327.39,190818,,,A*7F
$GPGGA,164720.400,4308.3133,N,07726.2597,W,1,06,1.70,145.6,M,-34.4,M,,*54
$GPRMC,164720.600,A,4308.3133,N,07726.2597,W,0.02,110.71,190818,,,A*71
$GPGGA,164720.800,4308.3133,N,07726.2597,W,1,06,1.70,145.6,M,-34.4,M,,*58
$GPRMC,164721.000,A,4308.3133,N,07726.2597,W,0.05,158.47,190818,,,A*78
$GPGGA,164721.200,4308.3133,N,07726.2597,W,1,06,1.70,145.5,M,-34.4,M,,*50
$GPRMC,164721.400,A,4308.3133,N,07726.2597,W,0.02,37.96,190818,,,A*4F
$GPGGA,164721.600,4308.3133,N,07726.2597,W,1,06,1.70,145.5,M,-34.4,M,,*54
$GPRMC,164721.800,A,4308.3133,N,07726.2597,W,0.02,232.22,190818,,,A*7B
$GPGGA,164722.000,4308.3133,N,07726.2597,W,1,06,1.70,145.5,M,-34.4,M,,*51
$GPRMC,164722.200,A,4308.3133,N,07726.2597,W,0.04,2.35,190818,,,A*73
$GPGGA,164722.400,4308.3133,N,07726.2597,W,1,06,1.91,145.5,M,-34.4,M,,*5A
$GPRMC,164722.600,A,4308.3133,N,07726.2597,W,0.06,311.05,190818,,,A*77
$GPGGA,164722.800,4308.3133,N,07726.2597,W,1,06,1.70,145.5,M,-34.4,M,,*59
$GPRMC,164723.000,A,4308.3133,N,07726.2597,W,0.04,343.06,190818,,,A*76
$GPGGA,164723.200,4308.3133,N,07726.2597,W,1,06,1.70,145.5,M,-34.4,M,,*52
$GPRMC,164723.400,A,4308.3133,N,07726.2597,W,0.00,202.05,190818,,,A*71
$GPGGA,164723.600,4308.3133,N,07726.2597,W,1,06,1.70,145.5,M,-34.4,M,,*56
$GPRMC,164723.800,A,4308.3133,N,07726.2597,W,0.01,235.07,190818,,,A*7A
$GPGGA,164724.000,4308.3133,N,07726.2597,W,1,06,1.70,145.5,M,-34.4,M,,*57
$GPRMC,164724.200,A,4308.3133,N,07726.2597,W,0.01,121.62,190818,,,A*72
$GPGGA,164724.400,4308.3133,N,07726.2597,W,1,06,1.70,145.5,M,-34.4,M,,*53
$GPRMC,164724.600,A,4308.3133,N,07726.2597,W,0.01,290.24,190818,,,A*7D
$GPGGA,164724.800,4308.3133,N,07726.2598,W,1,06,1.70,145.5,M,-34.4,M,,*50
$GPRMC,164725.000,A,4308.3133,N,07726.2598,W,0.05,290.17,190818,,,A*71
$GPGGA,164725.200,4308.3132,N,07726.2598,W,1,06,1.70,145.5,M,-34.4,M,,*5A
$GPRMC,164725.400,A,4308.3132,N,07726.2598,W,0.03,354.70,190818,,,A*7A
$GPGGA,164725.600,4308.3132,N,07726.2598,W,1,06,1.91,145.5,M,-34.4,M,,*51
$GPRMC,164725.800,A,4308.3132,N,07726.2598,W,0.01,241.26,190818,,,A*72
$GPGGA,164726.000,4308.3132,N,07726.2598,W,1,06,1.70,145.5,M,-34.4,M,,*5B
$GPRMC,164726.200,A,4308.3132,N,07726.2598,W,0.03,242.91,190818,,,A*76
$GPGGA,164726.400,4308.3132,N,07726.2598,W,1,06,1.70,145.5,M,-34.4,M,,*5F
$GPRMC,164726.600,A,4308.3132,N,07726.2598,W,0.02,359.51,190818,,,A*74
$GPGGA,164726.800,4308.3132,N,07726.2598,W,1,06,1.91,145.5,M,-34.4,M,,*5C
$GPRMC,164727.000,A,4308.3132,N,07726.2598,W,0.02,277.28,190818,,,A*70
$GPGGA,164727.200,4308.3132,N,07726.2598,W,1,06,1.70,145.5,M,-34.4,M,,*58
$GPRMC,164727.400,A,4308.3132,N,07726.2598,W,0.01,19.05,190818,,,A*42
$GPGGA,164727.600,4308.3132,N,07726.2598,W,1,06,1.70,145.5,M,-34.4,M,,*5C
$GPRMC,164727.800,A,4308.3132,N,07726.2598,W,0.03,346.51,190818,,,A*74
$GPGGA,164728.000,4308.3132,N,07726.2598,W,1,06,1.91,145.5,M,-34.4,M,,*5A
$GPRMC,164728.200,A,4308.3132,N,07726.2598,W,0.03,237.46,190818,,,A*70
$GPGGA,164728.400,4308.3132,N,07726.2598,W,1,06,1.70,145.5,M,-34.4,M,,*51
$GPRMC,164728.600,A,4308.3132,N,07726.2598,W,0.03,51.70,190818,,,A*43
$GPGGA,164728.800,4308.3132,N,07726.2598,W,1,06,1.70,145.5,M,-34.4,M,,*5D
$GPRMC,164729.000,A,4308.3132,N,07726.2598,W,0.03,98.15,190818,,,A*42
$GPGGA,164729.200,4308.3132,N,07726.2598,W,1,06,1.70,145.5,M,-34.4,M,,*56
$GPRMC,164729.400,A,4308.3132,N,07726.2598,W,0.03,85.47,190818,,,A*4D
$GPGGA,164729.600,4308.3132,N,07726.2598,W,1,06,1.70,145.5,M,-34.4,M,,*52
$GPRMC,164729.800,A,4308.3132,N,07726.2598,W,0.02,69.62,190818,,,A*45
$GPGGA,164730.000,4308.3132,N,07726.2598,W,1,06,1.70,145.5,M,-34.4,M,,*5C
$GPRMC,164730.200,A,4308.3132,N,07726.2598,W,0.04,338.31,190818,,,A*70
$GPGGA,164730.400,4308.3132,N,07726.2598,W,1,06,1.91,145.5,M,-34.4,M,,*57
$GPRMC,164730.600,A,4308.3132,N,07726.2598,W,0.00,184.73,190818,,,A*73
$GPGGA,164730.800,4308.3132,N,07726.2598,W,1,06,1.91,145.5,M,-34.4,M,,*5B
$GPRMC,164731.000,A,4308.3132,N,07726.2598,W,0.01,96.98,190818,,,A*42
$GPGGA,164731.200,4308.3132,N,07726.2598,W,1,06,1.91,145.5,M,-34.4,M,,*50
$GPRMC,164731.400,A,4308.3132,N,07726.2598,W,0.01,170.44,190818,,,A*7E
$GPGGA,164731.600,4308.3132,N,07726.2598,W,1,06,1.91,145.5,M,-34.4,M,,*54
$GPRMC,164731.800,A,4308.3132,N,07726.2598,W,0.02,142.81,190818,,,A*79
$GPGGA,164732.000,4308.3132,N,07726.2598,W,1,06,1.91,145.5,M,-34.4,M,,*51
$GPRMC,164732.200,A,4308.3132,N,07726.2598,W,0.01,142.17,190818,,,A*7C
$GPGGA,164732.400,4308.3132,N,07726.2598,W,1,06,1.91,145.5,M,-34.4,M,,*55
$GPRMC,164732.600,A,4308.3132,N,07726.2598,W,0.01,332.58,190818,,,A*76
$GPGGA,164732.800,4308.3132,N,07726.2598,W,1,06,1.91,145.5,M,-34.4,M,,*59
$GPRMC,164733.000,A,4308.3132,N,07726.2598,W,0.00,292.39,190818,,,A*7C
$GPGGA,164733.200,4308.3131,N,07726.2598,W,1,06,1.91,145.5,M,-34.4,M,,*51
$GPRMC,164733.400,A,4308.3131,N,07726.2598,W,0.01,345.42,190818,,,A*7D
$GPGGA,164733.600,4308.3131,N,07726.2598,W,1,06,1.91,145.5,M,-34.4,M,,*55
$GPRMC,164733.800,A,4308.3131,N,07726.2598,W,0.00,7.80,190818,,,A*7B
$GPGGA,164734.000,4308.3131,N,07726.2598,W,1,06,1.91,145.5,M,-34.4,M,,*54
$GPRMC,164734.200,A,4308.3131,N,07726.2598,W,0.00,24.00,190818,,,A*4F
$GPGGA,164734.400,4308.3131,N,07726.2598,W,1,06,1.91,145.5,M,-34.4,M,,*50
$GPRMC,164734.600,A,4308.3131,N,07726.2598,W,0.01,120.27,190818,,,A*7A
$GPGGA,164734.800,4308.3131,N,07726.2598,W,1,06,1.91,145.5,M,-34.4,M,,*5C
$GPRMC,164735.000,A,4308.3131,N,07726.2598,W,0.00,0.00,190818,,,A*7A
$GPGGA,164735.200,4308.3131,N,07726.2598,W,1,06,1.91,145.5,M,-34.4,M,,*57
$GPRMC,164735.400,A,4308.3131,N,07726.2598,W,0.00,227.28,190818,,,A*73
$GPGGA,164735.600,4308.3131,N,07726.2598,W,1,06,1.91,145.5,M,-34.4,M,,*53
$GPRMC,164735.800,A,4308.3131,N,07726.2598,W,0.00,226.73,190818,,,A*70
$GPGGA,164736.000,4308.3131,N,07726.2598,W,1,06,1.91,145.5,M,-34.4,M,,*56
$GPRMC,164736.200,A,4308.3131,N,07726.2598,W,0.00,0.00,190818,,,A*7B
$GPGGA,164736.400,4308.3131,N,07726.2598,W,1,06,1.91,145.5,M,-34.4,M,,*52
$GPRMC,164736.600,A,4308.3131,N,07726.2598,W,0.01,209.23,190818,,,A*74
$GPGGA,164736.800,4308.3131,N,07726.2598,W,1,06,1.91,145.5,M,-34.4,M,,*5E
$GPRMC,164737.000,A,4308.3131,N,07726.2598,W,0.01,99.61,190818,,,A*4E
$GPGGA,164737.200,4308.3131,N,07726.2598,W,1,06,1.91,145.5,M,-34.4,M,,*55
$GPRMC,164737.400,A,4308.3131,N,07726.2598,W,0.01,327.83,190818,,,A*70
$GPGGA,164737.600,4308.3131,N,07726.2598,W,1,06,1.91,145.5,M,-34.4,M,,*51
$GPRMC,164737.800,A,4308.3131,N,07726.2598,W,0.01,121.69,190818,,,A*7C
$GPGGA,164738.000,4308.3131,N,07726.2598,W,1,06,1.91,145.5,M,-34.4,M,,*58
$GPRMC,164738.200,A,4308.3131,N,07726.2598,W,0.00,287.54,190818,,,A*79
$GPGGA,164738.400,4308.3131,N,07726.2598,W,1,06,1.91,145.4,M,-34.4,M,,*5D
$GPRMC,164738.600,A,4308.3131,N,07726.2598,W,0.00,70.94,190818,,,A*4B
$GPGGA,164738.800,4308.3131,N,07726.2598,W,1,06,1.91,145.4,M,-34.4,M,,*51
$GPRMC,164739.000,A,4308.3131,N,07726.2598,W,0.00,0.00,190818,,,A*76
$GPGGA,164739.200,4308.3131,N,07726.2598,W,1,06,1.91,145.4,M,-34.4,M,,*5A
$GPRMC,164739.400,A,4308.3131,N,07726.2598,W,0.01,133.96,190818,,,A*7D
$GPGGA,164739.600,4308.3131,N,07726.2598,W,1,06,1.91,145.4,M,-34.4,M,,*5E
$GPRMC,164739.800,A,4308.3131,N,07726.2598,W,0.01,166.78,190818,,,A*71
$GPGGA,164740.000,4308.3131,N,07726.2598,W,1,06,1.91,145.4,M,-34.4,M,,*56
$GPRMC,164740.200,A,4308.3131,N,07726.2598,W,0.00,0.00,190818,,,A*7A
$GPGGA,164740.400,4308.3131,N,07726.2598,W,1,06,1.91,145.4,M,-34.4,M,,*52
$GPRMC,164740.600,A,4308.3131,N,07726.2598,W,0.00,13.94,190818,,,A*41
$GPGGA,164740.800,4308.3131,N,07726.2598,W,1,06,1.91,145.4,M,-34.4,M,,*5E
$GPRMC,164741.000,A,4308.3131,N,07726.2598,W,0.01,149.25,190818,,,A*73
$GPGGA,164741.200,4308.3131,N,07726.2598,W,1,06,1.91,145.4,M,-34.4,M,,*55
$GPRMC,164741.400,A,4308.3131,N,07726.2598,W,0.00,45.79,190818,,,A*42
$GPGGA,164741.600,4308.3130,N,07726.2598,W,1,06,1.91,145.4,M,-34.4,M,,*50
$GPRMC,164741.800,A,4308.3130,N,07726.2598,W,0.02,156.25,190818,,,A*77
$GPGGA,164742.000,4308.3130,N,07726.2599,W,1,06,1.91,145.4,M,-34.4,M,,*54
$GPRMC,164742.200,A,4308.3130,N,07726.2599,W,0.01,138.10,190818,,,A*72
$GPGGA,164742.400,4308.3130,N,07726.2599,W,1,06,1.91,145.4,M,-34.4,M,,*50
$GPRMC,164742.600,A,4308.3130,N,07726.2599,W,0.01,276.11,190818,,,A*7E
$GPGGA,164742.800,4308.3130,N,07726.2599,W,1,06,1.91,145.4,M,-34.4,M,,*5C
$GPRMC,164743.000,A,4308.3130,N,07726.2599,W,0.01,247.65,190818,,,A*78
$GPGGA,164743.200,4308.3130,N,07726.2599,W,1,06,1.91,145.4,M,-34.4,M,,*57
$GPRMC,164743.400,A,4308.3130,N,07726.2599,W,0.00,94.70,190818,,,A*45
$GPGGA,164743.600,4308.3130,N,07726.2599,W,1,06,1.91,145.4,M,-34.4,M,,*53
$GPRMC,164743.800,A,4308.3130,N,07726.2599,W,0.01,255.96,190818,,,A*7F
$GPGGA,164744.000,4308.3130,N,07726.2599,W,1,06,1.91,145.4,M,-34.4,M,,*52
$GPRMC,164744.200,A,4308.3130,N,07726.2599,W,0.00,241.35,190818,,,A*7F
$GPGGA,164744.400,4308.3130,N,07726.2599,W,1,06,1.91,145.4,M,-34.4,M,,*56
$GPRMC,164744.600,A,4308.3130,N,07726.2599,W,0.01,309.14,190818,,,A*74
$GPGGA,164744.800,4308.3130,N,07726.2599,W,1,06,1.91,145.4,M,-34.4,M,,*5A
$GPRMC,164745.000,A,4308.3130,N,07726.2599,W,0.01,258.09,190818,,,A*7A
$GPGGA,164745.200,4308.3130,N,07726.2599,W,1,06,1.91,145.4,M,-34.4,M,,*51
$GPRMC,164745.400,A,4308.3130,N,07726.2599,W,0.01,112.06,190818,,,A*7C
$GPGGA,164745.600,4308.3130,N,07726.2599,W,1,06,1.91,145.4,M,-34.4,M,,*55
$GPRMC,164745.800,A,4308.3130,N,07726.2599,W,0.01,193.56,190818,,,A*7C
$GPGGA,164746.000,4308.3130,N,07726.2599,W,1,06,1.91,145.4,M,-34.4,M,,*50
$GPRMC,164746.200,A,4308.3130,N,07726.2599,W,0.01,241.89,190818,,,A*7B
$GPGGA,164746.400,4308.3130,N,07726.2599,W,1,06,1.91,145.4,M,-34.4,M,,*54
$GPRMC,164746.600,A,4308.3130,N,07726.2599,W,0.01,37.21,190818,,,A*4E
$GPGGA,164746.800,4308.3130,N,07726.2599,W,1,06,1.91,145.4,M,-34.4,M,,*58
$GPRMC,164747.000,A,4308.3130,N,07726.2599,W,0.01,212.70,190818,,,A*78
$GPGGA,164747.200,4308.3130,N,07726.2599,W,1,06,1.91,145.4,M,-34.4,M,,*53
$GPRMC,164747.400,A,4308.3130,N,07726.2599,W,0.01,192.99,190818,,,A*70
$GPGGA,164747.600,4308.3130,N,07726.2599,W,1,06,1.91,145.4,M,-34.4,M,,*57
$GPRMC,164747.800,A,4308.3130,N,07726.2599,W,0.01,32.48,190818,,,A*4B
$GPGGA,164748.000,4308.3130,N,07726.2599,W,1,06,1.91,145.4,M,-34.4,M,,*5E
$GPRMC,164748.200,A,4308.3130,N,07726.2599,W,0.00,219.72,190818,,,A*7D
$GPGGA,164748.400,4308.3130,N,07726.2599,W,1,06,1.91,145.4,M,-34.4,M,,*5A
$GPRMC,164748.600,A,4308.3130,N,07726.2599,W,0.01,216.23,190818,,,A*73
$GPGGA,164748.800,4308.3130,N,07726.2599,W,1,06,1.91,145.4,M,-34.4,M,,*56
$GPRMC,164749.000,A,4308.3130,N,07726.2599,W,0.00,23.60,190818,,,A*46
$GPGGA,164749.200,4308.3130,N,07726.2599,W,1,06,1.91,145.4,M,-34.4,M,,*5D
$GPRMC,164749.400,A,4308.3130,N,07726.2599,W,0.00,55.59,190818,,,A*49
$GPGGA,164749.600,4308.3130,N,07726.2599,W,1,06,1.91,145.4,M,-34.4,M,,*59
$GPRMC,164749.800,A,4308.3130,N,07726.2599,W,0.01,22.20,190818,,,A*4A
$GPGGA,164750.000,4308.3130,N,07726.2599,W,1,06,1.91,145.4,M,-34.4,M,,*57
$GPRMC,164750.200,A,4308.3130,N,07726.2599,W,0.01,269.87,190818,,,A*78
$GPGGA,164750.400,4308.3130,N,07726.2599,W,1,06,1.91,145.4,M,-34.4,M,,*53
$GPRMC,164750.600,A,4308.3130,N,07726.2599,W,0.00,5.45,190818,,,A*7B
$GPGGA,164750.800,4308.3130,N,07726.2599,W,1,06,1.91,145.4,M,-34.4,M,,*5F
$GPRMC,164751.000,A,4308.3130,N,07726.2599,W,0.01,164.40,190818,,,A*7E
$GPGGA,164751.200,4308.3130,N,07726.2599,W,1,06,1.91,145.4,M,-34.4,M,,*54
$GPRMC,164751.400,A,4308.3130,N,07726.2599,W,0.00,148.83,190818,,,A*7A
$GPGGA,164751.600,4308.3130,N,07726.2599,W,1,06,1.91,145.4,M,-34.4,M,,*50
$GPRMC,164751.800,A,4308.3130,N,07726.2599,W,0.00,354.61,190818,,,A*75
$GPGGA,164752.000,4308.3130,N,07726.2599,W,1,06,1.91,145.4,M,-34.4,M,,*55
$GPRMC,164752.200,A,4308.3130,N,07726.2599,W,0.00,302.51,190818,,,A*7C
$GPGGA,164752.400,4308.3130,N,07726.2599,W,1,06,1.91,145.4,M,-34.4,M,,*51
$GPRMC,164752.600,A,4308.3130,N,07726.2599,W,0.01,237.47,190818,,,A*79
$GPGGA,164752.800,4308.3130,N,07726.2599,W,1,06,1.91,145.4,M,-34.4,M,,*5D
$GPRMC,164753.000,A,4308.3130,N,07726.2599,W,0.01,115.75,190818,,,A*7C
$GPGGA,164753.200,4308.3130,N,07726.2599,W,1,06,1.91,145.4,M,-34.4,M,,*56
$GPRMC,164753.400,A,4308.3130,N,07726.2599,W,0.01,259.66,190818,,,A*71
$GPGGA,164753.600,4308.3130,N,07726.2599,W,1,06,1.91,145.4,M,-34.4,M,,*52
$GPRMC,164753.800,A,4308.3130,N,07726.2599,W,0.01,49.48,190818,,,A*42
$GPGGA,164754.000,4308.3130,N,07726.2599,W,1,06,1.91,145.4,M,-34.4,M,,*53
$GPRMC,164754.200,A,4308.3130,N,07726.2599,W,0.00,13.29,190818,,,A*46
$GPGGA,164754.400,4308.3130,N,07726.2599,W,1,06,1.91,145.4,M,-34.4,M,,*57
$GPRMC,164754.600,A,4308.3129,N,07726.2599,W,0.00,116.33,190818,,,A*75
$GPGGA,164754.800,4308.3129,N,07726.2599,W,1,06,1.91,145.4,M,-34.4,M,,*53
$GPRMC,164755.000,A,4308.3129,N,07726.2599,W,0.01,107.52,190818,,,A*74
$GPGGA,164755.200,4308.3129,N,07726.2599,W,1,06,1.91,145.4,M,-34.4,M,,*58
$GPRMC,164755.400,A,4308.3129,N,07726.2599,W,0.00,230.44,190818,,,A*71
$GPGGA,164755.600,4308.3129,N,07726.2599,W,1,06,1.91,145.4,M,-34.4,M,,*5C
$GPRMC,164755.800,A,4308.3129,N,07726.2599,W,0.01,326.05,190818,,,A*7F
$GPGGA,164756.000,4308.3129,N,07726.2599,W,1,06,1.91,145.4,M,-34.4,M,,*59
$GPRMC,164756.200,A,4308.3129,N,07726.2599,W,0.00,282.59,190818,,,A*71
$GPGGA,164756.400,4308.3129,N,07726.2600,W,1,06,1.91,145.4,M,-34.4,M,,*5E
$GPRMC,164756.600,A,4308.3129,N,07726.2600,W,0.01,63.79,190818,,,A*48
$GPGGA,164756.800,4308.3129,N,07726.2600,W,1,06,1.91,145.4,M,-34.4,M,,*52
$GPRMC,164757.000,A,4308.3129,N,07726.2600,W,0.00,2.78,190818,,,A*78
$GPGGA,164757.200,4308.3129,N,07726.2600,W,1,06,1.91,145.4,M,-34.4,M,,*59
$GPRMC,164757.400,A,4308.3129,N,07726.2600,W,0.00,268.07,190818,,,A*7A
$GPGGA,164757.600,4308.3129,N,07726.2600,W,1,06,1.91,145.4,M,-34.4,M,,*5D
$GPRMC,164757.800,A,4308.3129,N,07726.2600,W,0.01,161.12,190818,,,A*79
$GPGGA,164758.000,4308.3129,N,07726.2600,W,1,06,1.91,145.3,M,-34.4,M,,*53
$GPRMC,164758.200,A,4308.3129,N,07726.2600,W,0.00,93.48,190818,,,A*4E
$GPGGA,164758.400,4308.3129,N,07726.2600,W,1,06,1.91,145.3,M,-34.4,M,,*57
$GPRMC,164758.600,A,4308.3129,N,07726.2600,W,0.01,167.42,190818,,,A*7B
$GPGGA,164758.800,4308.3129,N,07726.2600,W,1,06,1.91,145.3,M,-34.4,M,,*5B
$GPRMC,164759.000,A,4308.3129,N,07726.2600,W,0.01,221.23,190818,,,A*7A
$GPGGA,164759.200,4308.3129,N,07726.2600,W,1,06,1.91,145.3,M,-34.4,M,,*50
$GPRMC,164759.400,A,4308.3129,N,07726.2600,W,0.01,34.02,190818,,,A*4B
$GPGGA,164759.600,4308.3129,N,07726.2600,W,1,06,1.91,145.3,M,-34.4,M,,*54
$GPRMC,164759.800,A,4308.3129,N,07726.2600,W,0.01,136.19,190818,,,A*7E
$GPGGA,164800.000,4308.3129,N,07726.2600,W,1,06,1.91,145.3,M,-34.4,M,,*51
$GPRMC,164800.200,A,4308.3129,N,07726.2600,W,0.01,211.95,190818,,,A*75
$GPGGA,164800.400,4308.3129,N,07726.2600,W,1,06,1.91,145.3,M,-34.4,M,,*55
$GPRMC,164800.600,A,4308.3129,N,07726.2600,W,0.01,59.46,190818,,,A*41
$GPGGA,164800.800,4308.3129,N,07726.2600,W,1,06,1.91,145.3,M,-34.4,M,,*59
$GPRMC,164801.000,A,4308.3129,N,07726.2600,W,0.00,351.41,190818,,,A*7B
$GPGGA,164801.200,4308.3129,N,07726.2600,W,1,06,1.91,145.3,M,-34.4,M,,*52
$GPRMC,164801.400,A,4308.3129,N,07726.2600,W,0.01,314.25,190818,,,A*7D
$GPGGA,164801.600,4308.3129,N,07726.2600,W,1,06,1.91,145.3,M,-34.4,M,,*56
$GPRMC,164801.800,A,4308.3129,N,07726.2600,W,0.00,178.86,190818,,,A*71
$GPGGA,164802.000,4308.3129,N,07726.2600,W,1,06,1.91,145.3,M,-34.4,M,,*53
$GPRMC,164802.200,A,4308.3129,N,07726.2600,W,0.01,162.93,190818,,,A*76
$GPGGA,164802.400,4308.3129,N,07726.2600,W,1,06,1.91,145.3,M,-34.4,M,,*57
$GPRMC,164802.600,A,4308.3129,N,07726.2600,W,0.01,285.56,190818,,,A*71
$GPGGA,164802.800,4308.3129,N,07726.2600,W,1,06,1.91,145.3,M,-34.4,M,,*5B
$GPRMC,164803.000,A,4308.3129,N,07726.2600,W,0.01,329.51,190818,,,A*76
$GPGGA,164803.200,4308.3129,N,07726.2600,W,1,06,1.91,145.3,M,-34.4,M,,*50
$GPRMC,164803.400,A,4308.3129,N,07726.2600,W,0.01,208.63,190818,,,A*71
$GPGGA,164803.600,4308.3129,N,07726.2600,W,1,06,1.91,145.3,M,-34.4,M,,*54
$GPRMC,164803.800,A,4308.3129,N,07726.2600,W,0.00,148.73,190818,,,A*7A
$GPGGA,164804.000,4308.3129,N,07726.2600,W,1,06,1.91,145.3,M,-34.4,M,,*55
$GPRMC,164804.200,A,4308.3129,N,07726.2600,W,0.01,226.80,190818,,,A*71
$GPGGA,164804.400,4308.3129,N,07726.2600,W,1,06,1.91,145.3,M,-34.4,M,,*51
$GPRMC,164804.600,A,4308.3129,N,07726.2600,W,0.01,114.06,190818,,,A*79
$GPGGA,164804.800,4308.3129,N,07726.2600,W,1,06,1.91,145.3,M,-34.4,M,,*5D
$GPRMC,164805.000,A,4308.3129,N,07726.2600,W,0.01,77.44,190818,,,A*4C
$GPGGA,164805.200,4308.3129,N,07726.2600,W,1,06,1.91,145.3,M,-34.4,M,,*56
$GPRMC,164805.400,A,4308.3129,N,07726.2600,W,0.00,357.44,190818,,,A*78
$GPGGA,164805.600,4308.3129,N,07726.2600,W,1,06,1.91,145.3,M,-34.4,M,,*52
$GPRMC,164805.800,A,4308.3129,N,07726.2600,W,0.00,299.64,190818,,,A*75
$GPGGA,164806.000,4308.3129,N,07726.2600,W,1,06,1.91,145.3,M,-34.4,M,,*57
$GPRMC,164806.200,A,4308.3129,N,07726.2600,W,0.00,325.70,190818,,,A*7F
$GPGGA,164806.400,4308.3129,N,07726.2600,W,1,06,1.91,145.3,M,-34.4,M,,*53
$GPRMC,164806.600,A,4308.3129,N,07726.2600,W,0.01,298.77,190818,,,A*7A
$GPGGA,164806.800,4308.3129,N,07726.2600,W,1,06,1.91,145.3,M,-34.4,M,,*5F
$GPRMC,164807.000,A,4308.3129,N,07726.2600,W,0.01,122.56,190818,,,A*7C
$GPGGA,164807.200,4308.3129,N,07726.2600,W,1,06,1.91,145.3,M,-34.4,M,,*54
$GPRMC,164807.400,A,4308.3129,N,07726.2600,W,0.00,113.65,190818,,,A*7B
$GPGGA,164807.600,4308.3129,N,07726.2600,W,1,06,1.91,145.3,M,-34.4,M,,*50
$GPRMC,164807.800,A,4308.3129,N,07726.2600,W,0.01,232.90,190818,,,A*7C
$GPGGA,164808.000,4308.3129,N,07726.2600,W,1,06,1.91,145.3,M,-34.4,M,,*59
$GPRMC,164808.200,A,4308.3129,N,07726.2600,W,0.00,141.74,190818,,,A*75
$GPGGA,164808.400,4308.3129,N,07726.2600,W,1,06,1.91,145.3,M,-34.4,M,,*5D
$GPRMC,164808.600,A,4308.3129,N,07726.2600,W,0.01,105.97,190818,,,A*7D
$GPGGA,164808.800,4308.3129,N,07726.2600,W,1,06,1.91,145.3,M,-34.4,M,,*51
$GPRMC,164809.000,A,4308.3129,N,07726.2600,W,0.00,94.94,190818,,,A*41
$GPGGA,164809.200,4308.3128,N,07726.2600,W,1,06,1.91,145.3,M,-34.4,M,,*5B
$GPRMC,164809.400,A,4308.3128,N,07726.2600,W,0.01,6.56,190818,,,A*70
$GPGGA,164809.600,4308.3128,N,07726.2600,W,1,06,1.91,145.3,M,-34.4,M,,*5F
$GPRMC,164809.800,A,4308.3128,N,07726.2600,W,0.01,249.10,190818,,,A*77
$GPGGA,164810.000,4308.3128,N,07726.2600,W,1,06,1.91,145.3,M,-34.4,M,,*51
$GPRMC,164810.200,A,4308.3128,N,07726.2600,W,0.01,15.01,190818,,,A*4E
$GPGGA,164810.400,4308.3128,N,07726.2600,W,1,06,1.91,145.3,M,-34.4,M,,*55
$GPRMC,164810.600,A,4308.3128,N,07726.2600,W,0.00,282.88,190818,,,A*76
$GPGGA,164810.800,4308.3128,N,07726.2600,W,1,06,1.91,145.3,M,-34.4,M,,*59
$GPRMC,164811.000,A,4308.3128,N,07726.2600,W,0.00,26.08,190818,,,A*45
$GPGGA,164811.200,4308.3128,N,07726.2600,W,1,06,1.91,145.3,M,-34.4,M,,*52
$GPRMC,164811.400,A,4308.3128,N,07726.2600,W,0.01,92.27,190818,,,A*42
$GPGGA,164811.600,4308.3128,N,07726.2600,W,1,06,1.91,145.3,M,-34.4,M,,*56
$GPRMC,164811.800,A,4308.3128,N,07726.2600,W,0.00,89.87,190818,,,A*4F
$GPGGA,164812.000,4308.3128,N,07726.2601,W,1,06,1.91,145.3,M,-34.4,M,,*52
$GPRMC,164812.200,A,4308.3128,N,07726.2601,W,0.01,1.09,190818,,,A*70
$GPGGA,164812.400,4308.3128,N,07726.2601,W,1,06,1.91,145.3,M,-34.4,M,,*56
$GPRMC,164812.600,A,4308.3128,N,07726.2601,W,0.00,218.70,190818,,,A*71
$GPGGA,164812.800,4308.3128,N,07726.2601,W,1,06,1.91,145.3,M,-34.4,M,,*5A
$GPRMC,164813.000,A,4308.3128,N,07726.2601,W,0.00,126.14,190818,,,A*7A
$GPGGA,164813.200,4308.3128,N,07726.2601,W,1,06,1.91,145.3,M,-34.4,M,,*51
$GPRMC,164813.400,A,4308.3128,N,07726.2601,W,0.01,333.32,190818,,,A*7D
$GPGGA,164813.600,4308.3128,N,07726.2601,W,1,06,1.91,145.3,M,-34.4,M,,*55
$GPRMC,164813.800,A,4308.3128,N,07726.2601,W,0.01,227.75,190818,,,A*76
$GPGGA,164814.000,4308.3128,N,07726.2601,W,1,06,1.91,145.3,M,-34.4,M,,*54
$GPRMC,164814.200,A,4308.3128,N,07726.2601,W,0.01,3.32,190818,,,A*7C
$GPGGA,164814.400,4308.3128,N,07726.2601,W,1,06,1.91,145.3,M,-34.4,M,,*50
$GPRMC,164814.600,A,4308.3128,N,07726.2601,W,0.00,217.31,190818,,,A*7D
$GPGGA,164814.800,4308.3128,N,07726.2601,W,1,06,1.91,145.3,M,-34.4,M,,*5C
$GPRMC,164815.000,A,4308.3128,N,07726.2601,W,0.01,17.95,190818,,,A*47
$GPGGA,164815.200,4308.3128,N,07726.2601,W,1,06,1.91,145.3,M,-34.4,M,,*57
$GPRMC,164815.400,A,4308.3128,N,07726.2601,W,0.00,177.11,190818,,,A*79
$GPGGA,164815.600,4308.3128,N,07726.2601,W,1,06,1.91,145.3,M,-34.4,M,,*53
$GPRMC,164815.800,A,4308.3128,N,07726.2601,W,0.01,134.11,190818,,,A*73
$GPGGA,164816.000,4308.3128,N,07726.2601,W,1,06,1.91,145.3,M,-34.4,M,,*56
$GPRMC,164816.200,A,4308.3128,N,07726.2601,W,0.01,89.25,190818,,,A*4A
$GPGGA,164816.400,4308.3128,N,07726.2601,W,1,06,1.91,145.3,M,-34.4,M,,*52
$GPRMC,164816.600,A,4308.3128,N,07726.2601,W,0.01,72.84,190818,,,A*41
$GPGGA,164816.800,4308.3128,N,07726.2601,W,1,06,1.91,145.3,M,-34.4,M,,*5E
$GPRMC,164817.000,A,4308.3128,N,07726.2601,W,0.00,93.64,190818,,,A*46
$GPGGA,164817.200,4308.3128,N,07726.2601,W,1,06,1.91,145.3,M,-34.4,M,,*55
$GPRMC,164817.400,A,4308.3128,N,07726.2601,W,0.01,122.38,190818,,,A*71
$GPGGA,164817.600,4308.3128,N,07726.2601,W,1,06,1.91,145.3,M,-34.4,M,,*51
$GPRMC,164817.800,A,4308.3128,N,07726.2601,W,0.01,231.90,190818,,,A*7E
$GPGGA,164818.000,4308.3128,N,07726.2601,W,1,06,1.91,145.4,M,-34.4,M,,*5F
$GPRMC,164818.200,A,4308.3128,N,07726.2601,W,0.01,349.78,190818,,,A*73
$GPGGA,164818.400,4308.3128,N,07726.2601,W,1,06,1.91,145.4,M,-34.4,M,,*5B
$GPRMC,164818.600,A,4308.3128,N,07726.2601,W,0.01,210.98,190818,,,A*74
$GPGGA,164818.800,4308.3128,N,07726.2601,W,1,06,1.91,145.4,M,-34.4,M,,*57
$GPRMC,164819.000,A,4308.3128,N,07726.2601,W,0.01,101.69,190818,,,A*7E
$GPGGA,164819.200,4308.3128,N,07726.2601,W,1,06,1.91,145.4,M,-34.4,M,,*5C
$GPRMC,164819.400,A,4308.3128,N,07726.2601,W,0.00,302.64,190818,,,A*77
$GPGGA,164819.600,4308.3128,N,07726.2601,W,1,06,1.91,145.4,M,-34.4,M,,*58
$GPRMC,164819.800,A,4308.3128,N,07726.2601,W,0.01,53.66,190818,,,A*4F
$GPGGA,164820.000,4308.3128,N,07726.2601,W,1,06,1.91,145.4,M,-34.4,M,,*54
$GPRMC,164820.200,A,4308.3128,N,07726.2601,W,0.00,208.68,190818,,,A*7C
$GPGGA,164820.400,4308.3128,N,07726.2601,W,1,06,1.91,145.4,M,-34.4,M,,*50
$GPRMC,164820.600,A,4308.3128,N,07726.2601,W,0.01,16.33,190818,,,A*4A
$GPGGA,164820.800,4308.3128,N,07726.2601,W,1,06,1.91,145.4,M,-34.4,M,,*5C
$GPRMC,164821.000,A,4308.3128,N,07726.2601,W,0.00,339.46,190818,,,A*70
$GPGGA,164821.200,4308.3128,N,07726.2601,W,1,06,1.91,145.4,M,-34.4,M,,*57
$GPRMC,164821.400,A,4308.3128,N,07726.2601,W,0.00,75.89,190818,,,A*4C
$GPGGA,164821.600,4308.3128,N,07726.2601,W,1,06,1.91,145.4,M,-34.4,M,,*53
$GPRMC,164821.800,A,4308.3128,N,07726.2601,W,0.00,191.28,190818,,,A*70
$GPGGA,164822.000,4308.3128,N,07726.2601,W,1,06,1.91,145.4,M,-34.4,M,,*56
$GPRMC,164822.200,A,4308.3128,N,07726.2601,W,0.01,346.69,190818,,,A*75
$GPGGA,164822.400,4308.3128,N,07726.2601,W,1,06,1.91,145.4,M,-34.4,M,,*52
$GPRMC,164822.600,A,4308.3128,N,07726.2601,W,0.00,313.83,190818,,,A*74
$GPGGA,164822.800,4308.3128,N,07726.2601,W,1,06,1.91,145.4,M,-34.4,M,,*5E
$GPRMC,164823.000,A,4308.3128,N,07726.2601,W,0.01,303.81,190818,,,A*71
$GPGGA,164823.200,4308.3128,N,07726.2601,W,1,06,1.91,145.4,M,-34.4,M,,*55
$GPRMC,164823.400,A,4308.3128,N,07726.2601,W,0.00,293.08,190818,,,A*7D
$GPGGA,164823.600,4308.3128,N,07726.2601,W,1,06,1.91,145.4,M,-34.4,M,,*51
$GPRMC,164823.800,A,4308.3128,N,07726.2601,W,0.01,324.04,190818,,,A*71
$GPGGA,164824.000,4308.3128,N,07726.2601,W,1,06,1.91,145.4,M,-34.4,M,,*50
$GPRMC,164824.200,A,4308.3128,N,07726.2601,W,0.00,142.43,190818,,,A*7C
$GPGGA,164824.400,4308.3128,N,07726.2601,W,1,06,1.91,145.4,M,-34.4,M,,*54
$GPRMC,164824.600,A,4308.3128,N,07726.2601,W,0.01,20.09,190818,,,A*42
$GPGGA,164824.800,4308.3128,N,07726.2601,W,1,06,1.91,145.4,M,-34.4,M,,*58
$GPRMC,164825.000,A,4308.3128,N,07726.2601,W,0.00,10.65,190818,,,A*4D
$GPGGA,164825.200,4308.3128,N,07726.2601,W,1,06,1.91,145.4,M,-34.4,M,,*53
$GPRMC,164825.400,A,4308.3128,N,07726.2601,W,0.01,324.24,190818,,,A*79
$GPGGA,164825.600,4308.3128,N,07726.2601,W,1,06,1.91,145.4,M,-34.4,M,,*57
$GPRMC,164825.800,A,4308.3128,N,07726.2601,W,0.00,153.06,190818,,,A*76
$GPGGA,164826.000,4308.3127,N,07726.2601,W,1,06,1.91,145.4,M,-34.4,M,,*5D
$GPRMC,164826.200,A,4308.3127,N,07726.2601,W,0.01,215.44,190818,,,A*76
$GPGGA,164826.400,4308.3127,N,07726.2601,W,1,06,1.91,145.4,M,-34.4,M,,*59
$GPRMC,164826.600,A,4308.3127,N,07726.2601,W,0.00,211.13,190818,,,A*75
$GPGGA,164826.800,4308.3127,N,07726.2601,W,1,06,1.91,145.4,M,-34.4,M,,*55
$GPRMC,164827.000,A,4308.3127,N,07726.2601,W,0.01,169.90,190818,,,A*74
$GPGGA,164827.200,4308.3127,N,07726.2602,W,1,06,1.91,145.4,M,-34.4,M,,*5D
$GPRMC,164827.400,A,4308.3127,N,07726.2602,W,0.00,116.35,190818,,,A*75
$GPGGA,164827.600,4308.3127,N,07726.2602,W,1,06,1.91,145.4,M,-34.4,M,,*59
$GPRMC,164827.800,A,4308.3127,N,07726.2602,W,0.00,309.63,190818,,,A*76
$GPGGA,164828.000,4308.3127,N,07726.2602,W,1,06,1.91,145.4,M,-34.4,M,,*50
$GPRMC,164828.200,A,4308.3127,N,07726.2602,W,0.00,242.81,190818,,,A*71
$GPGGA,164828.400,4308.3127,N,07726.2602,W,1,06,1.91,145.4,M,-34.4,M,,*54
$GPRMC,164828.600,A,4308.3127,N,07726.2602,W,0.01,25.39,190818,,,A*44
$GPGGA,164828.800,4308.3127,N,07726.2602,W,1,06,1.91,145.4,M,-34.4,M,,*58
$GPRMC,164829.000,A,4308.3127,N,07726.2602,W,0.01,347.26,190818,,,A*7A
$GPGGA,164829.200,4308.3127,N,07726.2602,W,1,06,1.91,145.4,M,-34.4,M,,*53
$GPRMC,164829.400,A,4308.3127,N,07726.2602,W,0.00,347.40,190818,,,A*7F
$GPGGA,164829.600,4308.3127,N,07726.2602,W,1,06,1.91,145.4,M,-34.4,M,,*57
$GPRMC,164829.800,A,4308.3127,N,07726.2602,W,0.00,73.45,190818,,,A*42
$GPGGA,164830.000,4308.3127,N,07726.2602,W,1,06,1.91,145.4,M,-34.4,M,,*59
$GPRMC,164830.200,A,4308.3127,N,07726.2602,W,0.00,256.12,190818,,,A*77
$GPGGA,164830.400,4308.3127,N,07726.2602,W,1,06,1.91,145.4,M,-34.4,M,,*5D
$GPRMC,164830.600,A,4308.3127,N,07726.2602,W,0.00,137.10,190818,,,A*75
$GPGGA,164830.800,4308.3127,N,07726.2602,W,1,06,1.91,145.4,M,-34.4,M,,*51
$GPRMC,164831.000,A,4308.3127,N,07726.2602,W,0.00,48.41,190818,,,A*4F
$GPGGA,164831.200,4308.3127,N,07726.2602,W,1,06,1.91,145.4,M,-34.4,M,,*5A
$GPRMC,164831.400,A,4308.3127,N,07726.2602,W,0.01,337.68,190818,,,A*7A
$GPGGA,164831.600,4308.3127,N,07726.2602,W,1,06,1.91,145.4,M,-34.4,M,,*5E
$GPRMC,164831.800,A,4308.3127,N,07726.2602,W,0.01,236.00,190818,,,A*78
$GPGGA,164832.000,4308.3127,N,07726.2602,W,1,06,1.91,145.4,M,-34.4,M,,*5B
$GPRMC,164832.200,A,4308.3127,N,07726.2602,W,0.00,247.88,190818,,,A*76
$GPGGA,164832.400,4308.3127,N,07726.2602,W,1,06,1.91,145.4,M,-34.4,M,,*5F
$GPRMC,164832.600,A,4308.3127,N,07726.2602,W,0.00,291.52,190818,,,A*7E
$GPGGA,164832.800,4308.3127,N,07726.2602,W,1,06,1.91,145.4,M,-34.4,M,,*53
$GPRMC,164833.000,A,4308.3127,N,07726.2602,W,0.01,66.23,190818,,,A*44
$GPGGA,164833.200,4308.3127,N,07726.2602,W,1,06,1.91,145.4,M,-34.4,M,,*58
$GPRMC,164833.400,A,4308.3127,N,07726.2602,W,0.01,331.85,190818,,,A*7D
$GPGGA,164833.600,4308.3127,N,07726.2602,W,1,06,1.91,145.4,M,-34.4,M,,*5C
$GPRMC,164833.800,A,4308.3127,N,07726.2602,W,0.00,314.58,190818,,,A*77
$GPGGA,164834.000,4308.3127,N,07726.2602,W,1,06,1.91,145.4,M,-34.4,M,,*5D
$GPRMC,164834.200,A,4308.3127,N,07726.2602,W,0.01,196.04,190818,,,A*7A
$GPGGA,164834.400,4308.3127,N,07726.2602,W,1,06,1.91,145.4,M,-34.4,M,,*59
$GPRMC,164834.600,A,4308.3127,N,07726.2602,W,0.00,78.58,190818,,,A*47
$GPGGA,164834.800,4308.3127,N,07726.2602,W,1,06,1.91,145.4,M,-34.4,M,,*55
$GPRMC,164835.000,A,4308.3127,N,07726.2602,W,0.01,329.73,190818,,,A*7F
$GPGGA,164835.200,4308.3127,N,07726.2602,W,1,06,1.91,145.3,M,-34.4,M,,*59
$GPRMC,164835.400,A,4308.3127,N,07726.2602,W,0.01,356.75,190818,,,A*75
$GPGGA,164835.600,4308.3127,N,07726.2602,W,1,06,1.91,145.3,M,-34.4,M,,*5D
$GPRMC,164835.800,A,4308.3127,N,07726.2602,W,0.00,323.27,190818,,,A*7D
$GPGGA,164836.000,4308.3127,N,07726.2602,W,1,06,1.91,145.3,M,-34.4,M,,*58
$GPRMC,164836.200,A,4308.3127,N,07726.2602,W,0.01,312.18,190818,,,A*7B
$GPGGA,164836.400,4308.3127,N,07726.2602,W,1,06,1.91,145.3,M,-34.4,M,,*5C
$GPRMC,164836.600,A,4308.3127,N,07726.2602,W,0.00,274.39,190818,,,A*7C
$GPGGA,164836.800,4308.3127,N,07726.2602,W,1,06,1.91,145.3,M,-34.4,M,,*50
$GPRMC,164837.000,A,4308.3127,N,07726.2602,W,0.00,165.02,190818,,,A*70
$GPGGA,164837.200,4308.3127,N,07726.2602,W,1,06,1.91,145.3,M,-34.4,M,,*5B
$GPRMC,164837.400,A,4308.3127,N,07726.2602,W,0.01,35.78,190818,,,A*4C
$GPGGA,164837.600,4308.3127,N,07726.2602,W,1,06,1.91,145.3,M,-34.4,M,,*5F
$GPRMC,164837.800,A,4308.3127,N,07726.2602,W,0.01,87.67,190818,,,A*47
$GPGGA,164838.000,4308.3127,N,07726.2602,W,1,06,1.91,145.3,M,-34.4,M,,*56
$GPRMC,164838.200,A,4308.3127,N,07726.2602,W,0.01,192.33,190818,,,A*76
$GPGGA,164838.400,4308.3127,N,07726.2602,W,1,06,1.91,145.3,M,-34.4,M,,*52
$GPRMC,164838.600,A,4308.3127,N,07726.2602,W,0.00,205.82,190818,,,A*74
$GPGGA,164838.800,4308.3127,N,07726.2602,W,1,06,1.91,145.3,M,-34.4,M,,*5E
$GPRMC,164839.000,A,4308.3127,N,07726.2602,W,0.01,288.57,190818,,,A*7F
$GPGGA,164839.200,4308.3127,N,07726.2602,W,1,06,1.91,145.3,M,-34.4,M,,*55
$GPRMC,164839.400,A,4308.3127,N,07726.2602,W,0.00,179.60,190818,,,A*73
$GPGGA,164839.600,4308.3127,N,07726.2602,W,1,06,1.91,145.3,M,-34.4,M,,*51
$GPRMC,164839.800,A,4308.3127,N,07726.2602,W,0.00,333.11,190818,,,A*75
$GPGGA,164840.000,4308.3127,N,07726.2602,W,1,06,1.91,145.3,M,-34.4,M,,*59
$GPRMC,164840.200,A,4308.3127,N,07726.2602,W,0.00,144.82,190818,,,A*79
$GPGGA,164840.400,4308.3127,N,07726.2602,W,1,06,1.91,145.3,M,-34.4,M,,*5D
$GPRMC,164840.600,A,4308.3127,N,07726.2602,W,0.00,96.58,190818,,,A*44
$GPGGA,164840.800,4308.3127,N,07726.2602,W,1,06,1.91,145.3,M,-34.4,M,,*51
$GPRMC,164841.000,A,4308.3127,N,07726.2602,W,0.01,305.96,190818,,,A*79
$GPGGA,164841.200,4308.3127,N,07726.2602,W,1,06,1.91,145.3,M,-34.4,M,,*5A
$GPRMC,164841.400,A,4308.3127,N,07726.2602,W,0.00,91.79,190818,,,A*43
$GPGGA,164841.600,4308.3127,N,07726.2602,W,1,06,1.91,145.3,M,-34.4,M,,*5E
$GPRMC,164841.800,A,4308.3127,N,07726.2602,W,0.00,121.18,190818,,,A*72
$GPGGA,164842.000,4308.3127,N,07726.2602,W,1,06,1.91,145.3,M,-34.4,M,,*5B
$GPRMC,164842.200,A,4308.3127,N,07726.2602,W,0.01,238.97,190818,,,A*76
$GPGGA,164842.400,4308.3127,N,07726.2602,W,1,06,1.91,145.3,M,-34.4,M,,*5F
$GPRMC,164842.600,A,4308.3127,N,07726.2602,W,0.01,352.59,190818,,,A*7D
$GPGGA,164842.800,4308.3127,N,07726.2602,W,1,06,1.91,145.3,M,-34.4,M,,*53
$GPRMC,164843.000,A,4308.3127,N,07726.2602,W,0.00,338.45,190818,,,A*7A
$GPGGA,164843.200,4308.3127,N,07726.2602,W,1,06,1.91,145.3,M,-34.4,M,,*58
$GPRMC,164843.400,A,4308.3127,N,07726.2602,W,0.01,123.34,190818,,,A*71
$GPGGA,164843.600,4308.3126,N,07726.2602,W,1,06,1.91,145.3,M,-34.4,M,,*5D
$GPRMC,164843.800,A,4308.3126,N,07726.2602,W,0.01,14.89,190818,,,A*4F
$GPGGA,164844.000,4308.3126,N,07726.2602,W,1,06,1.91,145.3,M,-34.4,M,,*5C
$GPRMC,164844.200,A,4308.3126,N,07726.2602,W,0.00,123.59,190818,,,A*7B
$GPGGA,164844.400,4308.3126,N,07726.2602,W,1,06,1.91,145.3,M,-34.4,M,,*58
$GPRMC,164844.600,A,4308.3126,N,07726.2602,W,0.01,178.45,190818,,,A*7D
$GPGGA,164844.800,4308.3126,N,07726.2602,W,1,06,1.91,145.3,M,-34.4,M,,*54
$GPRMC,164845.000,A,4308.3126,N,07726.2602,W,0.00,20.32,190818,,,A*47
$GPGGA,164845.200,4308.3126,N,07726.2602,W,1,06,1.91,145.3,M,-34.4,M,,*5F
$GPRMC,164845.400,A,4308.3126,N,07726.2603,W,0.00,215.72,190818,,,A*72
$GPGGA,164845.600,4308.3126,N,07726.2603,W,1,06,1.91,145.3,M,-34.4,M,,*5A
$GPRMC,164845.800,A,4308.3126,N,07726.2603,W,0.01,97.29,190818,,,A*49
$GPGGA,164846.000,4308.3126,N,07726.2603,W,1,06,1.91,145.3,M,-34.4,M,,*5F
$GPRMC,164846.200,A,4308.3126,N,07726.2603,W,0.01,190.27,190818,,,A*78
$GPGGA,164846.400,4308.3126,N,07726.2603,W,1,06,1.91,145.3,M,-34.4,M,,*5B
$GPRMC,164846.600,A,4308.3126,N,07726.2603,W,0.00,120.08,190818,,,A*7B
$GPGGA,164846.800,4308.3126,N,07726.2603,W,1,06,1.91,145.3,M,-34.4,M,,*57
$GPRMC,164847.000,A,4308.3126,N,07726.2603,W,0.01,55.90,190818,,,A*4F
$GPGGA,164847.200,4308.3126,N,07726.2603,W,1,06,1.91,145.3,M,-34.4,M,,*5C
$GPRMC,164847.400,A,4308.3126,N,07726.2603,W,0.01,10.09,190818,,,A*4A
$GPGGA,164847.600,4308.3126,N,07726.2603,W,1,06,1.91,145.3,M,-34.4,M,,*58
$GPRMC,164847.800,A,4308.3126,N,07726.2603,W,0.00,226.86,190818,,,A*77
$GPGGA,164848.000,4308.3126,N,07726.2603,W,1,06,1.91,145.3,M,-34.4,M,,*51
$GPRMC,164848.200,A,4308.3126,N,07726.2603,W,0.00,69.61,190818,,,A*42
$GPGGA,164848.400,4308.3126,N,07726.2603,W,1,06,1.91,145.3,M,-34.4,M,,*55
$GPRMC,164848.600,A,4308.3126,N,07726.2603,W,0.01,268.96,190818,,,A*7C
$GPGGA,164848.800,4308.3126,N,07726.2603,W,1,06,1.91,145.3,M,-34.4,M,,*59
$GPRMC,164849.000,A,4308.3126,N,07726.2603,W,0.00,187.66,190818,,,A*77
$GPGGA,164849.200,4308.3126,N,07726.2603,W,1,06,1.91,145.3,M,-34.4,M,,*52
$GPRMC,164849.400,A,4308.3126,N,07726.2603,W,0.00,179.42,190818,,,A*74
$GPGGA,164849.600,4308.3126,N,07726.2603,W,1,06,1.91,145.3,M,-34.4,M,,*56
$GPRMC,164849.800,A,4308.3126,N,07726.2603,W,0.00,43.44,190818,,,A*46
$GPGGA,164850.000,4308.3126,N,07726.2603,W,1,06,1.91,145.3,M,-34.4,M,,*58
$GPRMC,164850.200,A,4308.3126,N,07726.2603,W,0.01,352.57,190818,,,A*74
$GPGGA,164850.400,4308.3126,N,07726.2603,W,1,06,1.91,145.3,M,-34.4,M,,*5C
$GPRMC,164850.600,A,4308.3126,N,07726.2603,W,0.00,172.69,190818,,,A*7C
$GPGGA,164850.800,4308.3126,N,07726.2603,W,1,06,1.91,145.3,M,-34.4,M,,*50
$GPRMC,164851.000,A,4308.3126,N,07726.2603,W,0.01,269.87,190818,,,A*73
$GPGGA,164851.200,4308.3126,N,07726.2603,W,1,06,1.91,145.3,M,-34.4,M,,*5B
$GPRMC,164851.400,A,4308.3126,N,07726.2603,W,0.00,83.24,190818,,,A*49
$GPGGA,164851.600,4308.3126,N,07726.2603,W,1,06,1.91,145.3,M,-34.4,M,,*5F
$GPRMC,164851.800,A,4308.3126,N,07726.2603,W,0.01,157.49,190818,,,A*77
$GPGGA,164852.000,4308.3126,N,07726.2603,W,1,06,1.91,145.3,M,-34.4,M,,*5A
$GPRMC,164852.200,A,4308.3126,N,07726.2603,W,0.00,40.53,190818,,,A*43
$GPGGA,164852.400,4308.3126,N,07726.2603,W,1,06,1.91,145.3,M,-34.4,M,,*5E
$GPRMC,164852.600,A,4308.3126,N,07726.2603,W,0.00,292.25,190818,,,A*7B
$GPGGA,164852.800,4308.3126,N,07726.2603,W,1,06,1.91,145.3,M,-34.4,M,,*52
$GPRMC,164853.000,A,4308.3126,N,07726.2603,W,0.01,255.24,190818,,,A*77
$GPGGA,164853.200,4308.3126,N,07726.2603,W,1,06,1.91,145.3,M,-34.4,M,,*59
$GPRMC,164853.400,A,4308.3126,N,07726.2603,W,0.01,330.77,190818,,,A*77
$GPGGA,164853.600,4308.3126,N,07726.2603,W,1,06,1.91,145.3,M,-34.4,M,,*5D
$GPRMC,164853.800,A,4308.3126,N,07726.2603,W,0.01,106.44,190818,,,A*7C
$GPGGA,164854.000,4308.3126,N,07726.2603,W,1,06,1.91,145.3,M,-34.4,M,,*5C
$GPRMC,164854.200,A,4308.3126,N,07726.2603,W,0.00,209.88,190818,,,A*7C
$GPGGA,164854.400,4308.3126,N,07726.2603,W,1,06,1.91,145.3,M,-34.4,M,,*58
$GPRMC,164854.600,A,4308.3126,N,07726.2603,W,0.01,0.79,190818,,,A*7C
$GPGGA,164854.800,4308.3126,N,07726.2603,W,1,06,1.91,145.3,M,-34.4,M,,*54
$GPRMC,164855.000,A,4308.3126,N,07726.2603,W,0.01,326.10,190818,,,A*73
$GPGGA,164855.200,4308.3126,N,07726.2603,W,1,06,1.91,145.3,M,-34.4,M,,*5F
$GPRMC,164855.400,A,4308.3126,N,07726.2603,W,0.00,102.39,190818,,,A*79
$GPGGA,164855.600,4308.3126,N,07726.2603,W,1,06,1.91,145.3,M,-34.4,M,,*5B
$GPRMC,164855.800,A,4308.3126,N,07726.2603,W,0.00,52.50,190818,,,A*4E
$GPGGA,164856.000,4308.3126,N,07726.2603,W,1,06,1.91,145.3,M,-34.4,M,,*5E
$GPRMC,164856.200,A,4308.3126,N,07726.2603,W,0.00,0.00,190818,,,A*75
$GPGGA,164856.400,4308.3126,N,07726.2603,W,1,06,1.91,145.3,M,-34.4,M,,*5A
$GPRMC,164856.600,A,4308.3126,N,07726.2603,W,0.01,353.94,190818,,,A*78
$GPGGA,164856.800,4308.3126,N,07726.2603,W,1,06,1.91,145.3,M,-34.4,M,,*56
$GPRMC,164857.000,A,4308.3126,N,07726.2603,W,0.01,330.46,190818,,,A*75
$GPGGA,164857.200,4308.3126,N,07726.2603,W,1,06,1.91,145.3,M,-34.4,M,,*5D
$GPRMC,164857.400,A,4308.3126,N,07726.2603,W,0.01,190.05,190818,,,A*7E
$GPGGA,164857.600,4308.3126,N,07726.2604,W,1,06,1.91,145.3,M,-34.4,M,,*5E
$GPRMC,164857.800,A,4308.3126,N,07726.2604,W,0.01,325.83,190818,,,A*77
$GPGGA,164858.000,4308.3126,N,07726.2604,W,1,06,1.91,145.3,M,-34.4,M,,*57
$GPRMC,164858.200,A,4308.3126,N,07726.2604,W,0.01,291.27,190818,,,A*72
$GPGGA,164858.400,4308.3126,N,07726.2604,W,1,06,1.91,145.3,M,-34.4,M,,*53
$GPRMC,164858.600,A,4308.3126,N,07726.2604,W,0.00,84.81,190818,,,A*4D
$GPGGA,164858.800,4308.3126,N,07726.2604,W,1,06,1.91,145.3,M,-34.4,M,,*5F
$GPRMC,164859.000,A,4308.3126,N,07726.2604,W,0.00,296.76,190818,,,A*73
$GPGGA,164859.200,4308.3126,N,07726.2604,W,1,06,1.91,145.3,M,-34.4,M,,*54
$GPRMC,164859.400,A,4308.3126,N,07726.2604,W,0.01,148.84,190818,,,A*7B
$GPGGA,164859.600,4308.3126,N,07726.2604,W,1,06,1.91,145.3,M,-34.4,M,,*50
$GPRMC,164859.800,A,4308.3126,N,07726.2604,W,0.00,9.23,190818,,,A*7F
$GPGGA,164900.000,4308.3126,N,07726.2604,W,1,06,1.91,145.3,M,-34.4,M,,*5B
$GPRMC,164900.200,A,4308.3126,N,07726.2604,W,0.00,33.35,190818,,,A*46
$GPGGA,164900.400,4308.3126,N,07726.2604,W,1,06,1.91,145.3,M,-34.4,M,,*5F
$GPRMC,164900.600,A,4308.3126,N,07726.2604,W,0.00,334.51,190818,,,A*74
$GPGGA,164900.800,4308.3126,N,07726.2604,W,1,06,1.91,145.3,M,-34.4,M,,*53
$GPRMC,164901.000,A,4308.3126,N,07726.2604,W,0.00,0.00,190818,,,A*73
$GPGGA,164901.200,4308.3126,N,07726.2604,W,1,06,1.91,145.3,M,-34.4,M,,*58
$GPRMC,164901.400,A,4308.3126,N,07726.2604,W,0.01,306.07,190818,,,A*74
$GPGGA,164901.600,4308.3126,N,07726.2604,W,1,06,1.92,145.3,M,-34.4,M,,*5F
$GPRMC,164901.800,A,4308.3126,N,07726.2604,W,0.00,265.28,190818,,,A*70
$GPGGA,164902.000,4308.3126,N,07726.2604,W,1,06,1.91,145.3,M,-34.4,M,,*59
$GPRMC,164902.200,A,4308.3126,N,07726.2604,W,0.01,296.69,190818,,,A*71
$GPGGA,164902.400,4308.3126,N,07726.2604,W,1,06,1.91,145.3,M,-34.4,M,,*5D
$GPRMC,164902.600,A,4308.3126,N,07726.2604,W,0.01,179.21,190818,,,A*7B
$GPGGA,164902.800,4308.3126,N,07726.2604,W,1,06,1.91,145.3,M,-34.4,M,,*51
$GPRMC,164903.000,A,4308.3126,N,07726.2604,W,0.01,236.23,190818,,,A*76
$GPGGA,164903.200,4308.3126,N,07726.2604,W,1,06,1.92,145.3,M,-34.4,M,,*59
$GPRMC,164903.400,A,4308.3126,N,07726.2604,W,0.00,277.18,190818,,,A*7E
$GPGGA,164903.600,4308.3126,N,07726.2604,W,1,06,1.91,145.3,M,-34.4,M,,*5E
$GPRMC,164903.800,A,4308.3126,N,07726.2604,W,0.01,109.06,190818,,,A*76
$GPGGA,164904.000,4308.3126,N,07726.2604,W,1,06,1.91,145.3,M,-34.4,M,,*5F
$GPRMC,164904.200,A,4308.3126,N,07726.2604,W,0.02,169.58,190818,,,A*75
$GPGGA,164904.400,4308.3126,N,07726.2604,W,1,06,1.91,145.3,M,-34.4,M,,*5B
$GPRMC,164904.600,A,4308.3126,N,07726.2604,W,0.01,138.42,190818,,,A*7D
$GPGGA,164904.800,4308.3126,N,07726.2604,W,1,06,1.91,145.3,M,-34.4,M,,*57
$GPRMC,164905.000,A,4308.3126,N,07726.2604,W,0.00,18.24,190818,,,A*48
$GPGGA,164905.200,4308.3126,N,07726.2604,W,1,06,1.91,145.3,M,-34.4,M,,*5C
$GPRMC,164905.400,A,4308.3126,N,07726.2604,W,0.00,281.68,190818,,,A*76
$GPGGA,164905.600,4308.3126,N,07726.2604,W,1,06,1.91,145.3,M,-34.4,M,,*58
$GPRMC,164905.800,A,4308.3126,N,07726.2604,W,0.01,101.48,190818,,,A*72
$GPGGA,164906.000,4308.3126,N,07726.2604,W,1,06,1.91,145.3,M,-34.4,M,,*5D
$GPRMC,164906.200,A,4308.3126,N,07726.2604,W,0.01,123.63,190818,,,A*72
$GPGGA,164906.400,4308.3126,N,07726.2604,W,1,06,1.91,145.3,M,-34.4,M,,*59
$GPRMC,164906.600,A,4308.3125,N,07726.2604,W,0.01,235.15,190818,,,A*70
$GPGGA,164906.800,4308.3125,N,07726.2604,W,1,06,1.91,145.3,M,-34.4,M,,*56
$GPRMC,164907.000,A,4308.3125,N,07726.2604,W,0.00,217.63,190818,,,A*77
$GPGGA,164907.200,4308.3125,N,07726.2604,W,1,06,1.91,145.3,M,-34.4,M,,*5D
$GPRMC,164907.400,A,4308.3125,N,07726.2604,W,0.01,146.36,190818,,,A*75
$GPGGA,164907.600,4308.3125,N,07726.2604,W,1,06,1.92,145.3,M,-34.4,M,,*5A
$GPRMC,164907.800,A,4308.3125,N,07726.2604,W,0.01,105.29,190818,,,A*70
$GPGGA,164908.000,4308.3125,N,07726.2604,W,1,06,1.91,145.3,M,-34.4,M,,*50
$GPRMC,164908.200,A,4308.3125,N,07726.2604,W,0.00,34.18,190818,,,A*45
$GPGGA,164908.400,4308.3125,N,07726.2604,W,1,06,1.91,145.3,M,-34.4,M,,*54
$GPRMC,164908.600,A,4308.3125,N,07726.2604,W,0.01,130.85,190818,,,A*71
$GPGGA,164908.800,4308.3125,N,07726.2604,W,1,06,1.91,145.3,M,-34.4,M,,*58
$GPRMC,164909.000,A,4308.3125,N,07726.2604,W,0.01,26.27,190818,,,A*48
$GPGGA,164909.200,4308.3125,N,07726.2604,W,1,06,1.91,145.3,M,-34.4,M,,*53
$GPRMC,164909.400,A,4308.3125,N,07726.2604,W,0.01,199.37,190818,,,A*78
$GPGGA,164909.600,4308.3125,N,07726.2604,W,1,06,1.92,145.3,M,-34.4,M,,*54
$GPRMC,164909.800,A,4308.3125,N,07726.2604,W,0.01,329.38,190818,,,A*72
$GPGGA,164910.000,4308.3125,N,07726.2604,W,1,06,1.92,145.3,M,-34.4,M,,*5A
$GPRMC,164910.200,A,4308.3125,N,07726.2604,W,0.01,107.93,190818,,,A*7F
$GPGGA,164910.400,4308.3125,N,07726.2604,W,1,06,1.92,145.4,M,-34.4,M,,*59
$GPRMC,164910.600,A,4308.3125,N,07726.2604,W,0.01,319.99,190818,,,A*7C
$GPGGA,164910.800,4308.3125,N,07726.2604,W,1,06,1.92,145.4,M,-34.4,M,,*55
$GPRMC,164911.000,A,4308.3125,N,07726.2604,W,0.01,102.39,190818,,,A*79
$GPGGA,164911.200,4308.3125,N,07726.2604,W,1,06,1.91,145.4,M,-34.4,M,,*5D
$GPRMC,164911.400,A,4308.3125,N,07726.2604,W,0.01,273.32,190818,,,A*73
$GPGGA,164911.600,4308.3125,N,07726.2604,W,1,06,1.92,145.4,M,-34.4,M,,*5A
$GPRMC,164911.800,A,4308.3125,N,07726.2604,W,0.00,259.66,190818,,,A*77
$GPGGA,164912.000,4308.3125,N,07726.2604,W,1,06,1.91,145.4,M,-34.4,M,,*5C
$GPRMC,164912.200,A,4308.3125,N,07726.2604,W,0.01,140.08,190818,,,A*7C
$GPGGA,164912.400,4308.3125,N,07726.2604,W,1,06,1.92,145.4,M,-34.4,M,,*5B
$GPRMC,164912.600,A,4308.3125,N,07726.2604,W,0.01,326.59,190818,,,A*7E
$GPGGA,164912.800,4308.3125,N,07726.2604,W,1,06,1.91,145.4,M,-34.4,M,,*54
$GPRMC,164913.000,A,4308.3125,N,07726.2604,W,0.01,74.94,190818,,,A*4C
$GPGGA,164913.200,4308.3125,N,07726.2604,W,1,06,1.91,145.4,M,-34.4,M,,*5F
$GPRMC,164913.400,A,4308.3125,N,07726.2604,W,0.01,162.20,190818,,,A*71
$GPGGA,164913.600,4308.3125,N,07726.2604,W,1,06,1.91,145.4,M,-34.4,M,,*5B
$GPRMC,164913.800,A,4308.3125,N,07726.2604,W,0.01,22.18,190818,,,A*43
$GPGGA,164914.000,4308.3125,N,07726.2604,W,1,06,1.91,145.4,M,-34.4,M,,*5A
$GPRMC,164914.200,A,4308.3125,N,07726.2604,W,0.01,47.16,190818,,,A*43
$GPGGA,164914.400,4308.3125,N,07726.2604,W,1,06,1.92,145.4,M,-34.4,M,,*5D
$GPRMC,164914.600,A,4308.3125,N,07726.2604,W,0.01,98.20,190818,,,A*40
$GPGGA,164914.800,4308.3125,N,07726.2604,W,1,06,1.92,145.4,M,-34.4,M,,*51
$GPRMC,164915.000,A,4308.3125,N,07726.2604,W,0.01,271.61,190818,,,A*77
$GPGGA,164915.200,4308.3125,N,07726.2604,W,1,06,1.91,145.4,M,-34.4,M,,*59
$GPRMC,164915.400,A,4308.3125,N,07726.2604,W,0.00,331.98,190818,,,A*71
$GPGGA,164915.600,4308.3125,N,07726.2604,W,1,06,1.92,145.4,M,-34.4,M,,*5E
$GPRMC,164915.800,A,4308.3125,N,07726.2604,W,0.00,96.53,190818,,,A*44
$GPGGA,164916.000,4308.3125,N,07726.2604,W,1,06,1.92,145.4,M,-34.4,M,,*5B
$GPRMC,164916.200,A,4308.3125,N,07726.2604,W,0.01,318.56,190818,,,A*7C
$GPGGA,164916.400,4308.3125,N,07726.2604,W,1,06,1.91,145.4,M,-34.4,M,,*5C
$GPRMC,164916.600,A,4308.3125,N,07726.2604,W,0.00,100.97,190818,,,A*7F
$GPGGA,164916.800,4308.3125,N,07726.2604,W,1,06,1.92,145.4,M,-34.4,M,,*53
$GPRMC,164917.000,A,4308.3125,N,07726.2605,W,0.01,356.11,190818,,,A*77
$GPGGA,164917.200,4308.3125,N,07726.2605,W,1,06,1.92,145.4,M,-34.4,M,,*59
$GPRMC,164917.400,A,4308.3125,N,07726.2605,W,0.00,76.29,190818,,,A*48
$GPGGA,164917.600,4308.3125,N,07726.2605,W,1,06,1.92,145.4,M,-34.4,M,,*5D
$GPRMC,164917.800,A,4308.3125,N,07726.2605,W,0.00,280.19,190818,,,A*7C
$GPGGA,164918.000,4308.3125,N,07726.2605,W,1,06,1.92,145.4,M,-34.4,M,,*54
$GPRMC,164918.200,A,4308.3125,N,07726.2605,W,0.00,77.02,190818,,,A*49
$GPGGA,164918.400,4308.3125,N,07726.2605,W,1,06,1.92,145.4,M,-34.4,M,,*50
$GPRMC,164918.600,A,4308.3125,N,07726.2605,W,0.01,166.38,190818,,,A*74
$GPGGA,164918.800,4308.3125,N,07726.2605,W,1,06,1.92,145.4,M,-34.4,M,,*5C
$GPRMC,164919.000,A,4308.3125,N,07726.2605,W,0.00,351.41,190818,,,A*7A
$GPGGA,164919.200,4308.3125,N,07726.2605,W,1,06,1.92,145.4,M,-34.4,M,,*57
