Vers 60
USE_SERIAL_FEEDBACK=true
DEVELOPMENT_MODE=false
USE_RMC_ONLY=false

$GPRMC,145707.750,A,4308.3031,N,07726.2429,W,7.87,98.68,200818,,,D*48
$GPGGA,145708.000,4308.3028,N,07726.2422,W,2,08,1.12,153.9,M,-34.4,M,0000,0000*5C
$GPRMC,145708.250,A,4308.3025,N,07726.2416,W,7.69,99.77,200818,,,D*44
$GPGGA,145708.500,4308.3023,N,07726.2411,W,2,08,1.12,153.9,M,-34.4,M,0000,0000*52
$GPRMC,145708.750,A,4308.3017,N,07726.2402,W,7.93,99.61,200818,,,D*47
$GPGGA,145709.000,4308.3013,N,07726.2394,W,2,08,1.12,153.9,M,-34.4,M,0000,0000*5F
$GPRMC,145709.250,A,4308.3010,N,07726.2387,W,8.04,99.67,200818,,,D*49
$GPGGA,145709.500,4308.3014,N,07726.2394,W,2,07,1.15,154.2,M,-34.4,M,0000,0000*59
$GPRMC,145709.750,A,4308.3016,N,07726.2399,W,7.26,99.59,200818,,,D*47
$GPGGA,145710.000,4308.3018,N,07726.2402,W,2,08,1.12,154.6,M,-34.4,M,0000,0000*5C
$GPRMC,145710.250,A,4308.3019,N,07726.2405,W,6.52,98.94,200818,,,D*45
$GPGGA,145710.500,4308.3017,N,07726.2404,W,2,07,1.15,154.9,M,-34.4,M,0000,0000*57
$GPRMC,145710.750,A,4308.3015,N,07726.2402,W,6.42,100.35,200818,,,D*71
$GPGGA,145711.000,4308.3014,N,07726.2402,W,2,08,1.12,155.0,M,-34.4,M,0000,0000*56
$GPRMC,145711.250,A,4308.3018,N,07726.2408,W,5.62,97.54,200818,,,D*4B
$GPGGA,145711.500,4308.3020,N,07726.2414,W,2,08,1.12,155.4,M,-34.4,M,0000,0000*57
$GPRMC,145711.750,A,4308.3019,N,07726.2412,W,5.29,94.35,200818,,,D*4F
$GPGGA,145712.000,4308.3022,N,07726.2419,W,2,08,1.12,155.6,M,-34.4,M,0000,0000*5C
$GPRMC,145712.250,A,4308.3025,N,07726.2424,W,4.72,90.93,200818,,,D*44
$GPGGA,145712.500,4308.3031,N,07726.2447,W,2,08,1.12,155.7,M,-34.4,M,0000,0000*51
$GPRMC,145712.750,A,4308.3037,N,07726.2469,W,3.67,84.46,200818,,,D*45
$GPGGA,145713.000,4308.3042,N,07726.2489,W,2,08,1.12,155.7,M,-34.4,M,0000,0000*53
$GPRMC,145713.250,A,4308.3047,N,07726.2506,W,2.85,81.65,200818,,,D*47
$GPGGA,145713.500,4308.3050,N,07726.2519,W,2,08,1.12,155.7,M,-34.4,M,0000,0000*5D
$GPRMC,145713.750,A,4308.3051,N,07726.2528,W,2.46,81.65,200818,,,D*46
$GPGGA,145714.000,4308.3058,N,07726.2558,W,2,07,1.15,155.7,M,-34.4,M,0000,0000*5A
$GPRMC,145714.250,A,4308.3060,N,07726.2571,W,1.91,81.65,200818,,,D*43
$GPGGA,145714.500,4308.3062,N,07726.2583,W,2,08,1.12,155.6,M,-34.4,M,0000,0000*59
$GPRMC,145714.750,A,4308.3064,N,07726.2589,W,1.39,81.65,200818,,,D*47
$GPGGA,145715.000,4308.3062,N,07726.2590,W,2,08,1.12,155.8,M,-34.4,M,0000,0000*51
$GPRMC,145715.250,A,4308.3064,N,07726.2597,W,1.26,81.65,200818,,,D*42
$GPGGA,145715.500,4308.3063,N,07726.2599,W,2,08,1.12,155.9,M,-34.4,M,0000,0000*5D
$GPRMC,145715.750,A,4308.3063,N,07726.2602,W,1.22,81.65,200818,,,D*4B
$GPGGA,145716.000,4308.3063,N,07726.2606,W,2,08,1.12,155.9,M,-34.4,M,0000,0000*5E
$GPRMC,145716.250,A,4308.3063,N,07726.2607,W,1.14,81.65,200818,,,D*4D
$GPGGA,145716.500,4308.3062,N,07726.2609,W,2,08,1.12,155.9,M,-34.4,M,0000,0000*55
$GPRMC,145716.750,A,4308.3061,N,07726.2609,W,1.06,81.65,200818,,,D*47
$GPGGA,145717.000,4308.3060,N,07726.2610,W,2,08,1.12,156.0,M,-34.4,M,0000,0000*51
$GPRMC,145717.250,A,4308.3059,N,07726.2611,W,1.00,81.65,200818,,,D*47
$GPGGA,145717.500,4308.3058,N,07726.2612,W,2,08,1.12,156.0,M,-34.4,M,0000,0000*5D
$GPRMC,145717.750,A,4308.3058,N,07726.2611,W,0.89,81.65,200818,,,D*43
$GPGGA,145718.000,4308.3059,N,07726.2611,W,2,08,1.12,156.1,M,-34.4,M,0000,0000*54
$GPRMC,145718.250,A,4308.3059,N,07726.2610,W,0.78,81.65,200818,,,D*47
$GPGGA,145718.500,4308.3059,N,07726.2610,W,2,08,1.12,156.2,M,-34.4,M,0000,0000*53
$GPRMC,145718.750,A,4308.3060,N,07726.2609,W,0.71,81.65,200818,,,D*49
$GPGGA,145719.000,4308.3060,N,07726.2609,W,2,08,1.12,156.3,M,-34.4,M,0000,0000*54
$GPRMC,145719.250,A,4308.3060,N,07726.2608,W,0.66,81.65,200818,,,D*4A
$GPGGA,145719.500,4308.3060,N,07726.2607,W,2,08,1.12,156.4,M,-34.4,M,0000,0000*58
$GPRMC,145719.750,A,4308.3060,N,07726.2607,W,0.60,81.65,200818,,,D*46
$GPGGA,145720.000,4308.3061,N,07726.2607,W,2,08,1.12,156.5,M,-34.4,M,0000,0000*57
$GPRMC,145720.250,A,4308.3061,N,07726.2606,W,0.55,81.65,200818,,,D*4F
$GPGGA,145720.500,4308.3061,N,07726.2606,W,2,08,1.12,156.6,M,-34.4,M,0000,0000*50
$GPRMC,145720.750,A,4308.3061,N,07726.2605,W,0.50,81.65,200818,,,D*4C
$GPGGA,145721.000,4308.3061,N,07726.2605,W,2,08,1.12,156.7,M,-34.4,M,0000,0000*56
$GPRMC,145721.250,A,4308.3061,N,07726.2604,W,0.48,81.65,200818,,,D*40
$GPGGA,145721.500,4308.3062,N,07726.2604,W,2,08,1.12,156.7,M,-34.4,M,0000,0000*51
$GPRMC,145721.750,A,4308.3062,N,07726.2604,W,0.48,81.65,200818,,,D*46
$GPGGA,145722.000,4308.3062,N,07726.2604,W,2,08,1.12,156.8,M,-34.4,M,0000,0000*58
$GPRMC,145722.250,A,4308.3062,N,07726.2604,W,0.14,81.65,200818,,,D*49
$GPGGA,145722.500,4308.3062,N,07726.2604,W,2,08,1.20,156.9,M,-34.4,M,0000,0000*5D
$GPRMC,145722.750,A,4308.3062,N,07726.2604,W,0.17,81.65,200818,,,D*4F
$GPGGA,145723.000,4308.3063,N,07726.2604,W,2,08,1.12,156.9,M,-34.4,M,0000,0000*59
$GPRMC,145723.250,A,4308.3063,N,07726.2604,W,0.09,81.65,200818,,,D*45
$GPGGA,145723.500,4308.3063,N,07726.2604,W,2,08,1.12,157.0,M,-34.4,M,0000,0000*54
$GPRMC,145723.750,A,4308.3063,N,07726.2604,W,0.11,81.65,200818,,,D*49
$GPGGA,145724.000,4308.3063,N,07726.2604,W,2,08,1.12,157.0,M,-34.4,M,0000,0000*56
$GPRMC,145724.250,A,4308.3063,N,07726.2604,W,0.09,81.65,200818,,,D*42
$GPGGA,145724.500,4308.3063,N,07726.2604,W,2,08,1.12,157.1,M,-34.4,M,0000,0000*52
$GPRMC,145724.750,A,4308.3063,N,07726.2604,W,0.07,81.65,200818,,,D*49
$GPGGA,145725.000,4308.3063,N,07726.2604,W,2,08,1.12,157.1,M,-34.4,M,0000,0000*56
$GPRMC,145725.250,A,4308.3063,N,07726.2603,W,0.04,81.65,200818,,,D*49
$GPGGA,145725.500,4308.3063,N,07726.2603,W,2,08,1.12,157.2,M,-34.4,M,0000,0000*57
$GPRMC,145725.750,A,4308.3063,N,07726.2604,W,0.08,81.65,200818,,,D*47
$GPGGA,145726.000,4308.3063,N,07726.2603,W,2,08,1.12,157.2,M,-34.4,M,0000,0000*51
$GPRMC,145726.250,A,4308.3063,N,07726.2604,W,0.09,81.65,200818,,,D*40
$GPGGA,145726.500,4308.3063,N,07726.2603,W,2,08,1.12,157.3,M,-34.4,M,0000,0000*55
$GPRMC,145726.750,A,4308.3063,N,07726.2603,W,0.02,81.65,200818,,,D*49
$GPGGA,145727.000,4308.3063,N,07726.2603,W,2,08,1.12,157.3,M,-34.4,M,0000,0000*51
$GPRMC,145727.250,A,4308.3063,N,07726.2603,W,0.06,81.65,200818,,,D*49
$GPGGA,145727.500,4308.3063,N,07726.2603,W,2,08,1.12,157.3,M,-34.4,M,0000,0000*54
$GPRMC,145727.750,A,4308.3063,N,07726.2603,W,0.07,81.65,200818,,,D*4D
$GPGGA,145728.000,4308.3063,N,07726.2603,W,2,08,1.12,157.4,M,-34.4,M,0000,0000*59
$GPRMC,145728.250,A,4308.3063,N,07726.2603,W,0.08,81.65,200818,,,D*48
$GPGGA,145728.500,4308.3063,N,07726.2603,W,2,08,1.20,157.4,M,-34.4,M,0000,0000*5D
$GPRMC,145728.750,A,4308.3063,N,07726.2603,W,0.04,81.65,200818,,,D*41
$GPGGA,145729.000,4308.3063,N,07726.2603,W,2,08,1.12,157.4,M,-34.4,M,0000,0000*58
$GPRMC,145729.250,A,4308.3063,N,07726.2603,W,0.08,81.65,200818,,,D*49
$GPGGA,145729.500,4308.3063,N,07726.2603,W,2,08,1.20,157.4,M,-34.4,M,0000,0000*5C
$GPRMC,145729.750,A,4308.3063,N,07726.2603,W,0.14,81.65,200818,,,D*41
$GPGGA,145730.000,4308.3063,N,07726.2603,W,2,08,1.20,157.4,M,-34.4,M,0000,0000*51
$GPRMC,145730.250,A,4308.3063,N,07726.2603,W,0.03,81.65,200818,,,D*4A
$GPGGA,145730.500,4308.3063,N,07726.2603,W,2,08,1.12,157.5,M,-34.4,M,0000,0000*54
$GPRMC,145730.750,A,4308.3063,N,07726.2603,W,0.04,81.65,200818,,,D*48
$GPGGA,145731.000,4308.3063,N,07726.2603,W,2,08,1.12,157.5,M,-34.4,M,0000,0000*50
$GPRMC,145731.250,A,4308.3063,N,07726.2603,W,0.04,81.65,200818,,,D*4C
$GPGGA,145731.500,4308.3063,N,07726.2603,W,2,08,1.12,157.5,M,-34.4,M,0000,0000*55
$GPRMC,145731.750,A,4308.3063,N,07726.2603,W,0.05,81.65,200818,,,D*48
$GPGGA,145732.000,4308.3063,N,07726.2603,W,2,08,1.12,157.5,M,-34.4,M,0000,0000*53
$GPRMC,145732.250,A,4308.3063,N,07726.2603,W,0.07,81.65,200818,,,D*4C
$GPGGA,145732.500,4308.3063,N,07726.2603,W,2,08,1.12,157.5,M,-34.4,M,0000,0000*56
$GPRMC,145732.750,A,4308.3063,N,07726.2603,W,0.11,81.65,200818,,,D*4E
$GPGGA,145733.000,4308.3063,N,07726.2603,W,2,08,1.12,157.5,M,-34.4,M,0000,0000*52
$GPRMC,145733.250,A,4308.3063,N,07726.2603,W,0.14,81.65,200818,,,D*4F
$GPGGA,145733.500,4308.3063,N,07726.2603,W,2,08,1.12,157.5,M,-34.4,M,0000,0000*57
$GPRMC,145733.750,A,4308.3063,N,07726.2603,W,0.19,81.65,200818,,,D*47
$GPGGA,145734.000,4308.3063,N,07726.2602,W,2,08,1.12,157.6,M,-34.4,M,0000,0000*57
$GPRMC,145734.250,A,4308.3063,N,07726.2602,W,0.04,81.65,200818,,,D*48
$GPGGA,145734.500,4308.3063,N,07726.2602,W,2,08,1.20,157.6,M,-34.4,M,0000,0000*53
$GPRMC,145734.750,A,4308.3063,N,07726.2602,W,0.04,81.65,200818,,,D*4D
$GPGGA,145735.000,4308.3063,N,07726.2602,W,2,08,1.20,157.6,M,-34.4,M,0000,0000*57
$GPRMC,145735.250,A,4308.3063,N,07726.2602,W,0.03,81.65,200818,,,D*4E
$GPGGA,145735.500,4308.3063,N,07726.2602,W,2,08,1.20,157.6,M,-34.4,M,0000,0000*52
$GPRMC,145735.750,A,4308.3063,N,07726.2602,W,0.03,81.65,200818,,,D*4B
$GPGGA,145736.000,4308.3063,N,07726.2602,W,2,08,1.20,157.6,M,-34.4,M,0000,0000*54
$GPRMC,145736.250,A,4308.3063,N,07726.2602,W,0.02,81.65,200818,,,D*4C
$GPGGA,145736.500,4308.3063,N,07726.2602,W,2,08,1.20,157.6,M,-34.4,M,0000,0000*51
$GPRMC,145736.750,A,4308.3063,N,07726.2602,W,0.01,81.65,200818,,,D*4A
$GPGGA,145737.000,4308.3063,N,07726.2602,W,2,08,1.20,157.6,M,-34.4,M,0000,0000*55
$GPRMC,145737.250,A,4308.3063,N,07726.2602,W,0.00,81.65,200818,,,D*4F
$GPGGA,145737.500,4308.3063,N,07726.2602,W,2,08,1.20,157.6,M,-34.4,M,0000,0000*50
$GPRMC,145737.750,A,4308.3063,N,07726.2602,W,0.00,81.65,200818,,,D*4A
$GPGGA,145738.000,4308.3063,N,07726.2602,W,2,08,1.20,157.6,M,-34.4,M,0000,0000*5A
$GPRMC,145738.250,A,4308.3063,N,07726.2602,W,0.00,81.65,200818,,,D*40
$GPGGA,145738.500,4308.3063,N,07726.2602,W,2,08,1.20,157.6,M,-34.4,M,0000,0000*5F
$GPRMC,145738.750,A,4308.3063,N,07726.2602,W,0.01,81.65,200818,,,D*44
$GPGGA,145739.000,4308.3063,N,07726.2602,W,2,08,1.20,157.6,M,-34.4,M,0000,0000*5B
$GPRMC,145739.250,A,4308.3063,N,07726.2602,W,0.00,81.65,200818,,,D*41
$GPGGA,145739.500,4308.3063,N,07726.2602,W,2,08,1.20,157.6,M,-34.4,M,0000,0000*5E
$GPRMC,145739.750,A,4308.3063,N,07726.2602,W,0.01,81.65,200818,,,D*45
$GPGGA,145740.000,4308.3063,N,07726.2602,W,2,08,1.20,157.6,M,-34.4,M,0000,0000*55
$GPRMC,145740.250,A,4308.3063,N,07726.2602,W,0.00,81.65,200818,,,D*4F
$GPGGA,145740.500,4308.3063,N,07726.2602,W,2,08,1.20,157.6,M,-34.4,M,0000,0000*50
$GPRMC,145740.750,A,4308.3063,N,07726.2602,W,0.00,81.65,200818,,,D*4A
$GPGGA,145741.000,4308.3063,N,07726.2602,W,2,08,1.20,157.6,M,-34.4,M,0000,0000*54
$GPRMC,145741.250,A,4308.3063,N,07726.2602,W,0.01,81.65,200818,,,D*4F
$GPGGA,145741.500,4308.3063,N,07726.2602,W,2,08,1.20,157.6,M,-34.4,M,0000,0000*51
$GPRMC,145741.750,A,4308.3063,N,07726.2602,W,0.02,81.65,200818,,,D*49
$GPGGA,145742.000,4308.3063,N,07726.2602,W,2,08,1.20,157.6,M,-34.4,M,0000,0000*57
$GPRMC,145742.250,A,4308.3063,N,07726.2602,W,0.01,81.65,200818,,,D*4C
$GPGGA,145742.500,4308.3063,N,07726.2602,W,2,08,1.20,157.6,M,-34.4,M,0000,0000*52
$GPRMC,145742.750,A,4308.3063,N,07726.2602,W,0.01,81.65,200818,,,D*49
$GPGGA,145743.000,4308.3063,N,07726.2602,W,2,08,1.20,157.6,M,-34.4,M,0000,0000*56
$GPRMC,145743.250,A,4308.3063,N,07726.2602,W,0.00,81.65,200818,,,D*4C
$GPGGA,145743.500,4308.3063,N,07726.2602,W,2,08,1.20,157.6,M,-34.4,M,0000,0000*53
$GPRMC,145743.750,A,4308.3063,N,07726.2602,W,0.00,81.65,200818,,,D*49
$GPGGA,145744.000,4308.3063,N,07726.2602,W,2,08,1.20,157.6,M,-34.4,M,0000,0000*51
$GPRMC,145744.250,A,4308.3063,N,07726.2602,W,0.00,81.65,200818,,,D*4B
$GPGGA,145744.500,4308.3063,N,07726.2602,W,2,08,1.20,157.6,M,-34.4,M,0000,0000*54
$GPRMC,145744.750,A,4308.3063,N,07726.2602,W,0.03,81.65,200818,,,D*4D
$GPGGA,145745.000,4308.3063,N,07726.2602,W,2,08,1.20,157.6,M,-34.4,M,0000,0000*50
$GPRMC,145745.250,A,4308.3063,N,07726.2602,W,0.02,81.65,200818,,,D*48
$GPGGA,145745.500,4308.3063,N,07726.2602,W,2,08,1.20,157.6,M,-34.4,M,0000,0000*55
$GPRMC,145745.750,A,4308.3063,N,07726.2602,W,0.02,81.65,200818,,,D*4D
$GPGGA,145746.000,4308.3063,N,07726.2602,W,2,08,1.20,157.6,M,-34.4,M,0000,0000*53
$GPRMC,145746.250,A,4308.3063,N,07726.2602,W,0.04,81.65,200818,,,D*4D
$GPGGA,145746.500,4308.3063,N,07726.2602,W,2,08,1.20,157.6,M,-34.4,M,0000,0000*56
$GPRMC,145746.750,A,4308.3063,N,07726.2602,W,0.03,81.65,200818,,,D*4F
$GPGGA,145747.000,4308.3063,N,07726.2602,W,2,08,1.20,157.6,M,-34.4,M,0000,0000*52
$GPRMC,145747.250,A,4308.3063,N,07726.2602,W,0.03,81.65,200818,,,D*4B
$GPGGA,145747.500,4308.3063,N,07726.2602,W,2,08,1.20,157.6,M,-34.4,M,0000,0000*57
$GPRMC,145747.750,A,4308.3063,N,07726.2602,W,0.03,81.65,200818,,,D*4E
$GPGGA,145748.000,4308.3063,N,07726.2602,W,2,08,1.20,157.6,M,-34.4,M,0000,0000*5D
$GPRMC,145748.250,A,4308.3063,N,07726.2602,W,0.04,81.65,200818,,,D*43
$GPGGA,145748.500,4308.3063,N,07726.2602,W,2,09,1.16,157.5,M,-34.4,M,0000,0000*5F
$GPRMC,145748.750,A,4308.3062,N,07726.2602,W,0.03,81.65,200818,,,D*40
$GPGGA,145749.000,4308.3062,N,07726.2602,W,2,09,1.16,157.5,M,-34.4,M,0000,0000*5A
$GPRMC,145749.250,A,4308.3062,N,07726.2602,W,0.03,81.65,200818,,,D*44
$GPGGA,145749.500,4308.3062,N,07726.2602,W,2,09,1.16,157.5,M,-34.4,M,0000,0000*5F
$GPRMC,145749.750,A,4308.3062,N,07726.2602,W,0.03,81.65,200818,,,D*41
$GPGGA,145750.000,4308.3062,N,07726.2603,W,2,09,1.16,157.5,M,-34.4,M,0000,0000*53
$GPRMC,145750.250,A,4308.3062,N,07726.2603,W,0.03,81.65,200818,,,D*4D
$GPGGA,145750.500,4308.3062,N,07726.2603,W,2,09,1.16,157.5,M,-34.4,M,0000,0000*56
$GPRMC,145750.750,A,4308.3062,N,07726.2603,W,0.03,81.65,200818,,,D*48
$GPGGA,145751.000,4308.3062,N,07726.2603,W,2,09,1.16,157.5,M,-34.4,M,0000,0000*52
$GPRMC,145751.250,A,4308.3062,N,07726.2603,W,0.02,81.65,200818,,,D*4D
$GPGGA,145751.500,4308.3062,N,07726.2603,W,2,09,1.16,157.5,M,-34.4,M,0000,0000*57
$GPRMC,145751.750,A,4308.3062,N,07726.2603,W,0.03,81.65,200818,,,D*49
$GPGGA,145752.000,4308.3062,N,07726.2603,W,2,09,1.17,157.5,M,-34.4,M,0000,0000*50
$GPRMC,145752.250,A,4308.3062,N,07726.2603,W,0.04,81.65,200818,,,D*48
$GPGGA,145752.500,4308.3062,N,07726.2603,W,2,09,1.16,157.5,M,-34.4,M,0000,0000*54
$GPRMC,145752.750,A,4308.3062,N,07726.2603,W,0.04,81.65,200818,,,D*4D
$GPGGA,145753.000,4308.3062,N,07726.2603,W,2,09,1.16,157.5,M,-34.4,M,0000,0000*50
$GPRMC,145753.250,A,4308.3062,N,07726.2603,W,0.03,81.65,200818,,,D*4E
$GPGGA,145753.500,4308.3062,N,07726.2603,W,2,09,1.16,157.5,M,-34.4,M,0000,0000*55
$GPRMC,145753.750,A,4308.3062,N,07726.2603,W,0.04,81.65,200818,,,D*4C
$GPGGA,145754.000,4308.3062,N,07726.2603,W,2,09,1.16,157.5,M,-34.4,M,0000,0000*57
$GPRMC,145754.250,A,4308.3062,N,07726.2603,W,0.01,81.65,200818,,,D*4B
$GPGGA,145754.500,4308.3062,N,07726.2603,W,2,09,1.17,157.5,M,-34.4,M,0000,0000*53
$GPRMC,145754.750,A,4308.3062,N,07726.2603,W,0.03,81.65,200818,,,D*4C
$GPGGA,145755.000,4308.3062,N,07726.2603,W,2,09,1.16,157.5,M,-34.4,M,0000,0000*56
$GPRMC,145755.250,A,4308.3062,N,07726.2603,W,0.01,81.65,200818,,,D*4A
$GPGGA,145755.500,4308.3062,N,07726.2603,W,2,09,1.07,157.5,M,-34.4,M,0000,0000*53
$GPRMC,145755.750,A,4308.3062,N,07726.2603,W,0.07,81.65,200818,,,D*49
$GPGGA,145756.000,4308.3062,N,07726.2603,W,2,09,1.16,157.5,M,-34.4,M,0000,0000*55
$GPRMC,145756.250,A,4308.3062,N,07726.2603,W,0.11,81.65,200818,,,D*48
$GPGGA,145756.500,4308.3062,N,07726.2603,W,2,09,1.17,157.5,M,-34.4,M,0000,0000*51
$GPRMC,145756.750,A,4308.3062,N,07726.2603,W,0.19,81.65,200818,,,D*45
$GPGGA,145757.000,4308.3062,N,07726.2604,W,2,09,1.17,157.5,M,-34.4,M,0000,0000*52
$GPRMC,145757.250,A,4308.3063,N,07726.2604,W,0.05,81.65,200818,,,D*4A
$GPGGA,145757.500,4308.3063,N,07726.2604,W,2,09,1.07,157.5,M,-34.4,M,0000,0000*57
$GPRMC,145757.750,A,4308.3063,N,07726.2604,W,0.10,81.65,200818,,,D*4B
$GPGGA,145758.000,4308.3063,N,07726.2604,W,2,09,1.16,157.5,M,-34.4,M,0000,0000*5D
$GPRMC,145758.250,A,4308.3063,N,07726.2603,W,0.20,20.16,200818,,,D*4A
$GPGGA,145758.500,4308.3063,N,07726.2603,W,2,09,1.08,157.5,M,-34.4,M,0000,0000*50
$GPRMC,145758.750,A,4308.3063,N,07726.2603,W,0.89,20.16,200818,,,D*4C
$GPGGA,145759.000,4308.3064,N,07726.2603,W,2,09,1.16,157.5,M,-34.4,M,0000,0000*5C
$GPRMC,145759.250,A,4308.3065,N,07726.2604,W,1.80,20.16,200818,,,D*41
$GPGGA,145759.500,4308.3066,N,07726.2604,W,2,09,1.17,157.5,M,-34.4,M,0000,0000*5D
$GPRMC,145759.750,A,4308.3070,N,07726.2607,W,3.11,339.04,200818,,,D*71
$GPGGA,145800.000,4308.3075,N,07726.2608,W,2,09,1.07,157.9,M,-34.4,M,0000,0000*58
$GPRMC,145800.250,A,4308.3078,N,07726.2609,W,4.36,343.11,200818,,,D*7A
$GPGGA,145800.500,4308.3085,N,07726.2606,W,2,09,1.16,158.1,M,-34.4,M,0000,0000*5B
$GPRMC,145800.750,A,4308.3091,N,07726.2605,W,5.45,351.61,200818,,,D*75
$GPGGA,145801.000,4308.3097,N,07726.2610,W,2,09,1.17,158.2,M,-34.4,M,0000,0000*59
$GPRMC,145801.250,A,4308.3104,N,07726.2616,W,5.56,353.74,200818,,,D*7A
$GPGGA,145801.500,4308.3114,N,07726.2620,W,2,09,1.17,158.5,M,-34.4,M,0000,0000*52
$GPRMC,145801.750,A,4308.3124,N,07726.2623,W,5.51,4.26,200818,,,D*7A
$GPGGA,145802.000,4308.3131,N,07726.2624,W,2,09,1.16,158.7,M,-34.4,M,0000,0000*54
$GPRMC,145802.250,A,4308.3138,N,07726.2624,W,5.21,8.62,200818,,,D*7D
$GPGGA,145802.500,4308.3145,N,07726.2622,W,2,09,1.17,158.8,M,-34.4,M,0000,0000*5A
$GPRMC,145802.750,A,4308.3152,N,07726.2620,W,4.83,14.61,200818,,,D*47
$GPGGA,145803.000,4308.3157,N,07726.2617,W,2,09,1.16,159.0,M,-34.4,M,0000,0000*53
$GPRMC,145803.250,A,4308.3162,N,07726.2615,W,4.64,20.02,200818,,,D*4D
$GPGGA,145803.500,4308.3166,N,07726.2613,W,2,09,1.08,159.0,M,-34.4,M,0000,0000*5F
$GPRMC,145803.750,A,4308.3169,N,07726.2611,W,4.54,26.42,200818,,,D*46
$GPGGA,145804.000,4308.3172,N,07726.2609,W,2,09,1.08,159.0,M,-34.4,M,0000,0000*53
$GPRMC,145804.250,A,4308.3174,N,07726.2606,W,4.49,36.79,200818,,,D*4B
$GPGGA,145804.500,4308.3175,N,07726.2603,W,2,09,1.16,158.9,M,-34.4,M,0000,0000*5C
$GPRMC,145804.750,A,4308.3176,N,07726.2600,W,4.26,45.56,200818,,,D*4A
$GPGGA,145805.000,4308.3176,N,07726.2597,W,2,09,1.16,158.8,M,-34.4,M,0000,0000*54
$GPRMC,145805.250,A,4308.3176,N,07726.2595,W,3.63,54.19,200818,,,D*4C
$GPGGA,145805.500,4308.3177,N,07726.2593,W,2,09,1.08,158.7,M,-34.4,M,0000,0000*54
$GPRMC,145805.750,A,4308.3177,N,07726.2590,W,3.32,59.45,200818,,,D*4D
$GPGGA,145806.000,4308.3178,N,07726.2587,W,2,09,1.08,158.8,M,-34.4,M,0000,0000*57
$GPRMC,145806.250,A,4308.3179,N,07726.2585,W,3.24,62.04,200818,,,D*4B
$GPGGA,145806.500,4308.3181,N,07726.2583,W,2,09,1.08,158.8,M,-34.4,M,0000,0000*50
$GPRMC,145806.750,A,4308.3181,N,07726.2581,W,2.89,61.49,200818,,,D*41
$GPGGA,145807.000,4308.3181,N,07726.2579,W,2,09,1.08,158.8,M,-34.4,M,0000,0000*51
$GPRMC,145807.250,A,4308.3180,N,07726.2578,W,2.03,70.19,200818,,,D*45
$GPGGA,145807.500,4308.3180,N,07726.2577,W,2,09,1.08,158.8,M,-34.4,M,0000,0000*5B
$GPRMC,145807.750,A,4308.3178,N,07726.2578,W,1.57,71.03,200818,,,D*4F
$GPGGA,145808.000,4308.3177,N,07726.2579,W,2,09,1.08,158.7,M,-34.4,M,0000,0000*58
$GPRMC,145808.250,A,4308.3176,N,07726.2580,W,1.13,70.34,200818,,,D*49
$GPGGA,145808.500,4308.3176,N,07726.2582,W,2,09,1.08,158.7,M,-34.4,M,0000,0000*58
$GPRMC,145808.750,A,4308.3176,N,07726.2584,W,0.59,53.53,200818,,,D*47
$GPGGA,145809.000,4308.3176,N,07726.2586,W,2,09,1.08,158.8,M,-34.4,M,0000,0000*57
$GPRMC,145809.250,A,4308.3178,N,07726.2590,W,0.43,53.53,200818,,,D*43
$GPGGA,145809.500,4308.3179,N,07726.2596,W,2,09,1.08,158.9,M,-34.4,M,0000,0000*5D
$GPRMC,145809.750,A,4308.3181,N,07726.2600,W,1.47,293.79,200818,,,D*79
$GPGGA,145810.000,4308.3182,N,07726.2605,W,2,09,1.08,159.0,M,-34.4,M,0000,0000*55
$GPRMC,145810.250,A,4308.3183,N,07726.2609,W,2.15,289.30,200818,,,D*7D
$GPGGA,145810.500,4308.3183,N,07726.2614,W,2,09,1.08,159.0,M,-34.4,M,0000,0000*51
$GPRMC,145810.750,A,4308.3183,N,07726.2619,W,2.99,284.04,200818,,,D*77
$GPGGA,145811.000,4308.3184,N,07726.2629,W,2,09,1.08,159.0,M,-34.4,M,0000,0000*5C
$GPRMC,145811.250,A,4308.3184,N,07726.2637,W,6.59,277.94,200818,,,D*75
$GPGGA,145811.500,4308.3185,N,07726.2646,W,2,09,1.08,158.9,M,-34.4,M,0000,0000*59
$GPRMC,145811.750,A,4308.3186,N,07726.2658,W,9.15,277.01,200818,,,D*70
$GPGGA,145812.000,4308.3187,N,07726.2669,W,2,09,1.08,159.0,M,-34.4,M,0000,0000*58
$GPRMC,145812.250,A,4308.3189,N,07726.2681,W,10.40,277.62,200818,,,D*40
$GPGGA,145812.500,4308.3190,N,07726.2693,W,2,09,1.08,159.1,M,-34.4,M,0000,0000*5F
$GPRMC,145812.750,A,4308.3191,N,07726.2705,W,11.18,279.15,200818,,,D*43
$GPGGA,145813.000,4308.3192,N,07726.2717,W,2,09,1.17,159.2,M,-34.4,M,0000,0000*59
$GPRMC,145813.250,A,4308.3194,N,07726.2728,W,11.41,279.80,200818,,,D*4D
$GPGGA,145813.500,4308.3195,N,07726.2739,W,2,09,1.08,159.3,M,-34.4,M,0000,0000*58
$GPRMC,145813.750,A,4308.3197,N,07726.2751,W,11.64,281.29,200818,,,D*46
$GPGGA,145814.000,4308.3198,N,07726.2762,W,2,09,1.17,159.3,M,-34.4,M,0000,0000*57
$GPRMC,145814.250,A,4308.3199,N,07726.2773,W,11.68,282.57,200818,,,D*4C
$GPGGA,145814.500,4308.3201,N,07726.2785,W,2,09,1.08,159.3,M,-34.4,M,0000,0000*56
$GPRMC,145814.750,A,4308.3203,N,07726.2797,W,12.11,285.35,200818,,,D*4D
$GPGGA,145815.000,4308.3204,N,07726.2809,W,2,09,1.08,159.4,M,-34.4,M,0000,0000*5B
$GPRMC,145815.250,A,4308.3206,N,07726.2821,W,12.21,284.83,200818,,,D*41
$GPGGA,145815.500,4308.3208,N,07726.2834,W,2,09,1.08,159.5,M,-34.4,M,0000,0000*5D
$GPRMC,145815.750,A,4308.3214,N,07726.2846,W,13.18,288.00,200818,,,D*4A
$GPGGA,145816.000,4308.3219,N,07726.2860,W,2,09,1.17,159.4,M,-34.4,M,0000,0000*55
$GPRMC,145816.250,A,4308.3227,N,07726.2876,W,14.19,291.92,200818,,,D*4A
$GPGGA,145816.500,4308.3234,N,07726.2893,W,2,08,1.28,159.5,M,-34.4,M,0000,0000*5F
$GPRMC,145816.750,A,4308.3241,N,07726.2909,W,16.35,299.53,200818,,,D*4F
$GPGGA,145817.000,4308.3247,N,07726.2925,W,2,08,1.28,159.6,M,-34.4,M,0000,0000*50
$GPRMC,145817.250,A,4308.3253,N,07726.2940,W,17.50,302.17,200818,,,D*44
$GPGGA,145817.500,4308.3259,N,07726.2956,W,2,08,1.28,159.6,M,-34.4,M,0000,0000*5E
$GPRMC,145817.750,A,4308.3265,N,07726.2973,W,19.29,303.30,200818,,,D*40
$GPGGA,145818.000,4308.3272,N,07726.2989,W,2,08,1.28,159.7,M,-34.4,M,0000,0000*5E
$GPRMC,145818.250,A,4308.3279,N,07726.3004,W,20.32,304.14,200818,,,D*4E
$GPGGA,145818.500,4308.3287,N,07726.3020,W,2,08,1.28,159.7,M,-34.4,M,0000,0000*5A
$GPRMC,145818.750,A,4308.3295,N,07726.3037,W,21.15,304.80,200818,,,D*40
$GPGGA,145819.000,4308.3304,N,07726.3053,W,2,09,1.08,159.9,M,-34.4,M,0000,0000*5D
$GPRMC,145819.250,A,4308.3314,N,07726.3068,W,21.20,305.54,200818,,,D*48
$GPGGA,145819.500,4308.3323,N,07726.3083,W,2,08,1.28,159.9,M,-34.4,M,0000,0000*53
$GPRMC,145819.750,A,4308.3332,N,07726.3099,W,21.17,305.55,200818,,,D*42
$GPGGA,145820.000,4308.3341,N,07726.3114,W,2,08,1.38,159.9,M,-34.4,M,0000,0000*56
$GPRMC,145820.250,A,4308.3350,N,07726.3130,W,21.15,305.75,200818,,,D*4B
$GPGGA,145820.500,4308.3359,N,07726.3146,W,2,08,1.28,159.9,M,-34.4,M,0000,0000*5C
$GPRMC,145820.750,A,4308.3368,N,07726.3162,W,21.38,305.15,200818,,,D*4B
$GPGGA,145821.000,4308.3376,N,07726.3178,W,2,08,1.28,159.8,M,-34.4,M,0000,0000*59
$GPRMC,145821.250,A,4308.3385,N,07726.3195,W,21.72,304.46,200818,,,D*4D
$GPGGA,145821.500,4308.3393,N,07726.3212,W,2,08,1.28,159.8,M,-34.4,M,0000,0000*58
$GPRMC,145821.750,A,4308.3401,N,07726.3229,W,22.07,304.19,200818,,,D*4C
$GPGGA,145822.000,4308.3409,N,07726.3247,W,2,09,1.08,159.8,M,-34.4,M,0000,0000*59
$GPRMC,145822.250,A,4308.3418,N,07726.3264,W,22.19,303.80,200818,,,D*43
$GPGGA,145822.500,4308.3426,N,07726.3283,W,2,09,1.08,159.9,M,-34.4,M,0000,0000*58
$GPRMC,145822.750,A,4308.3434,N,07726.3301,W,22.55,303.31,200818,,,D*48
$GPGGA,145823.000,4308.3442,N,07726.3319,W,2,08,1.28,160.0,M,-34.4,M,0000,0000*5C
$GPRMC,145823.250,A,4308.3451,N,07726.3338,W,22.67,303.03,200818,,,D*45
$GPGGA,145823.500,4308.3459,N,07726.3356,W,2,08,1.28,160.1,M,-34.4,M,0000,0000*59
$GPRMC,145823.750,A,4308.3468,N,07726.3375,W,22.88,302.65,200818,,,D*43
$GPGGA,145824.000,4308.3476,N,07726.3393,W,2,08,1.28,160.2,M,-34.4,M,0000,0000*5C
$GPRMC,145824.250,A,4308.3484,N,07726.3411,W,22.83,303.12,200818,,,D*4C
$GPGGA,145824.500,4308.3492,N,07726.3429,W,2,08,1.28,160.2,M,-34.4,M,0000,0000*55
$GPRMC,145824.750,A,4308.3501,N,07726.3446,W,22.58,303.01,200818,,,D*43
$GPGGA,145825.000,4308.3508,N,07726.3463,W,2,08,1.38,160.2,M,-34.4,M,0000,0000*5C
$GPRMC,145825.250,A,4308.3516,N,07726.3481,W,22.09,303.29,200818,,,D*44
$GPGGA,145825.500,4308.3525,N,07726.3498,W,2,08,1.28,160.2,M,-34.4,M,0000,0000*53
$GPRMC,145825.750,A,4308.3533,N,07726.3514,W,21.58,303.60,200818,,,D*41
$GPGGA,145826.000,4308.3541,N,07726.3531,W,2,09,1.17,160.2,M,-34.4,M,0000,0000*58
$GPRMC,145826.250,A,4308.3550,N,07726.3548,W,21.26,304.51,200818,,,D*47
$GPGGA,145826.500,4308.3558,N,07726.3563,W,2,08,1.28,160.2,M,-34.4,M,0000,0000*5F
$GPRMC,145826.750,A,4308.3567,N,07726.3579,W,20.31,308.11,200818,,,D*4B
$GPGGA,145827.000,4308.3576,N,07726.3594,W,2,08,1.38,160.4,M,-34.4,M,0000,0000*58
$GPRMC,145827.250,A,4308.3584,N,07726.3609,W,19.56,309.82,200818,,,D*46
$GPGGA,145827.500,4308.3592,N,07726.3623,W,2,09,1.17,160.6,M,-34.4,M,0000,0000*56
$GPRMC,145827.750,A,4308.3601,N,07726.3636,W,18.83,314.12,200818,,,D*4D
$GPGGA,145828.000,4308.3609,N,07726.3648,W,2,09,1.17,160.7,M,-34.4,M,0000,0000*51
$GPRMC,145828.250,A,4308.3618,N,07726.3660,W,18.37,316.64,200818,,,D*40
$GPGGA,145828.500,4308.3628,N,07726.3671,W,2,09,1.17,160.8,M,-34.4,M,0000,0000*52
$GPRMC,145828.750,A,4308.3637,N,07726.3682,W,18.15,319.69,200818,,,D*46
$GPGGA,145829.000,4308.3647,N,07726.3691,W,2,09,1.17,160.8,M,-34.4,M,0000,0000*51
$GPRMC,145829.250,A,4308.3657,N,07726.3700,W,17.88,323.65,200818,,,D*41
$GPGGA,145829.500,4308.3668,N,07726.3710,W,2,09,1.08,160.9,M,-34.4,M,0000,0000*5E
$GPRMC,145829.750,A,4308.3680,N,07726.3719,W,18.40,327.88,200818,,,D*4A
$GPGGA,145830.000,4308.3691,N,07726.3728,W,2,08,1.38,161.1,M,-34.4,M,0000,0000*55
$GPRMC,145830.250,A,4308.3703,N,07726.3736,W,18.68,331.80,200818,,,D*45
$GPGGA,145830.500,4308.3715,N,07726.3743,W,2,08,1.28,161.3,M,-34.4,M,0000,0000*53
$GPRMC,145830.750,A,4308.3727,N,07726.3750,W,18.83,335.34,200818,,,D*48
$GPGGA,145831.000,4308.3739,N,07726.3756,W,2,08,1.38,161.5,M,-34.4,M,0000,0000*5A
$GPRMC,145831.250,A,4308.3751,N,07726.3762,W,18.76,337.18,200818,,,D*4A
$GPGGA,145831.500,4308.3763,N,07726.3767,W,2,08,1.28,161.6,M,-34.4,M,0000,0000*50
$GPRMC,145831.750,A,4308.3777,N,07726.3771,W,19.02,342.66,200818,,,D*40
$GPGGA,145832.000,4308.3789,N,07726.3773,W,2,08,1.38,161.7,M,-34.4,M,0000,0000*57
$GPRMC,145832.250,A,4308.3802,N,07726.3776,W,19.08,346.93,200818,,,D*48
$GPGGA,145832.500,4308.3815,N,07726.3779,W,2,09,1.17,161.7,M,-34.4,M,0000,0000*5E
$GPRMC,145832.750,A,4308.3828,N,07726.3783,W,19.04,347.28,200818,,,D*42
$GPGGA,145833.000,4308.3840,N,07726.3786,W,2,09,1.17,161.8,M,-34.4,M,0000,0000*55
$GPRMC,145833.250,A,4308.3854,N,07726.3787,W,19.28,351.05,200818,,,D*4F
$GPGGA,145833.500,4308.3868,N,07726.3787,W,2,09,1.17,161.9,M,-34.4,M,0000,0000*5A
$GPRMC,145833.750,A,4308.3881,N,07726.3786,W,19.41,356.54,200818,,,D*4F
$GPGGA,145834.000,4308.3895,N,07726.3785,W,2,09,1.17,161.9,M,-34.4,M,0000,0000*58
$GPRMC,145834.250,A,4308.3910,N,07726.3784,W,19.95,0.65,200818,,,D*4D
$GPGGA,145834.500,4308.3925,N,07726.3781,W,2,09,1.17,162.0,M,-34.4,M,0000,0000*59
$GPRMC,145834.750,A,4308.3940,N,07726.3778,W,20.74,6.16,200818,,,D*49
$GPGGA,145835.000,4308.3955,N,07726.3774,W,2,09,1.17,162.1,M,-34.4,M,0000,0000*51
$GPRMC,145835.250,A,4308.3970,N,07726.3770,W,20.98,8.32,200818,,,D*4C
$GPGGA,145835.500,4308.3985,N,07726.3765,W,2,09,1.17,162.2,M,-34.4,M,0000,0000*5A
$GPRMC,145835.750,A,4308.4000,N,07726.3761,W,21.20,10.12,200818,,,D*79
$GPGGA,145836.000,4308.4015,N,07726.3757,W,2,09,1.17,162.3,M,-34.4,M,0000,0000*5B
$GPRMC,145836.250,A,4308.4029,N,07726.3753,W,21.30,10.60,200818,,,D*71
$GPGGA,145836.500,4308.4044,N,07726.3748,W,2,09,1.17,162.5,M,-34.4,M,0000,0000*52
$GPRMC,145836.750,A,4308.4059,N,07726.3744,W,21.24,10.09,200818,,,D*7F
$GPGGA,145837.000,4308.4074,N,07726.3739,W,2,09,1.17,162.7,M,-34.4,M,0000,0000*51
$GPRMC,145837.250,A,4308.4089,N,07726.3734,W,21.08,9.65,200818,,,D*4D
$GPGGA,145837.500,4308.4104,N,07726.3730,W,2,09,1.17,162.8,M,-34.4,M,0000,0000*54
$GPRMC,145837.750,A,4308.4119,N,07726.3725,W,20.85,9.37,200818,,,D*43
$GPGGA,145838.000,4308.4133,N,07726.3721,W,2,09,1.17,163.0,M,-34.4,M,0000,0000*53
$GPRMC,145838.250,A,4308.4147,N,07726.3717,W,20.44,9.07,200818,,,D*4D
$GPGGA,145838.500,4308.4161,N,07726.3713,W,2,09,1.17,163.2,M,-34.4,M,0000,0000*52
$GPRMC,145838.750,A,4308.4174,N,07726.3709,W,19.87,8.68,200818,,,D*4A
$GPGGA,145839.000,4308.4188,N,07726.3705,W,2,09,1.17,163.3,M,-34.4,M,0000,0000*57
$GPRMC,145839.250,A,4308.4202,N,07726.3701,W,19.79,8.81,200818,,,D*42
$GPGGA,145839.500,4308.4215,N,07726.3697,W,2,09,1.17,163.3,M,-34.4,M,0000,0000*5F
$GPRMC,145839.750,A,4308.4228,N,07726.3693,W,19.50,9.05,200818,,,D*43
$GPGGA,145840.000,4308.4241,N,07726.3690,W,2,09,1.17,163.3,M,-34.4,M,0000,0000*52
$GPRMC,145840.250,A,4308.4254,N,07726.3687,W,18.68,9.01,200818,,,D*48
$GPGGA,145840.500,4308.4266,N,07726.3683,W,2,09,1.17,163.4,M,-34.4,M,0000,0000*57
$GPRMC,145840.750,A,4308.4279,N,07726.3680,W,18.27,9.07,200818,,,D*48
$GPGGA,145841.000,4308.4291,N,07726.3677,W,2,09,1.17,163.6,M,-34.4,M,0000,0000*52
$GPRMC,145841.250,A,4308.4303,N,07726.3674,W,17.79,9.52,200818,,,D*4F
$GPGGA,145841.500,4308.4315,N,07726.3671,W,2,09,1.17,163.6,M,-34.4,M,0000,0000*5C
$GPRMC,145841.750,A,4308.4327,N,07726.3667,W,17.51,9.39,200818,,,D*49
$GPGGA,145842.000,4308.4339,N,07726.3664,W,2,09,1.17,164.1,M,-34.4,M,0000,0000*50
$GPRMC,145842.250,A,4308.4351,N,07726.3659,W,17.44,11.16,200818,,,D*73
$GPGGA,145842.500,4308.4362,N,07726.3654,W,2,09,1.17,164.3,M,-34.4,M,0000,0000*5A
$GPRMC,145842.750,A,4308.4374,N,07726.3649,W,16.95,10.05,200818,,,D*7E
$GPGGA,145843.000,4308.4386,N,07726.3644,W,2,09,1.17,164.5,M,-34.4,M,0000,0000*53
$GPRMC,145843.250,A,4308.4399,N,07726.3640,W,16.95,9.08,200818,,,D*45
$GPGGA,145843.500,4308.4410,N,07726.3636,W,2,09,1.17,164.7,M,-34.4,M,0000,0000*59
$GPRMC,145843.750,A,4308.4422,N,07726.3632,W,16.32,10.88,200818,,,D*7F
$GPGGA,145844.000,4308.4433,N,07726.3629,W,2,09,1.17,164.9,M,-34.4,M,0000,0000*5A
$GPRMC,145844.250,A,4308.4444,N,07726.3626,W,15.97,10.66,200818,,,D*74
$GPGGA,145844.500,4308.4455,N,07726.3623,W,2,09,1.17,165.2,M,-34.4,M,0000,0000*5F
$GPRMC,145844.750,A,4308.4466,N,07726.3618,W,15.33,10.36,200818,,,D*77
$GPGGA,145845.000,4308.4477,N,07726.3614,W,2,09,1.17,165.4,M,-34.4,M,0000,0000*59
$GPRMC,145845.250,A,4308.4487,N,07726.3612,W,15.01,10.10,200818,,,D*73
$GPGGA,145845.500,4308.4497,N,07726.3610,W,2,09,1.17,165.6,M,-34.4,M,0000,0000*54
$GPRMC,145845.750,A,4308.4506,N,07726.3607,W,13.93,7.95,200818,,,D*4C
$GPGGA,145846.000,4308.4515,N,07726.3605,W,2,09,1.17,165.8,M,-34.4,M,0000,0000*53
$GPRMC,145846.250,A,4308.4523,N,07726.3602,W,11.62,9.08,200818,,,D*4E
$GPGGA,145846.500,4308.4530,N,07726.3599,W,2,09,1.17,166.0,M,-34.4,M,0000,0000*5C
$GPRMC,145846.750,A,4308.4537,N,07726.3597,W,9.52,8.69,200818,,,D*7D
$GPGGA,145847.000,4308.4544,N,07726.3596,W,2,09,1.17,165.6,M,-34.4,M,0000,0000*51
$GPRMC,145847.250,A,4308.4549,N,07726.3594,W,7.72,10.52,200818,,,D*4E
$GPGGA,145847.500,4308.4554,N,07726.3592,W,2,09,1.17,165.5,M,-34.4,M,0000,0000*52
$GPRMC,145847.750,A,4308.4559,N,07726.3590,W,6.57,14.30,200818,,,D*48
$GPGGA,145848.000,4308.4563,N,07726.3588,W,2,09,1.17,166.1,M,-34.4,M,0000,0000*50
$GPRMC,145848.250,A,4308.4567,N,07726.3586,W,4.91,16.40,200818,,,D*45
$GPGGA,145848.500,4308.4570,N,07726.3585,W,2,09,1.17,166.5,M,-34.4,M,0000,0000*5E
$GPRMC,145848.750,A,4308.4572,N,07726.3584,W,2.78,18.84,200818,,,D*41
$GPGGA,145849.000,4308.4573,N,07726.3583,W,2,09,1.08,166.8,M,-34.4,M,0000,0000*5C
$GPRMC,145849.250,A,4308.4573,N,07726.3582,W,0.09,18.84,200818,,,D*46
$GPGGA,145849.500,4308.4573,N,07726.3582,W,2,09,1.08,166.9,M,-34.4,M,0000,0000*59
$GPRMC,145849.750,A,4308.4574,N,07726.3582,W,0.03,18.84,200818,,,D*4E
$GPGGA,145850.000,4308.4574,N,07726.3582,W,2,09,1.08,165.7,M,-34.4,M,0000,0000*5E
$GPRMC,145850.250,A,4308.4574,N,07726.3582,W,0.00,18.84,200818,,,D*40
$GPGGA,145850.500,4308.4575,N,07726.3582,W,2,09,1.08,165.4,M,-34.4,M,0000,0000*59
$GPRMC,145850.750,A,4308.4575,N,07726.3582,W,0.01,18.84,200818,,,D*45
$GPGGA,145851.000,4308.4575,N,07726.3581,W,2,09,1.08,165.2,M,-34.4,M,0000,0000*58
$GPRMC,145851.250,A,4308.4576,N,07726.3581,W,0.00,18.84,200818,,,D*40
$GPGGA,145851.500,4308.4576,N,07726.3581,W,2,09,1.08,165.0,M,-34.4,M,0000,0000*5C
$GPRMC,145851.750,A,4308.4576,N,07726.3580,W,0.00,18.84,200818,,,D*44
$GPGGA,145852.000,4308.4575,N,07726.3580,W,2,09,1.08,164.9,M,-34.4,M,0000,0000*50
$GPRMC,145852.250,A,4308.4575,N,07726.3579,W,0.01,18.84,200818,,,D*46
$GPGGA,145852.500,4308.4575,N,07726.3579,W,2,09,1.08,164.8,M,-34.4,M,0000,0000*52
$GPRMC,145852.750,A,4308.4575,N,07726.3579,W,0.01,18.84,200818,,,D*43
$GPGGA,145853.000,4308.4575,N,07726.3579,W,2,09,1.08,164.8,M,-34.4,M,0000,0000*56
$GPRMC,145853.250,A,4308.4575,N,07726.3578,W,0.01,18.84,200818,,,D*46
$GPGGA,145853.500,4308.4575,N,07726.3578,W,2,09,1.17,164.9,M,-34.4,M,0000,0000*5D
$GPRMC,145853.750,A,4308.4575,N,07726.3578,W,0.01,18.84,200818,,,D*43
$GPGGA,145854.000,4308.4575,N,07726.3578,W,2,09,1.08,164.9,M,-34.4,M,0000,0000*51
$GPRMC,145854.250,A,4308.4575,N,07726.3578,W,0.00,18.84,200818,,,D*40
$GPGGA,145854.500,4308.4575,N,07726.3578,W,2,09,1.08,164.9,M,-34.4,M,0000,0000*54
$GPRMC,145854.750,A,4308.4575,N,07726.3578,W,0.00,18.84,200818,,,D*45
$GPGGA,145855.000,4308.4575,N,07726.3578,W,2,09,1.08,164.9,M,-34.4,M,0000,0000*50
$GPRMC,145855.250,A,4308.4575,N,07726.3578,W,0.04,18.84,200818,,,D*45
$GPGGA,145855.500,4308.4574,N,07726.3578,W,2,09,1.08,164.9,M,-34.4,M,0000,0000*54
$GPRMC,145855.750,A,4308.4574,N,07726.3578,W,0.04,18.84,200818,,,D*41
$GPGGA,145856.000,4308.4574,N,07726.3578,W,2,09,1.08,164.9,M,-34.4,M,0000,0000*52
$GPRMC,145856.250,A,4308.4574,N,07726.3578,W,0.04,18.84,200818,,,D*47
$GPGGA,145856.500,4308.4574,N,07726.3578,W,2,09,1.17,164.9,M,-34.4,M,0000,0000*59
$GPRMC,145856.750,A,4308.4575,N,07726.3578,W,0.29,18.84,200818,,,D*4C
$GPGGA,145857.000,4308.4578,N,07726.3578,W,2,09,1.17,164.9,M,-34.4,M,0000,0000*51
$GPRMC,145857.250,A,4308.4580,N,07726.3577,W,5.04,356.32,200818,,,D*73
$GPGGA,145857.500,4308.4583,N,07726.3578,W,2,09,1.17,164.8,M,-34.4,M,0000,0000*51
$GPRMC,145857.750,A,4308.4587,N,07726.3579,W,6.21,347.31,200818,,,D*78
$GPGGA,145858.000,4308.4591,N,07726.3580,W,2,09,1.17,164.8,M,-34.4,M,0000,0000*5F
$GPRMC,145858.250,A,4308.4595,N,07726.3582,W,7.48,341.35,200818,,,D*79
$GPGGA,145858.500,4308.4600,N,07726.3585,W,2,09,1.17,164.8,M,-34.4,M,0000,0000*54
$GPRMC,145858.750,A,4308.4605,N,07726.3590,W,8.33,327.85,200818,,,D*7D
$GPGGA,145859.000,4308.4611,N,07726.3596,W,2,09,1.17,164.7,M,-34.4,M,0000,0000*5D
$GPRMC,145859.250,A,4308.4615,N,07726.3602,W,9.14,319.52,200818,,,D*73
$GPGGA,145859.500,4308.4620,N,07726.3609,W,2,09,1.17,164.6,M,-34.4,M,0000,0000*5E
$GPRMC,145859.750,A,4308.4624,N,07726.3617,W,9.12,308.42,200818,,,D*77
$GPGGA,145900.000,4308.4628,N,07726.3626,W,2,09,1.17,164.7,M,-34.4,M,0000,0000*52
$GPRMC,145900.250,A,4308.4632,N,07726.3635,W,9.52,299.26,200818,,,D*77
$GPGGA,145900.500,4308.4635,N,07726.3645,W,2,09,1.17,164.6,M,-34.4,M,0000,0000*5F
$GPRMC,145900.750,A,4308.4638,N,07726.3655,W,9.80,290.85,200818,,,D*71
$GPGGA,145901.000,4308.4640,N,07726.3667,W,2,09,1.17,164.5,M,-34.4,M,0000,0000*5A
$GPRMC,145901.250,A,4308.4643,N,07726.3680,W,10.96,284.89,200818,,,D*47
$GPGGA,145901.500,4308.4646,N,07726.3694,W,2,09,1.17,164.3,M,-34.4,M,0000,0000*53
$GPRMC,145901.750,A,4308.4648,N,07726.3707,W,11.98,281.72,200818,,,D*49
$GPGGA,145902.000,4308.4650,N,07726.3721,W,2,09,1.17,164.0,M,-34.4,M,0000,0000*5E
$GPRMC,145902.250,A,4308.4651,N,07726.3735,W,12.84,277.84,200818,,,D*48
$GPGGA,145902.500,4308.4652,N,07726.3751,W,2,09,1.17,163.8,M,-34.4,M,0000,0000*51
$GPRMC,145902.750,A,4308.4654,N,07726.3767,W,13.93,275.57,200818,,,D*44
$GPGGA,145903.000,4308.4655,N,07726.3783,W,2,09,1.17,163.7,M,-34.4,M,0000,0000*52
$GPRMC,145903.250,A,4308.4657,N,07726.3799,W,14.42,274.97,200818,,,D*44
$GPGGA,145903.500,4308.4658,N,07726.3814,W,2,09,1.17,163.5,M,-34.4,M,0000,0000*59
$GPRMC,145903.750,A,4308.4660,N,07726.3830,W,14.77,274.78,200818,,,D*4E
$GPGGA,145904.000,4308.4661,N,07726.3846,W,2,09,1.17,163.3,M,-34.4,M,0000,0000*50
$GPRMC,145904.250,A,4308.4663,N,07726.3861,W,15.01,275.45,200818,,,D*44
$GPGGA,145904.500,4308.4664,N,07726.3877,W,2,09,1.17,163.2,M,-34.4,M,0000,0000*53
$GPRMC,145904.750,A,4308.4666,N,07726.3893,W,15.38,275.73,200818,,,D*46
$GPGGA,145905.000,4308.4668,N,07726.3911,W,2,09,1.17,163.0,M,-34.4,M,0000,0000*58
$GPRMC,145905.250,A,4308.4669,N,07726.3930,W,15.49,276.09,200818,,,D*4D
$GPGGA,145905.500,4308.4671,N,07726.3948,W,2,09,1.17,162.8,M,-34.4,M,0000,0000*50
$GPRMC,145905.750,A,4308.4673,N,07726.3964,W,15.87,276.96,200818,,,D*46
$GPGGA,145906.000,4308.4675,N,07726.3981,W,2,09,1.17,162.7,M,-34.4,M,0000,0000*58
$GPRMC,145906.250,A,4308.4678,N,07726.3997,W,15.94,277.30,200818,,,D*48
$GPGGA,145906.500,4308.4680,N,07726.4014,W,2,09,1.17,162.6,M,-34.4,M,0000,0000*54
$GPRMC,145906.750,A,4308.4681,N,07726.4030,W,15.96,277.44,200818,,,D*49
$GPGGA,145907.000,4308.4683,N,07726.4047,W,2,09,1.17,162.5,M,-34.4,M,0000,0000*56
$GPRMC,145907.250,A,4308.4684,N,07726.4064,W,16.22,277.97,200818,,,D*4B
$GPGGA,145907.500,4308.4686,N,07726.4080,W,2,09,1.17,162.3,M,-34.4,M,0000,0000*5B
$GPRMC,145907.750,A,4308.4687,N,07726.4096,W,16.41,277.95,200818,,,D*47
$GPGGA,145908.000,4308.4688,N,07726.4112,W,2,09,1.17,162.1,M,-34.4,M,0000,0000*57
$GPRMC,145908.250,A,4308.4690,N,07726.4128,W,16.73,276.90,200818,,,D*4A
$GPGGA,145908.500,4308.4691,N,07726.4144,W,2,09,1.17,162.0,M,-34.4,M,0000,0000*58
$GPRMC,145908.750,A,4308.4693,N,07726.4160,W,16.66,276.79,200818,,,D*43
$GPGGA,145909.000,4308.4695,N,07726.4176,W,2,09,1.17,161.9,M,-34.4,M,0000,0000*53
$GPRMC,145909.250,A,4308.4696,N,07726.4192,W,16.44,276.73,200818,,,D*45
$GPGGA,145909.500,4308.4698,N,07726.4207,W,2,09,1.17,161.8,M,-34.4,M,0000,0000*5F
$GPRMC,145909.750,A,4308.4699,N,07726.4223,W,16.39,276.55,200818,,,D*48
$GPGGA,145910.000,4308.4700,N,07726.4239,W,2,09,1.17,161.8,M,-34.4,M,0000,0000*5F
$GPRMC,145910.250,A,4308.4702,N,07726.4254,W,15.89,277.12,200818,,,D*4C
$GPGGA,145910.500,4308.4703,N,07726.4270,W,2,09,1.17,161.7,M,-34.4,M,0000,0000*5B
$GPRMC,145910.750,A,4308.4704,N,07726.4284,W,14.62,277.91,200818,,,D*4D
$GPGGA,145911.000,4308.4705,N,07726.4297,W,2,09,1.17,161.6,M,-34.4,M,0000,0000*51
$GPRMC,145911.250,A,4308.4706,N,07726.4309,W,12.84,279.01,200818,,,D*46
$GPGGA,145911.500,4308.4707,N,07726.4320,W,2,09,1.17,161.5,M,-34.4,M,0000,0000*58
$GPRMC,145911.750,A,4308.4708,N,07726.4330,W,10.18,281.24,200818,,,D*40
$GPGGA,145912.000,4308.4710,N,07726.4338,W,2,09,1.17,161.5,M,-34.4,M,0000,0000*51
$GPRMC,145912.250,A,4308.4711,N,07726.4346,W,7.87,282.95,200818,,,D*76
$GPGGA,145912.500,4308.4712,N,07726.4352,W,2,09,1.17,161.6,M,-34.4,M,0000,0000*59
$GPRMC,145912.750,A,4308.4714,N,07726.4357,W,5.68,283.70,200818,,,D*7F
$GPGGA,145913.000,4308.4716,N,07726.4361,W,2,09,1.17,161.7,M,-34.4,M,0000,0000*58
$GPRMC,145913.250,A,4308.4716,N,07726.4365,W,4.60,283.73,200818,,,D*72
$GPGGA,145913.500,4308.4716,N,07726.4369,W,2,09,1.17,161.7,M,-34.4,M,0000,0000*55
$GPRMC,145913.750,A,4308.4716,N,07726.4371,W,3.35,284.61,200818,,,D*71
$GPGGA,145914.000,4308.4715,N,07726.4374,W,2,09,1.08,161.8,M,-34.4,M,0000,0000*59
$GPRMC,145914.250,A,4308.4715,N,07726.4377,W,2.48,284.61,200818,,,D*7D
$GPGGA,145914.500,4308.4715,N,07726.4379,W,2,08,1.28,161.7,M,-34.4,M,0000,0000*5D
$GPRMC,145914.750,A,4308.4714,N,07726.4381,W,1.91,284.61,200818,,,D*77
$GPGGA,145915.000,4308.4715,N,07726.4383,W,2,09,1.08,161.7,M,-34.4,M,0000,0000*5F
$GPRMC,145915.250,A,4308.4715,N,07726.4386,W,1.65,284.61,200818,,,D*7E
$GPGGA,145915.500,4308.4715,N,07726.4388,W,2,09,1.08,161.7,M,-34.4,M,0000,0000*51
$GPRMC,145915.750,A,4308.4715,N,07726.4390,W,1.32,284.61,200818,,,D*7E
$GPGGA,145916.000,4308.4714,N,07726.4392,W,2,09,1.08,161.7,M,-34.4,M,0000,0000*5D
$GPRMC,145916.250,A,4308.4715,N,07726.4394,W,1.53,284.61,200818,,,D*7B
$GPGGA,145916.500,4308.4715,N,07726.4396,W,2,09,1.08,161.6,M,-34.4,M,0000,0000*5C
$GPRMC,145916.750,A,4308.4715,N,07726.4399,W,2.00,284.61,200818,,,D*76
$GPGGA,145917.000,4308.4715,N,07726.4402,W,2,09,1.08,161.5,M,-34.4,M,0000,0000*51
$GPRMC,145917.250,A,4308.4715,N,07726.4405,W,3.05,278.17,200818,,,D*76
$GPGGA,145917.500,4308.4716,N,07726.4409,W,2,09,1.08,161.4,M,-34.4,M,0000,0000*5D
$GPRMC,145917.750,A,4308.4717,N,07726.4414,W,4.57,279.32,200818,,,D*77
$GPGGA,145918.000,4308.4718,N,07726.4419,W,2,09,1.17,161.4,M,-34.4,M,0000,0000*56
$GPRMC,145918.250,A,4308.4718,N,07726.4425,W,6.03,277.73,200818,,,D*78
$GPGGA,145918.500,4308.4719,N,07726.4433,W,2,09,1.17,161.4,M,-34.4,M,0000,0000*5A
$GPRMC,145918.750,A,4308.4719,N,07726.4441,W,7.97,270.50,200818,,,D*74
$GPGGA,145919.000,4308.4719,N,07726.4451,W,2,09,1.17,161.4,M,-34.4,M,0000,0000*5A
$GPRMC,145919.250,A,4308.4719,N,07726.4460,W,9.25,270.13,200818,,,D*73
$GPGGA,145919.500,4308.4719,N,07726.4470,W,2,09,1.17,161.3,M,-34.4,M,0000,0000*5B
$GPRMC,145919.750,A,4308.4718,N,07726.4480,W,10.30,267.98,200818,,,D*40
$GPGGA,145920.000,4308.4717,N,07726.4491,W,2,09,1.17,161.3,M,-34.4,M,0000,0000*55
$GPRMC,145920.250,A,4308.4715,N,07726.4502,W,10.88,261.62,200818,,,D*49
$GPGGA,145920.500,4308.4712,N,07726.4518,W,2,08,1.22,161.2,M,-34.4,M,0000,0000*53
$GPRMC,145920.750,A,4308.4709,N,07726.4533,W,10.61,251.67,200818,,,D*42
$GPGGA,145921.000,4308.4706,N,07726.4545,W,2,08,1.22,161.1,M,-34.4,M,0000,0000*59
$GPRMC,145921.250,A,4308.4703,N,07726.4555,W,10.86,245.90,200818,,,D*48
$GPGGA,145921.500,4308.4699,N,07726.4565,W,2,09,1.17,161.1,M,-34.4,M,0000,0000*5E
$GPRMC,145921.750,A,4308.4696,N,07726.4573,W,10.87,242.09,200818,,,D*42
$GPGGA,145922.000,4308.4692,N,07726.4581,W,2,09,1.17,161.0,M,-34.4,M,0000,0000*58
$GPRMC,145922.250,A,4308.4688,N,07726.4590,W,11.36,234.87,200818,,,D*4A
$GPGGA,145922.500,4308.4681,N,07726.4597,W,2,09,1.17,160.9,M,-34.4,M,0000,0000*50
$GPRMC,145922.750,A,4308.4674,N,07726.4605,W,12.06,225.33,200818,,,D*4C
$GPGGA,145923.000,4308.4666,N,07726.4612,W,2,09,1.17,160.8,M,-34.4,M,0000,0000*52
$GPRMC,145923.250,A,4308.4658,N,07726.4619,W,13.38,216.61,200818,,,D*40
$GPGGA,145923.500,4308.4649,N,07726.4626,W,2,09,1.17,160.9,M,-34.4,M,0000,0000*5C
$GPRMC,145923.750,A,4308.4639,N,07726.4632,W,14.44,212.36,200818,,,D*41
$GPGGA,145924.000,4308.4630,N,07726.4639,W,2,09,1.17,161.0,M,-34.4,M,0000,0000*56
$GPRMC,145924.250,A,4308.4620,N,07726.4645,W,15.11,209.60,200818,,,D*43
$GPGGA,145924.500,4308.4610,N,07726.4651,W,2,09,1.17,161.0,M,-34.4,M,0000,0000*5F
$GPRMC,145924.750,A,4308.4599,N,07726.4656,W,15.77,206.30,200818,,,D*4F
$GPGGA,145925.000,4308.4587,N,07726.4662,W,2,09,1.17,161.0,M,-34.4,M,0000,0000*56
$GPRMC,145925.250,A,4308.4576,N,07726.4668,W,16.51,204.59,200818,,,D*4D
$GPGGA,145925.500,4308.4564,N,07726.4673,W,2,09,1.17,161.1,M,-34.4,M,0000,0000*5F
$GPRMC,145925.750,A,4308.4551,N,07726.4677,W,17.52,202.11,200818,,,D*4B
$GPGGA,145926.000,4308.4537,N,07726.4682,W,2,09,1.17,161.1,M,-34.4,M,0000,0000*51
$GPRMC,145926.250,A,4308.4524,N,07726.4687,W,18.56,200.71,200818,,,D*4F
$GPGGA,145926.500,4308.4509,N,07726.4692,W,2,09,1.17,161.2,M,-34.4,M,0000,0000*5B
$GPRMC,145926.750,A,4308.4495,N,07726.4698,W,19.24,199.89,200818,,,D*4F
$GPGGA,145927.000,4308.4481,N,07726.4704,W,2,09,1.17,161.3,M,-34.4,M,0000,0000*51
$GPRMC,145927.250,A,4308.4467,N,07726.4710,W,19.66,199.84,200818,,,D*4C
$GPGGA,145927.500,4308.4453,N,07726.4716,W,2,09,1.17,161.4,M,-34.4,M,0000,0000*5F
$GPRMC,145927.750,A,4308.4438,N,07726.4722,W,20.26,200.04,200818,,,D*47
$GPGGA,145928.000,4308.4423,N,07726.4729,W,2,09,1.08,161.5,M,-34.4,M,0000,0000*51
$GPRMC,145928.250,A,4308.4409,N,07726.4736,W,20.98,200.45,200818,,,D*4A
$GPGGA,145928.500,4308.4394,N,07726.4743,W,2,09,1.17,161.5,M,-34.4,M,0000,0000*5D
$GPRMC,145928.750,A,4308.4379,N,07726.4750,W,21.78,200.65,200818,,,D*42
$GPGGA,145929.000,4308.4363,N,07726.4757,W,2,09,1.17,161.6,M,-34.4,M,0000,0000*57
$GPRMC,145929.250,A,4308.4348,N,07726.4764,W,22.14,200.32,200818,,,D*48
$GPGGA,145929.500,4308.4332,N,07726.4771,W,2,09,1.17,161.7,M,-34.4,M,0000,0000*53
$GPRMC,145929.750,A,4308.4315,N,07726.4778,W,23.01,199.62,200818,,,D*4B
$GPGGA,145930.000,4308.4298,N,07726.4784,W,2,09,1.17,161.8,M,-34.4,M,0000,0000*5A
$GPRMC,145930.250,A,4308.4282,N,07726.4791,W,23.73,198.89,200818,,,D*4F
$GPGGA,145930.500,4308.4264,N,07726.4798,W,2,09,1.17,161.8,M,-34.4,M,0000,0000*51
$GPRMC,145930.750,A,4308.4246,N,07726.4805,W,24.82,198.84,200818,,,D*44
$GPGGA,145931.000,4308.4227,N,07726.4813,W,2,09,1.17,161.9,M,-34.4,M,0000,0000*5F
$GPRMC,145931.250,A,4308.4209,N,07726.4821,W,25.79,198.92,200818,,,D*4F
$GPGGA,145931.500,4308.4191,N,07726.4829,W,2,09,1.08,162.0,M,-34.4,M,0000,0000*59
$GPRMC,145931.750,A,4308.4171,N,07726.4837,W,27.39,199.53,200818,,,D*4B
$GPGGA,145932.000,4308.4150,N,07726.4846,W,2,09,1.17,162.1,M,-34.4,M,0000,0000*54
$GPRMC,145932.250,A,4308.4131,N,07726.4855,W,28.73,200.23,200818,,,D*48
$GPGGA,145932.500,4308.4110,N,07726.4864,W,2,09,1.17,162.2,M,-34.4,M,0000,0000*56
$GPRMC,145932.750,A,4308.4090,N,07726.4872,W,29.27,199.31,200818,,,D*42
$GPGGA,145933.000,4308.4069,N,07726.4881,W,2,09,1.17,162.2,M,-34.4,M,0000,0000*56
$GPRMC,145933.250,A,4308.4049,N,07726.4890,W,29.78,198.25,200818,,,D*40
$GPGGA,145933.500,4308.4027,N,07726.4898,W,2,09,1.17,162.2,M,-34.4,M,0000,0000*51
$GPRMC,145933.750,A,4308.4005,N,07726.4907,W,30.77,197.06,200818,,,D*4B
$GPGGA,145934.000,4308.3983,N,07726.4915,W,2,09,1.17,162.2,M,-34.4,M,0000,0000*57
$GPRMC,145934.250,A,4308.3961,N,07726.4923,W,31.05,196.14,200818,,,D*45
$GPGGA,145934.500,4308.3937,N,07726.4930,W,2,09,1.08,162.3,M,-34.4,M,0000,0000*55
$GPRMC,145934.750,A,4308.3913,N,07726.4938,W,32.20,195.35,200818,,,D*4B
$GPGGA,145935.000,4308.3888,N,07726.4946,W,2,08,1.20,162.4,M,-34.4,M,0000,0000*59
$GPRMC,145935.250,A,4308.3864,N,07726.4953,W,32.65,194.00,200818,,,D*45
$GPGGA,145935.500,4308.3840,N,07726.4960,W,2,08,1.20,162.6,M,-34.4,M,0000,0000*5E
$GPRMC,145935.750,A,4308.3816,N,07726.4967,W,32.82,193.06,200818,,,D*4A
$GPGGA,145936.000,4308.3792,N,07726.4974,W,2,08,1.21,162.8,M,-34.4,M,0000,0000*52
$GPRMC,145936.250,A,4308.3769,N,07726.4980,W,32.76,192.09,200818,,,D*47
$GPGGA,145936.500,4308.3744,N,07726.4987,W,2,08,1.20,163.0,M,-34.4,M,0000,0000*58
$GPRMC,145936.750,A,4308.3721,N,07726.4993,W,32.64,190.86,200818,,,D*4A
$GPGGA,145937.000,4308.3697,N,07726.4999,W,2,08,1.20,163.1,M,-34.4,M,0000,0000*5D
$GPRMC,145937.250,A,4308.3674,N,07726.5005,W,32.35,190.01,200818,,,D*43
$GPGGA,145937.500,4308.3651,N,07726.5011,W,2,08,1.20,163.2,M,-34.4,M,0000,0000*59
$GPRMC,145937.750,A,4308.3628,N,07726.5017,W,31.73,189.05,200818,,,D*41
$GPGGA,145938.000,4308.3605,N,07726.5021,W,2,08,1.21,163.4,M,-34.4,M,0000,0000*56
$GPRMC,145938.250,A,4308.3582,N,07726.5026,W,31.65,188.49,200818,,,D*44
$GPGGA,145938.500,4308.3559,N,07726.5031,W,2,09,1.17,163.4,M,-34.4,M,0000,0000*5C
$GPRMC,145938.750,A,4308.3536,N,07726.5035,W,31.70,187.83,200818,,,D*41
$GPGGA,145939.000,4308.3514,N,07726.5039,W,2,09,1.17,163.6,M,-34.4,M,0000,0000*5B
$GPRMC,145939.250,A,4308.3491,N,07726.5043,W,31.93,186.83,200818,,,D*44
$GPGGA,145939.500,4308.3467,N,07726.5047,W,2,08,1.20,163.7,M,-34.4,M,0000,0000*56
$GPRMC,145939.750,A,4308.3444,N,07726.5050,W,32.47,185.56,200818,,,D*4A
$GPGGA,145940.000,4308.3421,N,07726.5053,W,2,09,1.17,163.7,M,-34.4,M,0000,0000*5F
$GPRMC,145940.250,A,4308.3397,N,07726.5056,W,32.56,185.75,200818,,,D*4F
$GPGGA,145940.500,4308.3373,N,07726.5060,W,2,09,1.17,163.8,M,-34.4,M,0000,0000*55
$GPRMC,145940.750,A,4308.3350,N,07726.5063,W,32.79,186.10,200818,,,D*4A
$GPGGA,145941.000,4308.3326,N,07726.5067,W,2,09,1.17,163.9,M,-34.4,M,0000,0000*57
$GPRMC,145941.250,A,4308.3302,N,07726.5071,W,32.96,186.20,200818,,,D*48
$GPGGA,145941.500,4308.3278,N,07726.5074,W,2,08,1.20,164.1,M,-34.4,M,0000,0000*50
$GPRMC,145941.750,A,4308.3254,N,07726.5078,W,33.86,185.84,200818,,,D*4B
$GPGGA,145942.000,4308.3230,N,07726.5081,W,2,08,1.20,164.3,M,-34.4,M,0000,0000*52
$GPRMC,145942.250,A,4308.3206,N,07726.5084,W,33.93,185.60,200818,,,D*47
$GPGGA,145942.500,4308.3182,N,07726.5087,W,2,08,1.10,164.4,M,-34.4,M,0000,0000*5F
$GPRMC,145942.750,A,4308.3158,N,07726.5089,W,33.99,184.43,200818,,,D*4D
$GPGGA,145943.000,4308.3134,N,07726.5091,W,2,08,1.20,164.6,M,-34.4,M,0000,0000*50
$GPRMC,145943.250,A,4308.3110,N,07726.5092,W,34.06,183.36,200818,,,D*4B
$GPGGA,145943.500,4308.3086,N,07726.5094,W,2,08,1.10,165.0,M,-34.4,M,0000,0000*5C
$GPRMC,145943.750,A,4308.3062,N,07726.5095,W,34.16,182.62,200818,,,D*4C
$GPGGA,145944.000,4308.3038,N,07726.5096,W,2,09,1.17,165.3,M,-34.4,M,0000,0000*5C
$GPRMC,145944.250,A,4308.3014,N,07726.5097,W,34.18,181.90,200818,,,D*4D
$GPGGA,145944.500,4308.2989,N,07726.5098,W,2,09,1.08,165.6,M,-34.4,M,0000,0000*5E
$GPRMC,145944.750,A,4308.2965,N,07726.5099,W,34.14,181.52,200818,,,D*4A
$GPGGA,145945.000,4308.2940,N,07726.5101,W,2,09,1.17,165.3,M,-34.4,M,0000,0000*55
$GPRMC,145945.250,A,4308.2916,N,07726.5101,W,34.06,181.87,200818,,,D*41
$GPGGA,145945.500,4308.2892,N,07726.5102,W,2,08,1.20,165.5,M,-34.4,M,0000,0000*5E
$GPRMC,145945.750,A,4308.2867,N,07726.5103,W,34.00,181.45,200818,,,D*49
$GPGGA,145946.000,4308.2844,N,07726.5102,W,2,08,1.10,165.9,M,-34.4,M,0000,0000*5C
$GPRMC,145946.250,A,4308.2820,N,07726.5102,W,33.94,180.06,200818,,,D*41
$GPGGA,145946.500,4308.2796,N,07726.5102,W,2,08,1.10,166.2,M,-34.4,M,0000,0000*51
$GPRMC,145946.750,A,4308.2772,N,07726.5102,W,33.96,179.88,200818,,,D*4E
$GPGGA,145947.000,4308.2747,N,07726.5102,W,2,08,1.20,166.6,M,-34.4,M,0000,0000*5E
$GPRMC,145947.250,A,4308.2722,N,07726.5103,W,34.73,180.48,200818,,,D*48
$GPGGA,145947.500,4308.2697,N,07726.5103,W,2,08,1.10,166.9,M,-34.4,M,0000,0000*5A
$GPRMC,145947.750,A,4308.2671,N,07726.5103,W,35.24,180.78,200818,,,D*4A
$GPGGA,145948.000,4308.2646,N,07726.5104,W,2,08,1.20,167.2,M,-34.4,M,0000,0000*52
$GPRMC,145948.250,A,4308.2622,N,07726.5104,W,35.24,180.95,200818,,,D*42
$GPGGA,145948.500,4308.2597,N,07726.5105,W,2,08,1.10,167.5,M,-34.4,M,0000,0000*5D
$GPRMC,145948.750,A,4308.2572,N,07726.5105,W,35.31,181.17,200818,,,D*4F
$GPGGA,145949.000,4308.2547,N,07726.5105,W,2,08,1.20,167.8,M,-34.4,M,0000,0000*5A
$GPRMC,145949.250,A,4308.2522,N,07726.5105,W,35.38,180.67,200818,,,D*41
$GPGGA,145949.500,4308.2497,N,07726.5105,W,2,08,1.10,168.0,M,-34.4,M,0000,0000*57
$GPRMC,145949.750,A,4308.2472,N,07726.5106,W,35.21,180.88,200818,,,D*4A
$GPGGA,145950.000,4308.2448,N,07726.5107,W,2,09,1.08,168.3,M,-34.4,M,0000,0000*51
$GPRMC,145950.250,A,4308.2423,N,07726.5109,W,34.97,181.75,200818,,,D*43
$GPGGA,145950.500,4308.2399,N,07726.5110,W,2,08,1.10,168.5,M,-34.4,M,0000,0000*57
$GPRMC,145950.750,A,4308.2374,N,07726.5112,W,34.74,182.27,200818,,,D*40
$GPGGA,145951.000,4308.2350,N,07726.5113,W,2,08,1.10,168.8,M,-34.4,M,0000,0000*58
$GPRMC,145951.250,A,4308.2326,N,07726.5114,W,34.55,181.95,200818,,,D*4C
$GPGGA,145951.500,4308.2302,N,07726.5114,W,2,08,1.10,169.0,M,-34.4,M,0000,0000*54
$GPRMC,145951.750,A,4308.2279,N,07726.5115,W,33.83,181.37,200818,,,D*47
$GPGGA,145952.000,4308.2255,N,07726.5115,W,2,08,1.21,169.3,M,-34.4,M,0000,0000*51
$GPRMC,145952.250,A,4308.2231,N,07726.5116,W,33.49,181.20,200818,,,D*4E
$GPGGA,145952.500,4308.2208,N,07726.5116,W,2,08,1.10,169.4,M,-34.4,M,0000,0000*5A
$GPRMC,145952.750,A,4308.2184,N,07726.5118,W,33.90,181.90,200818,,,D*47
$GPGGA,145953.000,4308.2160,N,07726.5119,W,2,08,1.21,169.6,M,-34.4,M,0000,0000*5C
$GPRMC,145953.250,A,4308.2135,N,07726.5120,W,34.05,181.56,200818,,,D*43
$GPGGA,145953.500,4308.2111,N,07726.5120,W,2,08,1.21,169.7,M,-34.4,M,0000,0000*54
$GPRMC,145953.750,A,4308.2085,N,07726.5122,W,33.97,181.33,200818,,,D*41
$GPGGA,145954.000,4308.2060,N,07726.5123,W,2,08,1.21,168.9,M,-34.4,M,0000,0000*5D
$GPRMC,145954.250,A,4308.2036,N,07726.5124,W,34.05,181.38,200818,,,D*4A
$GPGGA,145954.500,4308.2012,N,07726.5125,W,2,09,1.17,169.0,M,-34.4,M,0000,0000*57
$GPRMC,145954.750,A,4308.1987,N,07726.5125,W,34.15,181.03,200818,,,D*47
$GPGGA,145955.000,4308.1963,N,07726.5126,W,2,09,1.17,169.0,M,-34.4,M,0000,0000*5C
$GPRMC,145955.250,A,4308.1939,N,07726.5127,W,33.88,181.23,200818,,,D*45
$GPGGA,145955.500,4308.1916,N,07726.5127,W,2,09,1.17,169.1,M,-34.4,M,0000,0000*5B
$GPRMC,145955.750,A,4308.1892,N,07726.5127,W,33.86,180.90,200818,,,D*47
$GPGGA,145956.000,4308.1869,N,07726.5127,W,2,09,1.17,169.2,M,-34.4,M,0000,0000*57
$GPRMC,145956.250,A,4308.1846,N,07726.5127,W,33.43,180.52,200818,,,D*4F
$GPGGA,145956.500,4308.1822,N,07726.5127,W,2,09,1.17,169.4,M,-34.4,M,0000,0000*5B
$GPRMC,145956.750,A,4308.1799,N,07726.5128,W,33.46,180.26,200818,,,D*4E
$GPGGA,145957.000,4308.1776,N,07726.5128,W,2,09,1.17,169.5,M,-34.4,M,0000,0000*5F
$GPRMC,145957.250,A,4308.1753,N,07726.5129,W,33.22,180.70,200818,,,D*4C
$GPGGA,145957.500,4308.1730,N,07726.5130,W,2,09,1.17,169.7,M,-34.4,M,0000,0000*53
$GPRMC,145957.750,A,4308.1707,N,07726.5130,W,33.16,181.27,200818,,,D*44
$GPGGA,145958.000,4308.1684,N,07726.5132,W,2,08,1.21,169.8,M,-34.4,M,0000,0000*5E
$GPRMC,145958.250,A,4308.1661,N,07726.5133,W,33.07,181.68,200818,,,D*47
$GPGGA,145958.500,4308.1638,N,07726.5134,W,2,09,1.17,170.0,M,-34.4,M,0000,0000*5E
$GPRMC,145958.750,A,4308.1615,N,07726.5135,W,32.77,181.46,200818,,,D*4D
$GPGGA,145959.000,4308.1593,N,07726.5135,W,2,09,1.17,170.0,M,-34.4,M,0000,0000*59
$GPRMC,145959.250,A,4308.1570,N,07726.5136,W,32.80,181.44,200818,,,D*40
$GPGGA,145959.500,4308.1547,N,07726.5137,W,2,08,1.21,170.2,M,-34.4,M,0000,0000*51
$GPRMC,145959.750,A,4308.1524,N,07726.5138,W,32.83,181.72,200818,,,D*4C
$GPGGA,150000.000,4308.1501,N,07726.5139,W,2,09,1.17,170.3,M,-34.4,M,0000,0000*5C
$GPRMC,150000.250,A,4308.1479,N,07726.5139,W,32.89,181.93,200818,,,D*45
$GPGGA,150000.500,4308.1456,N,07726.5140,W,2,09,1.17,170.4,M,-34.4,M,0000,0000*53
$GPRMC,150000.750,A,4308.1433,N,07726.5141,W,32.66,181.71,200818,,,D*4C
$GPGGA,150001.000,4308.1411,N,07726.5141,W,2,09,1.17,170.4,M,-34.4,M,0000,0000*55
$GPRMC,150001.250,A,4308.1388,N,07726.5142,W,32.28,181.26,200818,,,D*44
$GPGGA,150001.500,4308.1365,N,07726.5143,W,2,08,1.21,170.5,M,-34.4,M,0000,0000*53
$GPRMC,150001.750,A,4308.1343,N,07726.5143,W,32.24,181.15,200818,,,D*4B
$GPGGA,150002.000,4308.1321,N,07726.5144,W,2,08,1.20,170.7,M,-34.4,M,0000,0000*51
$GPRMC,150002.250,A,4308.1299,N,07726.5144,W,32.03,180.76,200818,,,D*4D
$GPGGA,150002.500,4308.1276,N,07726.5145,W,2,08,1.21,170.8,M,-34.4,M,0000,0000*58
$GPRMC,150002.750,A,4308.1254,N,07726.5145,W,32.02,180.85,200818,,,D*45
$GPGGA,150003.000,4308.1232,N,07726.5146,W,2,08,1.21,170.8,M,-34.4,M,0000,0000*5F
$GPRMC,150003.250,A,4308.1209,N,07726.5146,W,32.15,180.37,200818,,,D*45
$GPGGA,150003.500,4308.1187,N,07726.5146,W,2,08,1.21,170.7,M,-34.4,M,0000,0000*58
$GPRMC,150003.750,A,4308.1165,N,07726.5146,W,32.16,179.98,200818,,,D*49
$GPGGA,150004.000,4308.1143,N,07726.5146,W,2,08,1.21,170.6,M,-34.4,M,0000,0000*53
$GPRMC,150004.250,A,4308.1121,N,07726.5146,W,31.69,179.12,200818,,,D*42
$GPGGA,150004.500,4308.1099,N,07726.5146,W,2,09,1.17,170.4,M,-34.4,M,0000,0000*56
$GPRMC,150004.750,A,4308.1078,N,07726.5145,W,31.62,179.30,200818,,,D*42
$GPGGA,150005.000,4308.1057,N,07726.5144,W,2,08,1.21,170.3,M,-34.4,M,0000,0000*51
$GPRMC,150005.250,A,4308.1035,N,07726.5144,W,31.29,179.67,200818,,,D*43
$GPGGA,150005.500,4308.1013,N,07726.5144,W,2,09,1.17,170.3,M,-34.4,M,0000,0000*50
$GPRMC,150005.750,A,4308.0991,N,07726.5144,W,31.50,179.60,200818,,,D*49
$GPGGA,150006.000,4308.0969,N,07726.5145,W,2,09,1.17,170.2,M,-34.4,M,0000,0000*53
$GPRMC,150006.250,A,4308.0947,N,07726.5145,W,32.13,179.35,200818,,,D*41
$GPGGA,150006.500,4308.0924,N,07726.5145,W,2,09,1.17,169.9,M,-34.4,M,0000,0000*5C
$GPRMC,150006.750,A,4308.0900,N,07726.5145,W,32.91,179.26,200818,,,D*4F
$GPGGA,150007.000,4308.0877,N,07726.5145,W,2,09,1.17,169.7,M,-34.4,M,0000,0000*51
$GPRMC,150007.250,A,4308.0854,N,07726.5144,W,33.50,178.85,200818,,,D*4E
$GPGGA,150007.500,4308.0830,N,07726.5144,W,2,09,1.17,169.9,M,-34.4,M,0000,0000*58
$GPRMC,150007.750,A,4308.0807,N,07726.5143,W,33.96,178.15,200818,,,D*49
$GPGGA,150008.000,4308.0784,N,07726.5142,W,2,08,1.21,169.8,M,-34.4,M,0000,0000*51
$GPRMC,150008.250,A,4308.0760,N,07726.5140,W,34.14,177.33,200818,,,D*48
$GPGGA,150008.500,4308.0736,N,07726.5137,W,2,08,1.20,169.8,M,-34.4,M,0000,0000*5E
$GPRMC,150008.750,A,4308.0712,N,07726.5135,W,34.57,176.45,200818,,,D*4D
$GPGGA,150009.000,4308.0688,N,07726.5133,W,2,08,1.21,169.7,M,-34.4,M,0000,0000*54
$GPRMC,150009.250,A,4308.0664,N,07726.5130,W,34.67,175.78,200818,,,D*42
$GPGGA,150009.500,4308.0640,N,07726.5128,W,2,08,1.21,169.6,M,-34.4,M,0000,0000*5E
$GPRMC,150009.750,A,4308.0616,N,07726.5125,W,35.46,175.47,200818,,,D*48
$GPGGA,150010.000,4308.0591,N,07726.5122,W,2,08,1.21,169.4,M,-34.4,M,0000,0000*54
$GPRMC,150010.250,A,4308.0567,N,07726.5120,W,35.47,175.59,200818,,,D*4B
$GPGGA,150010.500,4308.0542,N,07726.5117,W,2,08,1.21,169.2,M,-34.4,M,0000,0000*5F
$GPRMC,150010.750,A,4308.0518,N,07726.5114,W,36.06,175.16,200818,,,D*4C
$GPGGA,150011.000,4308.0493,N,07726.5112,W,2,09,1.17,168.9,M,-34.4,M,0000,0000*5D
$GPRMC,150011.250,A,4308.0469,N,07726.5109,W,36.28,174.88,200818,,,D*49
$GPGGA,150011.500,4308.0445,N,07726.5105,W,2,09,1.17,168.6,M,-34.4,M,0000,0000*5A
$GPRMC,150011.750,A,4308.0420,N,07726.5102,W,36.34,174.42,200818,,,D*41
$GPGGA,150012.000,4308.0396,N,07726.5098,W,2,09,1.17,168.2,M,-34.4,M,0000,0000*54
$GPRMC,150012.250,A,4308.0371,N,07726.5095,W,36.46,174.26,200818,,,D*4C
$GPGGA,150012.500,4308.0347,N,07726.5091,W,2,09,1.17,168.0,M,-34.3,M,0000,0000*51
$GPRMC,150012.750,A,4308.0322,N,07726.5087,W,36.55,173.75,200818,,,D*4F
$GPGGA,150013.000,4308.0297,N,07726.5083,W,2,09,1.17,167.9,M,-34.3,M,0000,0000*5C
$GPRMC,150013.250,A,4308.0273,N,07726.5079,W,36.21,173.59,200818,,,D*42
$GPGGA,150013.500,4308.0248,N,07726.5075,W,2,09,1.17,167.8,M,-34.3,M,0000,0000*53
$GPRMC,150013.750,A,4308.0224,N,07726.5070,W,35.90,173.07,200818,,,D*4E
$GPGGA,150014.000,4308.0200,N,07726.5066,W,2,09,1.17,167.8,M,-34.3,M,0000,0000*5F
$GPRMC,150014.250,A,4308.0176,N,07726.5062,W,35.74,172.82,200818,,,D*4D
$GPGGA,150014.500,4308.0153,N,07726.5058,W,2,09,1.17,167.9,M,-34.3,M,0000,0000*53
$GPRMC,150014.750,A,4308.0130,N,07726.5054,W,34.10,172.02,200818,,,D*44
$GPGGA,150015.000,4308.0107,N,07726.5050,W,2,08,1.21,167.8,M,-34.3,M,0000,0000*5B
$GPRMC,150015.250,A,4308.0084,N,07726.5046,W,33.47,172.29,200818,,,D*41
$GPGGA,150015.500,4308.0062,N,07726.5041,W,2,09,1.17,167.7,M,-34.3,M,0000,0000*57
$GPRMC,150015.750,A,4308.0040,N,07726.5037,W,32.93,171.57,200818,,,D*48
$GPGGA,150016.000,4308.0018,N,07726.5032,W,2,09,1.17,167.7,M,-34.3,M,0000,0000*58
$GPRMC,150016.250,A,4307.9997,N,07726.5028,W,32.24,171.43,200818,,,D*4C
$GPGGA,150016.500,4307.9975,N,07726.5024,W,2,09,1.08,167.8,M,-34.3,M,0000,0000*5F
$GPRMC,150016.750,A,4307.9954,N,07726.5019,W,31.81,171.32,200818,,,D*4E
$GPGGA,150017.000,4307.9933,N,07726.5016,W,2,08,1.11,167.9,M,-34.3,M,0000,0000*50
$GPRMC,150017.250,A,4307.9912,N,07726.5011,W,31.57,170.99,200818,,,D*4B
$GPGGA,150017.500,4307.9891,N,07726.5008,W,2,09,1.17,167.1,M,-34.3,M,0000,0000*5C
$GPRMC,150017.750,A,4307.9869,N,07726.5004,W,31.36,171.29,200818,,,D*4A
$GPGGA,150018.000,4307.9848,N,07726.5001,W,2,08,1.21,166.3,M,-34.3,M,0000,0000*5C
$GPRMC,150018.250,A,4307.9827,N,07726.4997,W,31.32,171.33,200818,,,D*47
$GPGGA,150018.500,4307.9805,N,07726.4993,W,2,08,1.21,165.8,M,-34.3,M,0000,0000*5B
$GPRMC,150018.750,A,4307.9784,N,07726.4989,W,31.26,171.24,200818,,,D*48
$GPGGA,150019.000,4307.9763,N,07726.4985,W,2,08,1.21,165.4,M,-34.3,M,0000,0000*5B
$GPRMC,150019.250,A,4307.9742,N,07726.4980,W,31.21,170.96,200818,,,D*40
$GPGGA,150019.500,4307.9721,N,07726.4976,W,2,09,1.17,165.4,M,-34.3,M,0000,0000*50
$GPRMC,150019.750,A,4307.9700,N,07726.4972,W,31.11,171.01,200818,,,D*42
$GPGGA,150020.000,4307.9679,N,07726.4967,W,2,08,1.21,165.1,M,-34.3,M,0000,0000*52
$GPRMC,150020.250,A,4307.9658,N,07726.4963,W,31.00,170.83,200818,,,D*4A
$GPGGA,150020.500,4307.9637,N,07726.4958,W,2,09,1.17,165.1,M,-34.3,M,0000,0000*55
$GPRMC,150020.750,A,4307.9617,N,07726.4953,W,30.28,170.66,200818,,,D*47
$GPGGA,150021.000,4307.9596,N,07726.4949,W,2,09,1.17,165.0,M,-34.3,M,0000,0000*58
$GPRMC,150021.250,A,4307.9575,N,07726.4944,W,30.22,170.56,200818,,,D*4B
$GPGGA,150021.500,4307.9554,N,07726.4939,W,2,09,1.17,164.9,M,-34.3,M,0000,0000*5C
$GPRMC,150021.750,A,4307.9534,N,07726.4934,W,29.97,170.51,200818,,,D*4D
$GPGGA,150022.000,4307.9514,N,07726.4929,W,2,09,1.17,164.8,M,-34.3,M,0000,0000*5E
$GPRMC,150022.250,A,4307.9493,N,07726.4925,W,29.84,170.50,200818,,,D*44
$GPGGA,150022.500,4307.9473,N,07726.4920,W,2,09,1.17,164.6,M,-34.3,M,0000,0000*5C
$GPRMC,150022.750,A,4307.9453,N,07726.4915,W,29.61,170.54,200818,,,D*41
$GPGGA,150023.000,4307.9433,N,07726.4910,W,2,09,1.17,164.4,M,-34.3,M,0000,0000*5D
