Vers 60
USE_SERIAL_FEEDBACK=true
DEVELOPMENT_MODE=false
USE_RMC_ONLY=false

$GPRMC,131609.000,A,4308.3089,N,07726.2632,W,0.20,96.54,230818,,,A*40
$GPGGA,131609.250,4308.3089,N,07726.2632,W,1,09,0.98,146.6,M,-34.4,M,,*5A
$GPRMC,131609.500,A,4308.3089,N,07726.2633,W,0.09,65.88,230818,,,A*42
$GPGGA,131609.750,4308.3091,N,07726.2633,W,1,09,0.98,146.6,M,-34.4,M,,*57
$GPRMC,131610.000,A,4308.3091,N,07726.2633,W,0.15,14.41,230818,,,A*48
$GPGGA,131610.250,4308.3092,N,07726.2634,W,1,10,0.94,146.6,M,-34.4,M,,*5A
$GPRMC,131610.500,A,4308.3093,N,07726.2634,W,0.18,20.15,230818,,,A*43
$GPGGA,131610.750,4308.3094,N,07726.2634,W,1,10,0.94,146.6,M,-34.4,M,,*59
$GPRMC,131611.000,A,4308.3095,N,07726.2634,W,0.22,9.05,230818,,,A*72
$GPGGA,131611.250,4308.3094,N,07726.2634,W,1,10,0.94,146.7,M,-34.4,M,,*5C
$GPRMC,131611.500,A,4308.3094,N,07726.2634,W,0.26,4.70,230818,,,A*7D
$GPGGA,131611.750,4308.3095,N,07726.2635,W,1,10,0.94,146.7,M,-34.4,M,,*59
$GPRMC,131612.000,A,4308.3095,N,07726.2637,W,0.32,335.13,230818,,,A*78
$GPGGA,131612.250,4308.3097,N,07726.2637,W,1,11,0.90,146.7,M,-34.4,M,,*5A
$GPRMC,131612.500,A,4308.3097,N,07726.2638,W,0.36,332.27,230818,,,A*74
$GPGGA,131612.750,4308.3098,N,07726.2639,W,1,11,0.90,146.8,M,-34.4,M,,*51
$GPRMC,131613.000,A,4308.3098,N,07726.2640,W,0.33,328.09,230818,,,A*72
$GPGGA,131613.250,4308.3099,N,07726.2640,W,1,11,0.90,146.8,M,-34.4,M,,*5A
$GPRMC,131613.500,A,4308.3100,N,07726.2641,W,0.30,340.32,230818,,,A*73
$GPGGA,131613.750,4308.3101,N,07726.2641,W,1,11,0.90,146.8,M,-34.4,M,,*5E
$GPRMC,131614.000,A,4308.3103,N,07726.2641,W,0.36,349.26,230818,,,A*78
$GPGGA,131614.250,4308.3104,N,07726.2642,W,1,11,0.90,146.8,M,-34.4,M,,*5A
$GPRMC,131614.500,A,4308.3106,N,07726.2642,W,0.36,328.81,230818,,,A*71
$GPGGA,131614.750,4308.3106,N,07726.2643,W,1,11,0.90,146.9,M,-34.4,M,,*5D
$GPRMC,131615.000,A,4308.3106,N,07726.2643,W,0.37,349.22,230818,,,A*7B
$GPGGA,131615.250,4308.3107,N,07726.2644,W,1,11,0.90,146.9,M,-34.4,M,,*5F
$GPRMC,131615.500,A,4308.3106,N,07726.2645,W,0.37,339.06,230818,,,A*79
$GPGGA,131615.750,4308.3106,N,07726.2645,W,1,11,0.90,146.9,M,-34.4,M,,*5A
$GPRMC,131616.000,A,4308.3107,N,07726.2645,W,0.33,345.14,230818,,,A*72
$GPGGA,131616.250,4308.3108,N,07726.2645,W,1,11,0.90,146.9,M,-34.4,M,,*52
$GPRMC,131616.500,A,4308.3110,N,07726.2645,W,0.30,352.42,230818,,,A*77
$GPGGA,131616.750,4308.3111,N,07726.2645,W,1,11,0.90,146.9,M,-34.4,M,,*5F
$GPRMC,131617.000,A,4308.3111,N,07726.2645,W,0.26,12.37,230818,,,A*40
$GPGGA,131617.250,4308.3111,N,07726.2645,W,1,11,0.90,146.9,M,-34.4,M,,*5B
$GPRMC,131617.500,A,4308.3111,N,07726.2645,W,0.21,27.35,230818,,,A*46
$GPGGA,131617.750,4308.3112,N,07726.2646,W,1,11,0.90,146.9,M,-34.4,M,,*5E
$GPRMC,131618.000,A,4308.3112,N,07726.2646,W,0.24,7.88,230818,,,A*7D
$GPGGA,131618.250,4308.3113,N,07726.2646,W,1,11,0.91,146.9,M,-34.4,M,,*54
$GPRMC,131618.500,A,4308.3115,N,07726.2646,W,0.29,4.95,230818,,,A*7D
$GPGGA,131618.750,4308.3117,N,07726.2646,W,1,11,0.91,146.9,M,-34.4,M,,*55
$GPRMC,131619.000,A,4308.3118,N,07726.2646,W,0.33,11.85,230818,,,A*4A
$GPGGA,131619.250,4308.3119,N,07726.2647,W,1,11,0.91,146.9,M,-34.4,M,,*5E
$GPRMC,131619.500,A,4308.3119,N,07726.2647,W,0.20,6.10,230818,,,A*77
$GPGGA,131619.750,4308.3120,N,07726.2648,W,1,11,0.91,147.0,M,-34.4,M,,*56
$GPRMC,131620.000,A,4308.3119,N,07726.2648,W,0.07,332.04,230818,,,A*73
$GPGGA,131620.250,4308.3120,N,07726.2648,W,1,11,0.90,147.0,M,-34.4,M,,*58
$GPRMC,131620.500,A,4308.3120,N,07726.2648,W,0.06,6.98,230818,,,A*7C
$GPGGA,131620.750,4308.3121,N,07726.2649,W,1,11,0.91,147.0,M,-34.4,M,,*5C
$GPRMC,131621.000,A,4308.3122,N,07726.2649,W,0.09,2.02,230818,,,A*73
$GPGGA,131621.250,4308.3122,N,07726.2649,W,1,11,0.91,147.0,M,-34.4,M,,*5B
$GPRMC,131621.500,A,4308.3123,N,07726.2649,W,0.09,11.21,230818,,,A*44
$GPGGA,131621.750,4308.3123,N,07726.2650,W,1,11,0.91,147.0,M,-34.4,M,,*57
$GPRMC,131622.000,A,4308.3123,N,07726.2650,W,0.08,4.72,230818,,,A*79
$GPGGA,131622.250,4308.3124,N,07726.2650,W,1,11,0.91,147.0,M,-34.4,M,,*56
$GPRMC,131622.500,A,4308.3124,N,07726.2650,W,0.11,30.12,230818,,,A*42
$GPGGA,131622.750,4308.3125,N,07726.2651,W,1,11,0.90,147.0,M,-34.4,M,,*52
$GPRMC,131623.000,A,4308.3125,N,07726.2651,W,0.10,23.06,230818,,,A*40
$GPGGA,131623.250,4308.3126,N,07726.2651,W,1,11,0.90,147.0,M,-34.4,M,,*55
$GPRMC,131623.500,A,4308.3126,N,07726.2651,W,0.14,42.11,230818,,,A*43
$GPGGA,131623.750,4308.3125,N,07726.2652,W,1,11,0.90,147.0,M,-34.4,M,,*50
$GPRMC,131624.000,A,4308.3125,N,07726.2652,W,0.03,196.67,230818,,,A*7E
$GPGGA,131624.250,4308.3124,N,07726.2652,W,1,11,0.90,147.0,M,-34.4,M,,*53
$GPRMC,131624.500,A,4308.3125,N,07726.2653,W,0.13,244.64,230818,,,A*74
$GPGGA,131624.750,4308.3125,N,07726.2654,W,1,11,0.90,147.0,M,-34.4,M,,*51
$GPRMC,131625.000,A,4308.3126,N,07726.2654,W,0.15,272.46,230818,,,A*77
$GPGGA,131625.250,4308.3126,N,07726.2654,W,1,11,0.90,147.0,M,-34.4,M,,*56
$GPRMC,131625.500,A,4308.3126,N,07726.2654,W,0.08,289.89,230818,,,A*79
$GPGGA,131625.750,4308.3126,N,07726.2654,W,1,11,0.90,147.0,M,-34.4,M,,*53
$GPRMC,131626.000,A,4308.3126,N,07726.2654,W,0.08,276.36,230818,,,A*7B
$GPGGA,131626.250,4308.3126,N,07726.2655,W,1,11,0.90,147.0,M,-34.4,M,,*54
$GPRMC,131626.500,A,4308.3126,N,07726.2655,W,0.14,264.63,230818,,,A*71
$GPGGA,131626.750,4308.3127,N,07726.2656,W,1,11,0.90,147.0,M,-34.4,M,,*53
$GPRMC,131627.000,A,4308.3127,N,07726.2656,W,0.22,263.76,230818,,,A*71
$GPGGA,131627.250,4308.3126,N,07726.2656,W,1,11,0.90,147.0,M,-34.4,M,,*56
$GPRMC,131627.500,A,4308.3125,N,07726.2656,W,0.17,204.45,230818,,,A*71
$GPGGA,131627.750,4308.3125,N,07726.2656,W,1,11,0.90,147.0,M,-34.4,M,,*50
$GPRMC,131628.000,A,4308.3124,N,07726.2656,W,0.19,191.97,230818,,,A*74
$GPGGA,131628.250,4308.3124,N,07726.2657,W,1,11,0.90,147.0,M,-34.4,M,,*5A
$GPRMC,131628.500,A,4308.3125,N,07726.2657,W,0.15,215.70,230818,,,A*7B
$GPGGA,131628.750,4308.3125,N,07726.2657,W,1,11,0.90,147.0,M,-34.4,M,,*5E
$GPRMC,131629.000,A,4308.3126,N,07726.2657,W,0.06,250.74,230818,,,A*7B
$GPGGA,131629.250,4308.3126,N,07726.2657,W,1,11,0.90,147.0,M,-34.4,M,,*59
$GPRMC,131629.500,A,4308.3127,N,07726.2657,W,0.08,344.21,230818,,,A*75
$GPGGA,131629.750,4308.3128,N,07726.2657,W,1,11,0.90,147.0,M,-34.4,M,,*52
$GPRMC,131630.000,A,4308.3130,N,07726.2658,W,0.38,344.28,230818,,,A*7B
$GPGGA,131630.250,4308.3130,N,07726.2658,W,1,11,0.90,147.0,M,-34.4,M,,*59
$GPRMC,131630.500,A,4308.3132,N,07726.2658,W,0.46,351.44,230818,,,A*7B
$GPGGA,131630.750,4308.3134,N,07726.2659,W,1,11,0.91,147.0,M,-34.4,M,,*58
$GPRMC,131631.000,A,4308.3140,N,07726.2661,W,1.35,345.05,230818,,,A*75
$GPGGA,131631.250,4308.3144,N,07726.2662,W,1,11,0.91,147.0,M,-34.4,M,,*53
$GPRMC,131631.500,A,4308.3147,N,07726.2662,W,2.52,347.83,230818,,,A*7A
$GPGGA,131631.750,4308.3149,N,07726.2663,W,1,11,0.91,147.0,M,-34.4,M,,*5A
$GPRMC,131632.000,A,4308.3151,N,07726.2665,W,2.99,334.14,230818,,,A*71
$GPGGA,131632.250,4308.3154,N,07726.2667,W,1,11,0.90,147.0,M,-34.4,M,,*55
$GPRMC,131632.500,A,4308.3157,N,07726.2669,W,3.92,322.95,230818,,,A*7A
$GPGGA,131632.750,4308.3159,N,07726.2672,W,1,11,0.91,146.9,M,-34.4,M,,*50
$GPRMC,131633.000,A,4308.3162,N,07726.2675,W,4.85,317.72,230818,,,A*7B
$GPGGA,131633.250,4308.3165,N,07726.2679,W,1,11,0.91,147.0,M,-34.4,M,,*58
$GPRMC,131633.500,A,4308.3168,N,07726.2683,W,5.53,309.28,230818,,,A*77
$GPGGA,131633.750,4308.3171,N,07726.2688,W,1,11,0.91,147.0,M,-34.4,M,,*56
$GPRMC,131634.000,A,4308.3173,N,07726.2693,W,6.39,302.89,230818,,,A*71
$GPGGA,131634.250,4308.3175,N,07726.2698,W,1,11,0.91,147.0,M,-34.4,M,,*51
$GPRMC,131634.500,A,4308.3176,N,07726.2704,W,6.45,294.34,230818,,,A*7D
$GPGGA,131634.750,4308.3178,N,07726.2709,W,1,11,0.91,147.0,M,-34.4,M,,*50
$GPRMC,131635.000,A,4308.3179,N,07726.2715,W,6.31,290.52,230818,,,A*71
$GPGGA,131635.250,4308.3180,N,07726.2720,W,1,11,0.91,147.0,M,-34.4,M,,*58
$GPRMC,131635.500,A,4308.3182,N,07726.2725,W,6.43,289.03,230818,,,A*7A
$GPGGA,131635.750,4308.3183,N,07726.2731,W,1,11,0.91,147.1,M,-34.4,M,,*5F
$GPRMC,131636.000,A,4308.3185,N,07726.2737,W,6.57,286.62,230818,,,A*75
$GPGGA,131636.250,4308.3187,N,07726.2743,W,1,11,0.91,147.1,M,-34.4,M,,*58
$GPRMC,131636.500,A,4308.3187,N,07726.2748,W,6.83,282.61,230818,,,A*74
$GPGGA,131636.750,4308.3188,N,07726.2755,W,1,11,0.91,147.1,M,-34.4,M,,*55
$GPRMC,131637.000,A,4308.3190,N,07726.2762,W,8.03,285.32,230818,,,A*79
$GPGGA,131637.250,4308.3191,N,07726.2770,W,1,11,0.91,147.1,M,-34.4,M,,*5E
$GPRMC,131637.500,A,4308.3192,N,07726.2778,W,8.94,282.41,230818,,,A*78
$GPGGA,131637.750,4308.3194,N,07726.2786,W,1,11,0.91,147.1,M,-34.4,M,,*57
$GPRMC,131638.000,A,4308.3196,N,07726.2795,W,10.00,281.50,230818,,,A*42
$GPGGA,131638.250,4308.3196,N,07726.2805,W,1,11,0.91,147.1,M,-34.4,M,,*5B
$GPRMC,131638.500,A,4308.3198,N,07726.2814,W,10.69,278.19,230818,,,A*4B
$GPGGA,131638.750,4308.3200,N,07726.2823,W,1,11,0.91,147.1,M,-34.4,M,,*56
$GPRMC,131639.000,A,4308.3203,N,07726.2833,W,11.55,278.72,230818,,,A*48
$GPGGA,131639.250,4308.3206,N,07726.2843,W,1,11,0.91,147.0,M,-34.4,M,,*53
$GPRMC,131639.500,A,4308.3209,N,07726.2854,W,12.50,279.96,230818,,,A*4B
$GPGGA,131639.750,4308.3212,N,07726.2866,W,1,11,0.91,146.9,M,-34.4,M,,*5C
$GPRMC,131640.000,A,4308.3215,N,07726.2878,W,13.60,282.68,230818,,,A*44
$GPGGA,131640.250,4308.3218,N,07726.2891,W,1,11,0.91,146.9,M,-34.4,M,,*55
$GPRMC,131640.500,A,4308.3220,N,07726.2904,W,13.92,284.29,230818,,,A*43
$GPGGA,131640.750,4308.3222,N,07726.2917,W,1,11,0.91,147.0,M,-34.4,M,,*5E
$GPRMC,131641.000,A,4308.3225,N,07726.2929,W,14.54,290.17,230818,,,A*48
$GPGGA,131641.250,4308.3227,N,07726.2942,W,1,11,0.90,147.0,M,-34.4,M,,*5E
$GPRMC,131641.500,A,4308.3230,N,07726.2955,W,14.63,293.83,230818,,,A*48
$GPGGA,131641.750,4308.3234,N,07726.2966,W,1,11,0.91,147.1,M,-34.4,M,,*5F
$GPRMC,131642.000,A,4308.3239,N,07726.2978,W,14.58,296.94,230818,,,A*43
$GPGGA,131642.250,4308.3244,N,07726.2991,W,1,11,0.91,147.2,M,-34.4,M,,*55
$GPRMC,131642.500,A,4308.3249,N,07726.3004,W,14.94,297.97,230818,,,A*40
$GPGGA,131642.750,4308.3254,N,07726.3017,W,1,11,0.91,147.2,M,-34.4,M,,*57
$GPRMC,131643.000,A,4308.3260,N,07726.3030,W,15.36,300.01,230818,,,A*41
$GPGGA,131643.250,4308.3266,N,07726.3043,W,1,11,0.91,147.1,M,-34.4,M,,*50
$GPRMC,131643.500,A,4308.3273,N,07726.3057,W,16.08,301.59,230818,,,A*45
$GPGGA,131643.750,4308.3279,N,07726.3070,W,1,11,0.91,147.2,M,-34.4,M,,*58
$GPRMC,131644.000,A,4308.3286,N,07726.3084,W,16.83,302.52,230818,,,A*48
$GPGGA,131644.250,4308.3292,N,07726.3098,W,1,11,0.91,147.2,M,-34.4,M,,*59
$GPRMC,131644.500,A,4308.3300,N,07726.3113,W,17.42,302.58,230818,,,A*4B
$GPGGA,131644.750,4308.3307,N,07726.3127,W,1,11,0.91,147.2,M,-34.4,M,,*54
$GPRMC,131645.000,A,4308.3314,N,07726.3141,W,18.06,303.11,230818,,,A*4E
$GPGGA,131645.250,4308.3321,N,07726.3156,W,1,11,0.91,147.2,M,-34.4,M,,*52
$GPRMC,131645.500,A,4308.3329,N,07726.3171,W,18.40,302.84,230818,,,A*49
$GPGGA,131645.750,4308.3336,N,07726.3186,W,1,11,0.91,147.2,M,-34.4,M,,*5C
$GPRMC,131646.000,A,4308.3344,N,07726.3201,W,19.00,302.54,230818,,,A*48
$GPGGA,131646.250,4308.3352,N,07726.3216,W,1,11,0.91,147.2,M,-34.4,M,,*52
$GPRMC,131646.500,A,4308.3359,N,07726.3232,W,19.51,303.19,230818,,,A*4D
$GPGGA,131646.750,4308.3367,N,07726.3248,W,1,11,0.91,147.3,M,-34.4,M,,*5B
$GPRMC,131647.000,A,4308.3375,N,07726.3264,W,20.41,302.88,230818,,,A*46
$GPGGA,131647.250,4308.3383,N,07726.3280,W,1,11,0.91,147.3,M,-34.4,M,,*51
$GPRMC,131647.500,A,4308.3391,N,07726.3296,W,19.74,304.02,230818,,,A*4C
$GPGGA,131647.750,4308.3398,N,07726.3312,W,1,11,0.91,147.4,M,-34.4,M,,*53
$GPRMC,131648.000,A,4308.3406,N,07726.3327,W,19.43,303.74,230818,,,A*46
$GPGGA,131648.250,4308.3413,N,07726.3342,W,1,11,0.91,147.4,M,-34.4,M,,*58
$GPRMC,131648.500,A,4308.3421,N,07726.3358,W,19.44,304.16,230818,,,A*4A
$GPGGA,131648.750,4308.3429,N,07726.3373,W,1,11,0.91,147.5,M,-34.4,M,,*57
$GPRMC,131649.000,A,4308.3437,N,07726.3389,W,19.41,303.88,230818,,,A*40
$GPGGA,131649.250,4308.3444,N,07726.3404,W,1,11,0.91,147.6,M,-34.4,M,,*5C
$GPRMC,131649.500,A,4308.3451,N,07726.3420,W,18.98,302.32,230818,,,A*44
$GPGGA,131649.750,4308.3459,N,07726.3436,W,1,11,0.91,147.7,M,-34.4,M,,*55
$GPRMC,131650.000,A,4308.3467,N,07726.3451,W,19.58,304.53,230818,,,A*46
$GPGGA,131650.250,4308.3475,N,07726.3467,W,1,11,0.91,148.0,M,-34.4,M,,*5A
$GPRMC,131650.500,A,4308.3483,N,07726.3483,W,19.58,306.10,230818,,,A*43
$GPGGA,131650.750,4308.3491,N,07726.3498,W,1,11,0.91,148.3,M,-34.4,M,,*56
$GPRMC,131651.000,A,4308.3500,N,07726.3513,W,19.49,307.27,230818,,,A*40
$GPGGA,131651.250,4308.3508,N,07726.3528,W,1,11,0.91,148.4,M,-34.4,M,,*5E
$GPRMC,131651.500,A,4308.3518,N,07726.3543,W,19.41,309.11,230818,,,A*4A
$GPGGA,131651.750,4308.3526,N,07726.3558,W,1,11,0.91,148.4,M,-34.4,M,,*50
$GPRMC,131652.000,A,4308.3536,N,07726.3572,W,19.05,311.08,230818,,,A*43
$GPGGA,131652.250,4308.3545,N,07726.3586,W,1,11,0.91,148.3,M,-34.4,M,,*57
$GPRMC,131652.500,A,4308.3554,N,07726.3599,W,18.76,313.81,230818,,,A*41
$GPGGA,131652.750,4308.3564,N,07726.3612,W,1,11,0.91,148.5,M,-34.4,M,,*59
$GPRMC,131653.000,A,4308.3574,N,07726.3625,W,18.72,316.99,230818,,,A*4B
$GPGGA,131653.250,4308.3584,N,07726.3637,W,1,11,0.91,148.6,M,-34.4,M,,*57
$GPRMC,131653.500,A,4308.3597,N,07726.3649,W,19.22,321.80,230818,,,A*41
$GPGGA,131653.750,4308.3607,N,07726.3661,W,1,11,0.91,148.8,M,-34.4,M,,*57
$GPRMC,131654.000,A,4308.3619,N,07726.3672,W,19.09,325.26,230818,,,A*4F
$GPGGA,131654.250,4308.3630,N,07726.3682,W,1,11,0.91,148.9,M,-34.4,M,,*5D
$GPRMC,131654.500,A,4308.3641,N,07726.3692,W,19.25,328.86,230818,,,A*40
$GPGGA,131654.750,4308.3653,N,07726.3702,W,1,11,0.91,149.1,M,-34.4,M,,*5D
$GPRMC,131655.000,A,4308.3665,N,07726.3711,W,18.82,331.99,230818,,,A*42
$GPGGA,131655.250,4308.3677,N,07726.3719,W,1,11,0.91,149.4,M,-34.4,M,,*50
$GPRMC,131655.500,A,4308.3689,N,07726.3727,W,18.80,333.09,230818,,,A*49
$GPGGA,131655.750,4308.3701,N,07726.3735,W,1,11,0.91,149.6,M,-34.4,M,,*59
$GPRMC,131656.000,A,4308.3713,N,07726.3743,W,18.79,334.96,230818,,,A*48
$GPGGA,131656.250,4308.3726,N,07726.3750,W,1,11,0.90,149.7,M,-34.4,M,,*59
$GPRMC,131656.500,A,4308.3738,N,07726.3757,W,19.06,336.20,230818,,,A*47
$GPGGA,131656.750,4308.3751,N,07726.3764,W,1,11,0.91,149.8,M,-34.4,M,,*55
$GPRMC,131657.000,A,4308.3765,N,07726.3769,W,19.56,339.56,230818,,,A*4D
$GPGGA,131657.250,4308.3778,N,07726.3774,W,1,11,0.90,149.8,M,-34.4,M,,*5A
$GPRMC,131657.500,A,4308.3792,N,07726.3779,W,19.77,343.03,230818,,,A*4F
$GPGGA,131657.750,4308.3805,N,07726.3783,W,1,11,0.91,149.9,M,-34.4,M,,*52
$GPRMC,131658.000,A,4308.3819,N,07726.3787,W,19.86,346.28,230818,,,A*4A
$GPGGA,131658.250,4308.3832,N,07726.3790,W,1,11,0.91,149.9,M,-34.4,M,,*5E
$GPRMC,131658.500,A,4308.3845,N,07726.3792,W,19.62,348.70,230818,,,A*4B
$GPGGA,131658.750,4308.3859,N,07726.3795,W,1,11,0.91,150.0,M,-34.4,M,,*52
$GPRMC,131659.000,A,4308.3872,N,07726.3796,W,19.35,351.16,230818,,,A*45
$GPGGA,131659.250,4308.3885,N,07726.3797,W,1,11,0.91,150.2,M,-34.4,M,,*57
$GPRMC,131659.500,A,4308.3898,N,07726.3798,W,19.18,353.58,230818,,,A*4D
$GPGGA,131659.750,4308.3912,N,07726.3799,W,1,11,0.91,150.3,M,-34.4,M,,*52
$GPRMC,131700.000,A,4308.3926,N,07726.3799,W,19.23,356.35,230818,,,A*46
$GPGGA,131700.250,4308.3939,N,07726.3798,W,1,11,0.91,150.4,M,-34.4,M,,*55
$GPRMC,131700.500,A,4308.3953,N,07726.3797,W,19.30,359.28,230818,,,A*4E
$GPGGA,131700.750,4308.3967,N,07726.3795,W,1,11,0.91,150.5,M,-34.4,M,,*57
$GPRMC,131701.000,A,4308.3981,N,07726.3793,W,19.60,2.51,230818,,,A*47
$GPGGA,131701.250,4308.3995,N,07726.3791,W,1,11,0.91,150.5,M,-34.4,M,,*5A
$GPRMC,131701.500,A,4308.4009,N,07726.3788,W,19.84,4.97,230818,,,A*40
$GPGGA,131701.750,4308.4022,N,07726.3785,W,1,11,0.91,150.6,M,-34.4,M,,*5B
$GPRMC,131702.000,A,4308.4036,N,07726.3781,W,19.89,7.48,230818,,,A*4F
$GPGGA,131702.250,4308.4049,N,07726.3776,W,1,11,0.91,150.8,M,-34.4,M,,*52
$GPRMC,131702.500,A,4308.4063,N,07726.3772,W,20.36,8.83,230818,,,A*40
$GPGGA,131702.750,4308.4077,N,07726.3768,W,1,11,0.91,151.0,M,-34.4,M,,*5C
$GPRMC,131703.000,A,4308.4091,N,07726.3764,W,20.66,9.24,230818,,,A*47
$GPGGA,131703.250,4308.4106,N,07726.3761,W,1,11,0.91,151.1,M,-34.4,M,,*57
$GPRMC,131703.500,A,4308.4120,N,07726.3757,W,20.89,9.53,230818,,,A*48
$GPGGA,131703.750,4308.4135,N,07726.3753,W,1,11,0.91,151.2,M,-34.4,M,,*50
$GPRMC,131704.000,A,4308.4149,N,07726.3749,W,20.85,9.61,230818,,,A*47
$GPGGA,131704.250,4308.4163,N,07726.3745,W,1,11,0.91,151.2,M,-34.4,M,,*56
$GPRMC,131704.500,A,4308.4178,N,07726.3740,W,20.85,9.40,230818,,,A*4A
$GPGGA,131704.750,4308.4192,N,07726.3736,W,1,11,0.91,151.3,M,-34.4,M,,*58
$GPRMC,131705.000,A,4308.4207,N,07726.3733,W,20.89,9.32,230818,,,A*48
$GPGGA,131705.250,4308.4221,N,07726.3728,W,1,11,0.91,151.4,M,-34.4,M,,*5F
$GPRMC,131705.500,A,4308.4236,N,07726.3724,W,20.93,9.86,230818,,,A*4D
$GPGGA,131705.750,4308.4250,N,07726.3719,W,1,11,0.91,151.4,M,-34.4,M,,*5E
$GPRMC,131706.000,A,4308.4265,N,07726.3715,W,20.57,9.60,230818,,,A*4F
$GPGGA,131706.250,4308.4278,N,07726.3712,W,1,11,0.91,151.5,M,-34.4,M,,*58
$GPRMC,131706.500,A,4308.4292,N,07726.3708,W,20.08,9.86,230818,,,A*4C
$GPGGA,131706.750,4308.4306,N,07726.3704,W,1,11,0.91,151.7,M,-34.4,M,,*50
$GPRMC,131707.000,A,4308.4320,N,07726.3701,W,19.99,9.38,230818,,,A*4E
$GPGGA,131707.250,4308.4334,N,07726.3697,W,1,11,0.91,151.7,M,-34.4,M,,*5E
$GPRMC,131707.500,A,4308.4348,N,07726.3694,W,19.30,9.63,230818,,,A*45
$GPGGA,131707.750,4308.4361,N,07726.3690,W,1,11,0.91,151.6,M,-34.4,M,,*5D
$GPRMC,131708.000,A,4308.4374,N,07726.3687,W,19.35,8.78,230818,,,A*4C
$GPGGA,131708.250,4308.4387,N,07726.3684,W,1,11,0.91,151.9,M,-34.4,M,,*55
$GPRMC,131708.500,A,4308.4400,N,07726.3680,W,18.77,9.15,230818,,,A*47
$GPGGA,131708.750,4308.4413,N,07726.3676,W,1,11,0.91,151.8,M,-34.4,M,,*56
$GPRMC,131709.000,A,4308.4425,N,07726.3673,W,18.10,9.23,230818,,,A*4C
$GPGGA,131709.250,4308.4438,N,07726.3669,W,1,11,0.91,151.6,M,-34.4,M,,*5B
$GPRMC,131709.500,A,4308.4450,N,07726.3666,W,17.87,9.28,230818,,,A*45
$GPGGA,131709.750,4308.4462,N,07726.3662,W,1,11,0.91,151.6,M,-34.4,M,,*5A
$GPRMC,131710.000,A,4308.4474,N,07726.3659,W,16.60,8.56,230818,,,A*42
$GPGGA,131710.250,4308.4488,N,07726.3656,W,1,11,0.91,151.5,M,-34.4,M,,*57
$GPRMC,131710.500,A,4308.4501,N,07726.3653,W,15.52,7.60,230818,,,A*46
$GPGGA,131710.750,4308.4509,N,07726.3650,W,1,11,0.91,151.8,M,-34.4,M,,*51
$GPRMC,131711.000,A,4308.4519,N,07726.3647,W,12.96,9.19,230818,,,A*41
$GPGGA,131711.250,4308.4529,N,07726.3644,W,1,11,0.91,151.6,M,-34.4,M,,*5C
$GPRMC,131711.500,A,4308.4538,N,07726.3641,W,12.65,8.82,230818,,,A*4E
$GPGGA,131711.750,4308.4547,N,07726.3637,W,1,11,0.91,151.5,M,-34.4,M,,*56
$GPRMC,131712.000,A,4308.4556,N,07726.3635,W,11.71,7.60,230818,,,A*46
$GPGGA,131712.250,4308.4563,N,07726.3634,W,1,11,0.91,151.5,M,-34.4,M,,*55
$GPRMC,131712.500,A,4308.4570,N,07726.3633,W,10.37,6.32,230818,,,A*44
$GPGGA,131712.750,4308.4575,N,07726.3632,W,1,11,0.91,151.6,M,-34.4,M,,*52
$GPRMC,131713.000,A,4308.4579,N,07726.3631,W,8.46,7.67,230818,,,A*75
$GPGGA,131713.250,4308.4582,N,07726.3629,W,1,11,0.91,151.7,M,-34.4,M,,*55
$GPRMC,131713.500,A,4308.4586,N,07726.3628,W,7.09,8.53,230818,,,A*74
$GPGGA,131713.750,4308.4589,N,07726.3627,W,1,11,0.91,151.8,M,-34.4,M,,*5A
$GPRMC,131714.000,A,4308.4592,N,07726.3626,W,6.16,7.43,230818,,,A*7C
$GPGGA,131714.250,4308.4596,N,07726.3626,W,1,11,0.91,151.8,M,-34.4,M,,*57
$GPRMC,131714.500,A,4308.4599,N,07726.3626,W,6.06,2.03,230818,,,A*72
$GPGGA,131714.750,4308.4602,N,07726.3626,W,1,11,0.91,151.9,M,-34.4,M,,*5D
$GPRMC,131715.000,A,4308.4606,N,07726.3628,W,6.52,353.80,230818,,,A*70
$GPGGA,131715.250,4308.4610,N,07726.3630,W,1,11,0.91,151.9,M,-34.4,M,,*5D
$GPRMC,131715.500,A,4308.4615,N,07726.3636,W,7.25,339.01,230818,,,A*7C
$GPGGA,131715.750,4308.4621,N,07726.3640,W,1,11,0.91,151.8,M,-34.4,M,,*5C
$GPRMC,131716.000,A,4308.4626,N,07726.3645,W,8.54,324.70,230818,,,A*7D
$GPGGA,131716.250,4308.4630,N,07726.3651,W,1,11,0.90,151.8,M,-34.4,M,,*5B
$GPRMC,131716.500,A,4308.4635,N,07726.3658,W,9.42,311.60,230818,,,A*77
$GPGGA,131716.750,4308.4640,N,07726.3666,W,1,11,0.91,151.7,M,-34.4,M,,*53
$GPRMC,131717.000,A,4308.4642,N,07726.3674,W,10.14,299.04,230818,,,A*45
$GPGGA,131717.250,4308.4644,N,07726.3682,W,1,11,0.91,151.6,M,-34.4,M,,*58
$GPRMC,131717.500,A,4308.4646,N,07726.3691,W,10.46,292.23,230818,,,A*46
$GPGGA,131717.750,4308.4648,N,07726.3701,W,1,11,0.91,151.7,M,-34.4,M,,*5A
$GPRMC,131718.000,A,4308.4652,N,07726.3712,W,11.27,288.77,230818,,,A*4F
$GPGGA,131718.250,4308.4655,N,07726.3722,W,1,11,0.91,151.6,M,-34.4,M,,*5C
$GPRMC,131718.500,A,4308.4656,N,07726.3732,W,11.78,286.34,230818,,,A*4F
$GPGGA,131718.750,4308.4658,N,07726.3743,W,1,11,0.91,151.4,M,-34.4,M,,*51
$GPRMC,131719.000,A,4308.4660,N,07726.3755,W,12.71,283.16,230818,,,A*40
$GPGGA,131719.250,4308.4658,N,07726.3767,W,1,11,0.90,151.2,M,-34.4,M,,*54
$GPRMC,131719.500,A,4308.4657,N,07726.3779,W,13.00,277.51,230818,,,A*40
$GPGGA,131719.750,4308.4656,N,07726.3793,W,1,11,0.91,151.0,M,-34.4,M,,*57
$GPRMC,131720.000,A,4308.4656,N,07726.3807,W,13.69,275.96,230818,,,A*4E
$GPGGA,131720.250,4308.4656,N,07726.3820,W,1,11,0.90,150.8,M,-34.4,M,,*57
$GPRMC,131720.500,A,4308.4656,N,07726.3835,W,14.27,275.33,230818,,,A*48
$GPGGA,131720.750,4308.4657,N,07726.3850,W,1,11,0.91,150.6,M,-34.4,M,,*5B
$GPRMC,131721.000,A,4308.4658,N,07726.3864,W,14.82,275.70,230818,,,A*4E
$GPGGA,131721.250,4308.4659,N,07726.3880,W,1,11,0.90,150.5,M,-34.4,M,,*5E
$GPRMC,131721.500,A,4308.4660,N,07726.3895,W,15.38,276.94,230818,,,A*47
$GPGGA,131721.750,4308.4662,N,07726.3910,W,1,11,0.91,150.5,M,-34.4,M,,*5A
$GPRMC,131722.000,A,4308.4663,N,07726.3925,W,15.59,277.56,230818,,,A*40
$GPGGA,131722.250,4308.4664,N,07726.3940,W,1,11,0.90,150.5,M,-34.4,M,,*5E
$GPRMC,131722.500,A,4308.4666,N,07726.3955,W,15.76,277.66,230818,,,A*49
$GPGGA,131722.750,4308.4667,N,07726.3970,W,1,11,0.91,150.4,M,-34.4,M,,*5B
$GPRMC,131723.000,A,4308.4668,N,07726.3985,W,15.75,277.47,230818,,,A*4E
$GPGGA,131723.250,4308.4669,N,07726.4000,W,1,11,0.90,150.3,M,-34.4,M,,*5E
$GPRMC,131723.500,A,4308.4671,N,07726.4015,W,15.76,277.35,230818,,,A*42
$GPGGA,131723.750,4308.4672,N,07726.4031,W,1,11,0.91,150.3,M,-34.4,M,,*52
$GPRMC,131724.000,A,4308.4673,N,07726.4046,W,15.78,277.11,230818,,,A*4C
$GPGGA,131724.250,4308.4674,N,07726.4062,W,1,11,0.91,150.4,M,-34.4,M,,*57
$GPRMC,131724.500,A,4308.4676,N,07726.4078,W,15.84,276.30,230818,,,A*40
$GPGGA,131724.750,4308.4677,N,07726.4093,W,1,11,0.91,150.3,M,-34.4,M,,*58
$GPRMC,131725.000,A,4308.4678,N,07726.4108,W,15.83,275.28,230818,,,A*41
$GPGGA,131725.250,4308.4679,N,07726.4123,W,1,11,0.90,150.3,M,-34.4,M,,*59
$GPRMC,131725.500,A,4308.4680,N,07726.4138,W,16.03,275.02,230818,,,A*43
$GPGGA,131725.750,4308.4680,N,07726.4154,W,1,11,0.91,150.3,M,-34.4,M,,*5B
$GPRMC,131726.000,A,4308.4682,N,07726.4169,W,15.95,274.26,230818,,,A*48
$GPGGA,131726.250,4308.4683,N,07726.4184,W,1,11,0.91,150.3,M,-34.4,M,,*53
$GPRMC,131726.500,A,4308.4684,N,07726.4199,W,15.53,275.26,230818,,,A*4F
$GPGGA,131726.750,4308.4687,N,07726.4214,W,1,11,0.91,150.2,M,-34.4,M,,*59
$GPRMC,131727.000,A,4308.4691,N,07726.4228,W,15.11,277.25,230818,,,A*41
$GPGGA,131727.250,4308.4694,N,07726.4242,W,1,11,0.91,150.1,M,-34.4,M,,*5F
$GPRMC,131727.500,A,4308.4696,N,07726.4255,W,14.44,277.89,230818,,,A*4E
$GPGGA,131727.750,4308.4698,N,07726.4268,W,1,11,0.91,149.9,M,-34.4,M,,*5E
$GPRMC,131728.000,A,4308.4701,N,07726.4281,W,13.52,278.91,230818,,,A*44
$GPGGA,131728.250,4308.4702,N,07726.4293,W,1,11,0.91,149.6,M,-34.4,M,,*5D
$GPRMC,131728.500,A,4308.4704,N,07726.4306,W,12.90,279.73,230818,,,A*48
$GPGGA,131728.750,4308.4707,N,07726.4316,W,1,11,0.91,149.3,M,-34.4,M,,*54
$GPRMC,131729.000,A,4308.4708,N,07726.4327,W,11.10,279.58,230818,,,A*41
$GPGGA,131729.250,4308.4710,N,07726.4337,W,1,11,0.91,149.0,M,-34.4,M,,*56
$GPRMC,131729.500,A,4308.4711,N,07726.4346,W,10.21,279.50,230818,,,A*40
$GPGGA,131729.750,4308.4713,N,07726.4355,W,1,11,0.91,148.9,M,-34.4,M,,*5C
$GPRMC,131730.000,A,4308.4714,N,07726.4364,W,9.24,279.61,230818,,,A*77
$GPGGA,131730.250,4308.4715,N,07726.4372,W,1,11,0.91,148.7,M,-34.4,M,,*5C
$GPRMC,131730.500,A,4308.4716,N,07726.4379,W,8.19,280.24,230818,,,A*74
$GPGGA,131730.750,4308.4717,N,07726.4385,W,1,11,0.91,148.5,M,-34.4,M,,*51
$GPRMC,131731.000,A,4308.4717,N,07726.4390,W,5.76,277.14,230818,,,A*79
$GPGGA,131731.250,4308.4718,N,07726.4395,W,1,11,0.91,148.2,M,-34.4,M,,*5C
$GPRMC,131731.500,A,4308.4719,N,07726.4399,W,5.01,282.02,230818,,,A*76
$GPGGA,131731.750,4308.4719,N,07726.4402,W,1,11,0.91,148.0,M,-34.4,M,,*53
$GPRMC,131732.000,A,4308.4720,N,07726.4404,W,2.77,283.55,230818,,,A*7C
$GPGGA,131732.250,4308.4721,N,07726.4406,W,1,11,0.90,147.7,M,-34.4,M,,*53
$GPRMC,131732.500,A,4308.4721,N,07726.4407,W,1.46,283.55,230818,,,A*7A
$GPGGA,131732.750,4308.4721,N,07726.4408,W,1,11,0.90,147.6,M,-34.4,M,,*59
$GPRMC,131733.000,A,4308.4721,N,07726.4409,W,1.06,283.55,230818,,,A*74
$GPGGA,131733.250,4308.4721,N,07726.4409,W,1,11,0.90,147.4,M,-34.4,M,,*5E
$GPRMC,131733.500,A,4308.4721,N,07726.4409,W,0.70,283.55,230818,,,A*71
$GPGGA,131733.750,4308.4721,N,07726.4409,W,1,11,0.90,147.2,M,-34.4,M,,*5D
$GPRMC,131734.000,A,4308.4720,N,07726.4407,W,0.13,283.55,230818,,,A*79
$GPGGA,131734.250,4308.4719,N,07726.4407,W,1,11,0.90,147.6,M,-34.4,M,,*5E
$GPRMC,131734.500,A,4308.4719,N,07726.4406,W,0.07,283.55,230818,,,A*72
$GPGGA,131734.750,4308.4719,N,07726.4406,W,1,11,0.90,147.6,M,-34.4,M,,*5A
$GPRMC,131735.000,A,4308.4719,N,07726.4405,W,0.12,283.55,230818,,,A*71
$GPGGA,131735.250,4308.4719,N,07726.4405,W,1,11,0.90,147.6,M,-34.4,M,,*5D
$GPRMC,131735.500,A,4308.4719,N,07726.4405,W,0.10,283.55,230818,,,A*76
$GPGGA,131735.750,4308.4719,N,07726.4405,W,1,11,0.91,147.5,M,-34.4,M,,*5A
$GPRMC,131736.000,A,4308.4719,N,07726.4405,W,0.08,283.55,230818,,,A*79
$GPGGA,131736.250,4308.4719,N,07726.4405,W,1,11,0.90,147.5,M,-34.4,M,,*5D
$GPRMC,131736.500,A,4308.4719,N,07726.4405,W,0.11,283.55,230818,,,A*74
$GPGGA,131736.750,4308.4719,N,07726.4405,W,1,11,0.90,147.4,M,-34.4,M,,*59
$GPRMC,131737.000,A,4308.4719,N,07726.4405,W,0.16,283.55,230818,,,A*77
$GPGGA,131737.250,4308.4719,N,07726.4405,W,1,11,0.90,147.4,M,-34.4,M,,*5D
$GPRMC,131737.500,A,4308.4719,N,07726.4405,W,0.10,283.55,230818,,,A*74
$GPGGA,131737.750,4308.4719,N,07726.4405,W,1,11,0.90,147.4,M,-34.4,M,,*58
$GPRMC,131738.000,A,4308.4719,N,07726.4405,W,0.06,283.55,230818,,,A*79
$GPGGA,131738.250,4308.4719,N,07726.4405,W,1,11,0.90,147.4,M,-34.4,M,,*52
$GPRMC,131738.500,A,4308.4719,N,07726.4405,W,0.05,283.55,230818,,,A*7F
$GPGGA,131738.750,4308.4719,N,07726.4405,W,1,11,0.91,147.3,M,-34.4,M,,*51
$GPRMC,131739.000,A,4308.4719,N,07726.4405,W,0.08,283.55,230818,,,A*76
$GPGGA,131739.250,4308.4719,N,07726.4405,W,1,11,0.90,147.3,M,-34.4,M,,*54
$GPRMC,131739.500,A,4308.4719,N,07726.4405,W,0.05,283.55,230818,,,A*7E
$GPGGA,131739.750,4308.4719,N,07726.4405,W,1,11,0.90,147.3,M,-34.4,M,,*51
$GPRMC,131740.000,A,4308.4719,N,07726.4405,W,0.06,283.55,230818,,,A*76
$GPGGA,131740.250,4308.4719,N,07726.4405,W,1,11,0.91,147.3,M,-34.4,M,,*5B
$GPRMC,131740.500,A,4308.4719,N,07726.4405,W,0.02,283.55,230818,,,A*77
$GPGGA,131740.750,4308.4719,N,07726.4405,W,1,11,0.90,147.3,M,-34.4,M,,*5F
$GPRMC,131741.000,A,4308.4719,N,07726.4405,W,0.05,283.55,230818,,,A*74
$GPGGA,131741.250,4308.4719,N,07726.4405,W,1,11,0.90,147.3,M,-34.4,M,,*5B
$GPRMC,131741.500,A,4308.4719,N,07726.4405,W,0.03,283.55,230818,,,A*77
$GPGGA,131741.750,4308.4719,N,07726.4405,W,1,11,0.90,147.3,M,-34.4,M,,*5E
$GPRMC,131742.000,A,4308.4719,N,07726.4405,W,0.06,283.55,230818,,,A*74
$GPGGA,131742.250,4308.4719,N,07726.4405,W,1,11,0.90,147.3,M,-34.4,M,,*58
$GPRMC,131742.500,A,4308.4719,N,07726.4405,W,0.06,283.55,230818,,,A*71
$GPGGA,131742.750,4308.4719,N,07726.4405,W,1,11,0.90,147.3,M,-34.4,M,,*5D
$GPRMC,131743.000,A,4308.4719,N,07726.4405,W,0.07,283.55,230818,,,A*74
$GPGGA,131743.250,4308.4719,N,07726.4405,W,1,11,0.90,147.3,M,-34.4,M,,*59
$GPRMC,131743.500,A,4308.4719,N,07726.4405,W,0.09,283.55,230818,,,A*7F
$GPGGA,131743.750,4308.4719,N,07726.4405,W,1,11,0.90,147.3,M,-34.4,M,,*5C
$GPRMC,131744.000,A,4308.4719,N,07726.4405,W,0.07,283.55,230818,,,A*73
$GPGGA,131744.250,4308.4719,N,07726.4405,W,1,11,0.90,147.3,M,-34.4,M,,*5E
$GPRMC,131744.500,A,4308.4719,N,07726.4405,W,0.07,283.55,230818,,,A*76
$GPGGA,131744.750,4308.4719,N,07726.4405,W,1,11,0.90,147.3,M,-34.4,M,,*5B
$GPRMC,131745.000,A,4308.4719,N,07726.4405,W,0.08,283.55,230818,,,A*7D
$GPGGA,131745.250,4308.4719,N,07726.4405,W,1,11,0.90,147.3,M,-34.4,M,,*5F
$GPRMC,131745.500,A,4308.4719,N,07726.4405,W,0.24,283.55,230818,,,A*76
$GPGGA,131745.750,4308.4719,N,07726.4405,W,1,11,0.90,147.3,M,-34.4,M,,*5A
$GPRMC,131746.000,A,4308.4719,N,07726.4405,W,0.09,283.55,230818,,,A*7F
$GPGGA,131746.250,4308.4719,N,07726.4405,W,1,11,0.90,147.3,M,-34.4,M,,*5C
$GPRMC,131746.500,A,4308.4719,N,07726.4405,W,0.11,283.55,230818,,,A*73
$GPGGA,131746.750,4308.4719,N,07726.4405,W,1,11,0.90,147.3,M,-34.4,M,,*59
$GPRMC,131747.000,A,4308.4719,N,07726.4405,W,0.24,283.55,230818,,,A*71
$GPGGA,131747.250,4308.4719,N,07726.4404,W,1,11,0.90,147.3,M,-34.4,M,,*5C
$GPRMC,131747.500,A,4308.4719,N,07726.4404,W,0.27,283.55,230818,,,A*76
$GPGGA,131747.750,4308.4719,N,07726.4404,W,1,11,0.90,147.3,M,-34.4,M,,*59
$GPRMC,131748.000,A,4308.4720,N,07726.4404,W,0.17,283.55,230818,,,A*75
$GPGGA,131748.250,4308.4720,N,07726.4404,W,1,11,0.91,147.3,M,-34.4,M,,*58
$GPRMC,131748.500,A,4308.4720,N,07726.4404,W,0.02,283.55,230818,,,A*74
$GPGGA,131748.750,4308.4720,N,07726.4404,W,1,11,0.91,147.3,M,-34.4,M,,*5D
$GPRMC,131749.000,A,4308.4720,N,07726.4404,W,0.03,283.55,230818,,,A*71
$GPGGA,131749.250,4308.4720,N,07726.4404,W,1,11,0.91,147.3,M,-34.4,M,,*59
$GPRMC,131749.500,A,4308.4720,N,07726.4404,W,0.01,283.55,230818,,,A*76
$GPGGA,131749.750,4308.4720,N,07726.4404,W,1,11,0.91,147.4,M,-34.4,M,,*5B
$GPRMC,131750.000,A,4308.4720,N,07726.4404,W,0.00,283.55,230818,,,A*7A
$GPGGA,131750.250,4308.4720,N,07726.4404,W,1,11,0.91,147.4,M,-34.4,M,,*56
$GPRMC,131750.500,A,4308.4720,N,07726.4404,W,0.00,283.55,230818,,,A*7F
$GPGGA,131750.750,4308.4720,N,07726.4404,W,1,11,0.91,147.4,M,-34.4,M,,*53
$GPRMC,131751.000,A,4308.4720,N,07726.4404,W,0.01,283.55,230818,,,A*7A
$GPGGA,131751.250,4308.4720,N,07726.4404,W,1,11,0.91,147.4,M,-34.4,M,,*57
$GPRMC,131751.500,A,4308.4720,N,07726.4404,W,0.02,283.55,230818,,,A*7C
$GPGGA,131751.750,4308.4719,N,07726.4404,W,1,11,0.91,147.4,M,-34.4,M,,*58
$GPRMC,131752.000,A,4308.4719,N,07726.4404,W,0.01,283.55,230818,,,A*73
$GPGGA,131752.250,4308.4719,N,07726.4404,W,1,11,0.91,147.4,M,-34.4,M,,*5E
$GPRMC,131752.500,A,4308.4719,N,07726.4404,W,0.01,283.55,230818,,,A*76
$GPGGA,131752.750,4308.4719,N,07726.4404,W,1,11,0.91,147.4,M,-34.4,M,,*5B
$GPRMC,131753.000,A,4308.4719,N,07726.4404,W,0.02,283.55,230818,,,A*71
$GPGGA,131753.250,4308.4719,N,07726.4404,W,1,11,0.91,147.4,M,-34.4,M,,*5F
$GPRMC,131753.500,A,4308.4720,N,07726.4404,W,0.01,283.55,230818,,,A*7D
$GPGGA,131753.750,4308.4720,N,07726.4404,W,1,11,0.91,147.4,M,-34.4,M,,*50
$GPRMC,131754.000,A,4308.4720,N,07726.4404,W,0.01,283.55,230818,,,A*7F
$GPGGA,131754.250,4308.4720,N,07726.4404,W,1,11,0.91,147.4,M,-34.4,M,,*52
$GPRMC,131754.500,A,4308.4720,N,07726.4404,W,0.00,283.55,230818,,,A*7B
$GPGGA,131754.750,4308.4720,N,07726.4404,W,1,11,0.91,147.4,M,-34.4,M,,*57
$GPRMC,131755.000,A,4308.4720,N,07726.4404,W,0.01,283.55,230818,,,A*7E
$GPGGA,131755.250,4308.4720,N,07726.4404,W,1,11,0.91,147.4,M,-34.4,M,,*53
$GPRMC,131755.500,A,4308.4720,N,07726.4404,W,0.00,283.55,230818,,,A*7A
$GPGGA,131755.750,4308.4720,N,07726.4404,W,1,11,0.91,147.4,M,-34.4,M,,*56
$GPRMC,131756.000,A,4308.4720,N,07726.4404,W,0.02,283.55,230818,,,A*7E
$GPGGA,131756.250,4308.4720,N,07726.4404,W,1,11,0.91,147.4,M,-34.4,M,,*50
$GPRMC,131756.500,A,4308.4720,N,07726.4404,W,0.03,283.55,230818,,,A*7A
$GPGGA,131756.750,4308.4720,N,07726.4404,W,1,11,0.91,147.4,M,-34.4,M,,*55
$GPRMC,131757.000,A,4308.4720,N,07726.4404,W,0.01,283.55,230818,,,A*7C
$GPGGA,131757.250,4308.4720,N,07726.4404,W,1,11,0.91,147.4,M,-34.4,M,,*51
$GPRMC,131757.500,A,4308.4720,N,07726.4404,W,0.00,283.55,230818,,,A*78
$GPGGA,131757.750,4308.4720,N,07726.4404,W,1,11,0.91,147.4,M,-34.4,M,,*54
$GPRMC,131758.000,A,4308.4720,N,07726.4404,W,0.02,283.55,230818,,,A*70
$GPGGA,131758.250,4308.4720,N,07726.4404,W,1,11,0.91,147.4,M,-34.4,M,,*5E
$GPRMC,131758.500,A,4308.4720,N,07726.4404,W,0.02,283.55,230818,,,A*75
$GPGGA,131758.750,4308.4720,N,07726.4404,W,1,11,0.91,147.4,M,-34.4,M,,*5B
$GPRMC,131759.000,A,4308.4720,N,07726.4404,W,0.02,283.55,230818,,,A*71
$GPGGA,131759.250,4308.4720,N,07726.4404,W,1,11,0.91,147.4,M,-34.4,M,,*5F
$GPRMC,131759.500,A,4308.4720,N,07726.4404,W,0.01,283.55,230818,,,A*77
$GPGGA,131759.750,4308.4720,N,07726.4404,W,1,11,0.91,147.4,M,-34.4,M,,*5A
$GPRMC,131800.000,A,4308.4720,N,07726.4404,W,0.01,283.55,230818,,,A*71
$GPGGA,131800.250,4308.4720,N,07726.4404,W,1,11,0.91,147.4,M,-34.4,M,,*5C
$GPRMC,131800.500,A,4308.4720,N,07726.4404,W,0.03,283.55,230818,,,A*76
$GPGGA,131800.750,4308.4720,N,07726.4404,W,1,11,0.91,147.4,M,-34.4,M,,*59
$GPRMC,131801.000,A,4308.4720,N,07726.4404,W,0.04,283.55,230818,,,A*75
$GPGGA,131801.250,4308.4720,N,07726.4404,W,1,11,0.91,147.4,M,-34.4,M,,*5D
$GPRMC,131801.500,A,4308.4720,N,07726.4404,W,0.02,283.55,230818,,,A*76
$GPGGA,131801.750,4308.4720,N,07726.4404,W,1,11,0.91,147.4,M,-34.4,M,,*58
$GPRMC,131802.000,A,4308.4720,N,07726.4404,W,0.01,283.55,230818,,,A*73
$GPGGA,131802.250,4308.4720,N,07726.4404,W,1,11,0.91,147.4,M,-34.4,M,,*5E
$GPRMC,131802.500,A,4308.4720,N,07726.4404,W,0.00,283.55,230818,,,A*77
$GPGGA,131802.750,4308.4720,N,07726.4404,W,1,11,0.91,147.4,M,-34.4,M,,*5B
$GPRMC,131803.000,A,4308.4720,N,07726.4404,W,0.00,283.55,230818,,,A*73
$GPGGA,131803.250,4308.4720,N,07726.4404,W,1,11,0.91,147.4,M,-34.4,M,,*5F
$GPRMC,131803.500,A,4308.4720,N,07726.4404,W,0.01,283.55,230818,,,A*77
$GPGGA,131803.750,4308.4720,N,07726.4404,W,1,11,0.91,147.4,M,-34.4,M,,*5A
$GPRMC,131804.000,A,4308.4720,N,07726.4404,W,0.00,283.55,230818,,,A*74
$GPGGA,131804.250,4308.4720,N,07726.4404,W,1,11,0.91,147.3,M,-34.4,M,,*5F
$GPRMC,131804.500,A,4308.4720,N,07726.4404,W,0.01,283.55,230818,,,A*70
$GPGGA,131804.750,4308.4720,N,07726.4404,W,1,11,0.91,147.3,M,-34.4,M,,*5A
$GPRMC,131805.000,A,4308.4720,N,07726.4404,W,0.00,283.55,230818,,,A*75
$GPGGA,131805.250,4308.4720,N,07726.4404,W,1,11,0.91,147.3,M,-34.4,M,,*5E
$GPRMC,131805.500,A,4308.4720,N,07726.4404,W,0.02,283.55,230818,,,A*72
$GPGGA,131805.750,4308.4720,N,07726.4404,W,1,11,0.91,147.3,M,-34.4,M,,*5B
$GPRMC,131806.000,A,4308.4720,N,07726.4404,W,0.01,283.55,230818,,,A*77
$GPGGA,131806.250,4308.4720,N,07726.4404,W,1,11,0.91,147.3,M,-34.4,M,,*5D
$GPRMC,131806.500,A,4308.4720,N,07726.4404,W,0.02,283.55,230818,,,A*71
$GPGGA,131806.750,4308.4720,N,07726.4404,W,1,11,0.91,147.3,M,-34.4,M,,*58
$GPRMC,131807.000,A,4308.4720,N,07726.4404,W,0.01,283.55,230818,,,A*76
$GPGGA,131807.250,4308.4720,N,07726.4404,W,1,11,0.91,147.3,M,-34.4,M,,*5C
$GPRMC,131807.500,A,4308.4720,N,07726.4404,W,0.01,283.55,230818,,,A*73
$GPGGA,131807.750,4308.4720,N,07726.4404,W,1,11,0.91,147.3,M,-34.4,M,,*59
$GPRMC,131808.000,A,4308.4720,N,07726.4404,W,0.01,283.55,230818,,,A*79
$GPGGA,131808.250,4308.4720,N,07726.4404,W,1,11,0.91,147.3,M,-34.4,M,,*53
$GPRMC,131808.500,A,4308.4720,N,07726.4404,W,0.01,283.55,230818,,,A*7C
$GPGGA,131808.750,4308.4720,N,07726.4404,W,1,11,0.91,147.3,M,-34.4,M,,*56
$GPRMC,131809.000,A,4308.4720,N,07726.4404,W,0.01,283.55,230818,,,A*78
$GPGGA,131809.250,4308.4720,N,07726.4404,W,1,11,0.91,147.3,M,-34.4,M,,*52
$GPRMC,131809.500,A,4308.4720,N,07726.4404,W,0.00,283.55,230818,,,A*7C
$GPGGA,131809.750,4308.4720,N,07726.4404,W,1,11,0.91,147.3,M,-34.4,M,,*57
$GPRMC,131810.000,A,4308.4720,N,07726.4404,W,0.01,283.55,230818,,,A*70
$GPGGA,131810.250,4308.4720,N,07726.4404,W,1,11,0.91,147.3,M,-34.4,M,,*5A
$GPRMC,131810.500,A,4308.4720,N,07726.4404,W,0.02,283.55,230818,,,A*76
$GPGGA,131810.750,4308.4720,N,07726.4404,W,1,11,0.91,147.3,M,-34.4,M,,*5F
$GPRMC,131811.000,A,4308.4720,N,07726.4404,W,0.01,283.55,230818,,,A*71
$GPGGA,131811.250,4308.4720,N,07726.4404,W,1,11,0.91,147.3,M,-34.4,M,,*5B
$GPRMC,131811.500,A,4308.4720,N,07726.4404,W,0.01,283.55,230818,,,A*74
$GPGGA,131811.750,4308.4720,N,07726.4404,W,1,11,0.91,147.3,M,-34.4,M,,*5E
$GPRMC,131812.000,A,4308.4720,N,07726.4404,W,0.00,283.55,230818,,,A*73
$GPGGA,131812.250,4308.4720,N,07726.4404,W,1,11,0.91,147.3,M,-34.4,M,,*58
$GPRMC,131812.500,A,4308.4720,N,07726.4404,W,0.02,283.55,230818,,,A*74
$GPGGA,131812.750,4308.4720,N,07726.4404,W,1,11,0.91,147.3,M,-34.4,M,,*5D
$GPRMC,131813.000,A,4308.4720,N,07726.4404,W,0.00,283.55,230818,,,A*72
$GPGGA,131813.250,4308.4720,N,07726.4404,W,1,11,0.91,147.3,M,-34.4,M,,*59
$GPRMC,131813.500,A,4308.4720,N,07726.4404,W,0.01,283.55,230818,,,A*76
$GPGGA,131813.750,4308.4720,N,07726.4404,W,1,11,0.91,147.3,M,-34.4,M,,*5C
$GPRMC,131814.000,A,4308.4720,N,07726.4404,W,0.00,283.55,230818,,,A*75
$GPGGA,131814.250,4308.4720,N,07726.4404,W,1,11,0.91,147.3,M,-34.4,M,,*5E
$GPRMC,131814.500,A,4308.4720,N,07726.4404,W,0.01,283.55,230818,,,A*71
$GPGGA,131814.750,4308.4720,N,07726.4404,W,1,11,0.91,147.3,M,-34.4,M,,*5B
$GPRMC,131815.000,A,4308.4720,N,07726.4404,W,0.01,283.55,230818,,,A*75
$GPGGA,131815.250,4308.4720,N,07726.4404,W,1,11,0.91,147.3,M,-34.4,M,,*5F
$GPRMC,131815.500,A,4308.4720,N,07726.4404,W,0.01,283.55,230818,,,A*70
$GPGGA,131815.750,4308.4720,N,07726.4404,W,1,11,0.91,147.3,M,-34.4,M,,*5A
$GPRMC,131816.000,A,4308.4720,N,07726.4404,W,0.01,283.55,230818,,,A*76
$GPGGA,131816.250,4308.4720,N,07726.4404,W,1,11,0.91,147.3,M,-34.4,M,,*5C
$GPRMC,131816.500,A,4308.4720,N,07726.4404,W,0.02,283.55,230818,,,A*70
$GPGGA,131816.750,4308.4720,N,07726.4404,W,1,11,0.91,147.3,M,-34.4,M,,*59
$GPRMC,131817.000,A,4308.4720,N,07726.4404,W,0.00,283.55,230818,,,A*76
$GPGGA,131817.250,4308.4720,N,07726.4404,W,1,11,0.91,147.3,M,-34.4,M,,*5D
$GPRMC,131817.500,A,4308.4720,N,07726.4404,W,0.00,283.55,230818,,,A*73
$GPGGA,131817.750,4308.4720,N,07726.4404,W,1,11,0.91,147.3,M,-34.4,M,,*58
$GPRMC,131818.000,A,4308.4720,N,07726.4404,W,0.00,283.55,230818,,,A*79
$GPGGA,131818.250,4308.4720,N,07726.4404,W,1,11,0.91,147.3,M,-34.4,M,,*52
$GPRMC,131818.500,A,4308.4720,N,07726.4404,W,0.00,283.55,230818,,,A*7C
$GPGGA,131818.750,4308.4720,N,07726.4404,W,1,11,0.91,147.3,M,-34.4,M,,*57
$GPRMC,131819.000,A,4308.4720,N,07726.4404,W,0.34,283.55,230818,,,A*7F
$GPGGA,131819.250,4308.4720,N,07726.4404,W,1,11,0.90,147.3,M,-34.4,M,,*52
$GPRMC,131819.500,A,4308.4720,N,07726.4404,W,0.74,283.55,230818,,,A*7E
$GPGGA,131819.750,4308.4721,N,07726.4405,W,1,11,0.90,147.3,M,-34.4,M,,*57
$GPRMC,131820.000,A,4308.4721,N,07726.4409,W,5.04,280.59,230818,,,A*70
$GPGGA,131820.250,4308.4722,N,07726.4415,W,1,11,0.91,147.4,M,-34.4,M,,*5C
$GPRMC,131820.500,A,4308.4722,N,07726.4420,W,5.90,278.96,230818,,,A*74
$GPGGA,131820.750,4308.4723,N,07726.4426,W,1,11,0.91,147.4,M,-34.4,M,,*58
$GPRMC,131821.000,A,4308.4723,N,07726.4433,W,7.58,275.12,230818,,,A*74
$GPGGA,131821.250,4308.4724,N,07726.4442,W,1,11,0.91,147.3,M,-34.4,M,,*5E
$GPRMC,131821.500,A,4308.4725,N,07726.4451,W,9.50,278.04,230818,,,A*7F
$GPGGA,131821.750,4308.4726,N,07726.4460,W,1,11,0.91,147.2,M,-34.4,M,,*58
$GPRMC,131822.000,A,4308.4727,N,07726.4470,W,10.95,278.68,230818,,,A*43
$GPGGA,131822.250,4308.4728,N,07726.4481,W,1,11,0.91,147.2,M,-34.4,M,,*5F
$GPRMC,131822.500,A,4308.4729,N,07726.4492,W,10.80,278.11,230818,,,A*4E
$GPGGA,131822.750,4308.4730,N,07726.4502,W,1,11,0.91,147.2,M,-34.4,M,,*59
$GPRMC,131823.000,A,4308.4731,N,07726.4513,W,11.00,279.45,230818,,,A*42
$GPGGA,131823.250,4308.4732,N,07726.4523,W,1,11,0.91,147.2,M,-34.4,M,,*5C
$GPRMC,131823.500,A,4308.4733,N,07726.4534,W,12.02,276.18,230818,,,A*46
$GPGGA,131823.750,4308.4734,N,07726.4546,W,1,11,0.91,147.2,M,-34.4,M,,*5C
$GPRMC,131824.000,A,4308.4735,N,07726.4558,W,12.64,275.90,230818,,,A*4B
$GPGGA,131824.250,4308.4736,N,07726.4570,W,1,11,0.91,147.3,M,-34.4,M,,*58
$GPRMC,131824.500,A,4308.4738,N,07726.4583,W,13.71,277.56,230818,,,A*48
$GPGGA,131824.750,4308.4739,N,07726.4597,W,1,11,0.91,147.4,M,-34.4,M,,*5C
$GPRMC,131825.000,A,4308.4740,N,07726.4611,W,15.22,277.92,230818,,,A*43
$GPGGA,131825.250,4308.4742,N,07726.4626,W,1,11,0.91,147.5,M,-34.4,M,,*5C
$GPRMC,131825.500,A,4308.4743,N,07726.4642,W,16.86,278.27,230818,,,A*4F
$GPGGA,131825.750,4308.4745,N,07726.4658,W,1,11,0.91,147.6,M,-34.4,M,,*54
$GPRMC,131826.000,A,4308.4747,N,07726.4675,W,18.15,278.51,230818,,,A*4C
$GPGGA,131826.250,4308.4748,N,07726.4692,W,1,11,0.91,147.8,M,-34.4,M,,*57
$GPRMC,131826.500,A,4308.4750,N,07726.4710,W,19.02,278.51,230818,,,A*4A
$GPGGA,131826.750,4308.4752,N,07726.4729,W,1,11,0.91,148.0,M,-34.4,M,,*5F
$GPRMC,131827.000,A,4308.4754,N,07726.4748,W,20.69,277.80,230818,,,A*43
$GPGGA,131827.250,4308.4755,N,07726.4767,W,1,11,0.91,148.2,M,-34.4,M,,*54
$GPRMC,131827.500,A,4308.4757,N,07726.4787,W,20.93,277.10,230818,,,A*4A
$GPGGA,131827.750,4308.4758,N,07726.4807,W,1,11,0.91,148.4,M,-34.4,M,,*53
$GPRMC,131828.000,A,4308.4759,N,07726.4828,W,21.89,275.62,230818,,,A*49
$GPGGA,131828.250,4308.4761,N,07726.4849,W,1,11,0.91,148.7,M,-34.4,M,,*5A
$GPRMC,131828.500,A,4308.4762,N,07726.4871,W,22.83,275.06,230818,,,A*43
$GPGGA,131828.750,4308.4763,N,07726.4893,W,1,11,0.91,148.9,M,-34.4,M,,*54
$GPRMC,131829.000,A,4308.4764,N,07726.4915,W,23.46,274.34,230818,,,A*4A
$GPGGA,131829.250,4308.4766,N,07726.4938,W,1,11,0.91,149.2,M,-34.4,M,,*5F
$GPRMC,131829.500,A,4308.4768,N,07726.4960,W,23.84,275.21,230818,,,A*4A
$GPGGA,131829.750,4308.4770,N,07726.4984,W,1,11,0.91,149.4,M,-34.4,M,,*5C
$GPRMC,131830.000,A,4308.4772,N,07726.5007,W,24.36,275.73,230818,,,A*4C
$GPGGA,131830.250,4308.4774,N,07726.5030,W,1,11,0.91,149.5,M,-34.4,M,,*53
$GPRMC,131830.500,A,4308.4776,N,07726.5054,W,24.88,276.39,230818,,,A*43
$GPGGA,131830.750,4308.4778,N,07726.5078,W,1,11,0.91,149.7,M,-34.4,M,,*54
$GPRMC,131831.000,A,4308.4780,N,07726.5103,W,25.84,276.33,230818,,,A*4A
$GPGGA,131831.250,4308.4782,N,07726.5128,W,1,11,0.91,149.7,M,-34.4,M,,*51
$GPRMC,131831.500,A,4308.4784,N,07726.5153,W,26.95,276.34,230818,,,A*4A
$GPGGA,131831.750,4308.4786,N,07726.5179,W,1,11,0.91,149.9,M,-34.4,M,,*5A
$GPRMC,131832.000,A,4308.4788,N,07726.5206,W,28.23,275.56,230818,,,A*47
$GPGGA,131832.250,4308.4790,N,07726.5233,W,1,11,0.91,150.0,M,-34.4,M,,*57
$GPRMC,131832.500,A,4308.4791,N,07726.5262,W,29.47,274.85,230818,,,A*44
$GPGGA,131832.750,4308.4793,N,07726.5290,W,1,11,0.91,150.2,M,-34.4,M,,*5A
$GPRMC,131833.000,A,4308.4794,N,07726.5320,W,30.81,274.90,230818,,,A*44
$GPGGA,131833.250,4308.4796,N,07726.5349,W,1,11,0.91,150.4,M,-34.4,M,,*58
$GPRMC,131833.500,A,4308.4798,N,07726.5380,W,32.08,274.59,230818,,,A*41
$GPGGA,131833.750,4308.4799,N,07726.5411,W,1,11,0.91,150.6,M,-34.4,M,,*5A
$GPRMC,131834.000,A,4308.4800,N,07726.5443,W,32.73,273.62,230818,,,A*46
$GPGGA,131834.250,4308.4801,N,07726.5474,W,1,11,0.91,150.8,M,-34.4,M,,*5B
$GPRMC,131834.500,A,4308.4802,N,07726.5506,W,32.76,273.54,230818,,,A*41
$GPGGA,131834.750,4308.4803,N,07726.5537,W,1,11,0.91,151.0,M,-34.4,M,,*53
$GPRMC,131835.000,A,4308.4804,N,07726.5567,W,31.88,273.44,230818,,,A*47
$GPGGA,131835.250,4308.4806,N,07726.5598,W,1,11,0.91,151.0,M,-34.4,M,,*57
$GPRMC,131835.500,A,4308.4807,N,07726.5629,W,31.80,273.33,230818,,,A*40
$GPGGA,131835.750,4308.4808,N,07726.5660,W,1,11,0.91,151.2,M,-34.4,M,,*5A
$GPRMC,131836.000,A,4308.4809,N,07726.5692,W,32.20,272.24,230818,,,A*46
$GPGGA,131836.250,4308.4810,N,07726.5724,W,1,11,0.91,151.4,M,-34.4,M,,*52
$GPRMC,131836.500,A,4308.4811,N,07726.5756,W,32.95,271.97,230818,,,A*46
$GPGGA,131836.750,4308.4812,N,07726.5788,W,1,11,0.91,151.7,M,-34.4,M,,*50
$GPRMC,131837.000,A,4308.4813,N,07726.5821,W,33.65,272.09,230818,,,A*45
$GPGGA,131837.250,4308.4814,N,07726.5854,W,1,11,0.91,151.9,M,-34.4,M,,*52
$GPRMC,131837.500,A,4308.4815,N,07726.5887,W,34.29,272.07,230818,,,A*4B
$GPGGA,131837.750,4308.4815,N,07726.5920,W,1,11,0.91,152.2,M,-34.4,M,,*5C
$GPRMC,131838.000,A,4308.4816,N,07726.5953,W,34.53,271.13,230818,,,A*41
$GPGGA,131838.250,4308.4816,N,07726.5986,W,1,11,0.90,152.5,M,-34.4,M,,*5F
$GPRMC,131838.500,A,4308.4817,N,07726.6019,W,34.76,271.00,230818,,,A*44
$GPGGA,131838.750,4308.4818,N,07726.6052,W,1,11,0.91,152.6,M,-34.4,M,,*55
$GPRMC,131839.000,A,4308.4818,N,07726.6085,W,34.68,270.41,230818,,,A*41
$GPGGA,131839.250,4308.4818,N,07726.6118,W,1,11,0.91,152.7,M,-34.4,M,,*5F
$GPRMC,131839.500,A,4308.4818,N,07726.6150,W,34.05,270.83,230818,,,A*48
$GPGGA,131839.750,4308.4819,N,07726.6182,W,1,11,0.91,152.9,M,-34.4,M,,*56
$GPRMC,131840.000,A,4308.4819,N,07726.6214,W,33.62,270.76,230818,,,A*4D
$GPGGA,131840.250,4308.4820,N,07726.6246,W,1,11,0.90,153.0,M,-34.4,M,,*55
$GPRMC,131840.500,A,4308.4820,N,07726.6278,W,33.48,270.89,230818,,,A*40
$GPGGA,131840.750,4308.4821,N,07726.6310,W,1,11,0.91,153.2,M,-34.4,M,,*50
$GPRMC,131841.000,A,4308.4822,N,07726.6342,W,33.36,271.02,230818,,,A*45
$GPGGA,131841.250,4308.4821,N,07726.6374,W,1,11,0.90,153.3,M,-34.4,M,,*56
$GPRMC,131841.500,A,4308.4821,N,07726.6406,W,33.27,269.99,230818,,,A*4F
$GPGGA,131841.750,4308.4821,N,07726.6438,W,1,11,0.91,153.4,M,-34.4,M,,*5A
$GPRMC,131842.000,A,4308.4820,N,07726.6470,W,33.24,269.44,230818,,,A*4A
$GPGGA,131842.250,4308.4819,N,07726.6502,W,1,11,0.90,153.5,M,-34.4,M,,*5F
$GPRMC,131842.500,A,4308.4818,N,07726.6534,W,33.52,268.40,230818,,,A*41
$GPGGA,131842.750,4308.4817,N,07726.6566,W,1,11,0.91,153.6,M,-34.4,M,,*54
$GPRMC,131843.000,A,4308.4816,N,07726.6599,W,34.12,266.84,230818,,,A*49
$GPGGA,131843.250,4308.4814,N,07726.6632,W,1,11,0.90,153.7,M,-34.4,M,,*51
$GPRMC,131843.500,A,4308.4813,N,07726.6665,W,34.53,266.28,230818,,,A*4A
$GPGGA,131843.750,4308.4811,N,07726.6698,W,1,11,0.91,153.9,M,-34.4,M,,*5E
$GPRMC,131844.000,A,4308.4809,N,07726.6731,W,34.76,266.44,230818,,,A*4E
$GPGGA,131844.250,4308.4808,N,07726.6764,W,1,11,0.91,154.0,M,-34.4,M,,*58
$GPRMC,131844.500,A,4308.4806,N,07726.6798,W,34.75,265.94,230818,,,A*4A
$GPGGA,131844.750,4308.4804,N,07726.6831,W,1,11,0.91,154.1,M,-34.4,M,,*5F
$GPRMC,131845.000,A,4308.4802,N,07726.6864,W,34.67,265.64,230818,,,A*4A
$GPGGA,131845.250,4308.4800,N,07726.6897,W,1,11,0.90,154.3,M,-34.4,M,,*50
$GPRMC,131845.500,A,4308.4798,N,07726.6930,W,34.90,265.04,230818,,,A*4D
$GPGGA,131845.750,4308.4797,N,07726.6963,W,1,11,0.91,154.4,M,-34.4,M,,*58
$GPRMC,131846.000,A,4308.4795,N,07726.6996,W,34.88,264.66,230818,,,A*46
$GPGGA,131846.250,4308.4792,N,07726.7029,W,1,11,0.90,154.5,M,-34.4,M,,*5D
$GPRMC,131846.500,A,4308.4790,N,07726.7062,W,34.79,264.39,230818,,,A*41
$GPGGA,131846.750,4308.4787,N,07726.7096,W,1,11,0.91,154.6,M,-34.4,M,,*5A
$GPRMC,131847.000,A,4308.4785,N,07726.7129,W,34.81,264.35,230818,,,A*44
$GPGGA,131847.250,4308.4783,N,07726.7162,W,1,11,0.91,154.8,M,-34.4,M,,*5E
$GPRMC,131847.500,A,4308.4781,N,07726.7195,W,34.63,263.98,230818,,,A*4E
$GPGGA,131847.750,4308.4779,N,07726.7227,W,1,11,0.91,155.0,M,-34.4,M,,*55
$GPRMC,131848.000,A,4308.4776,N,07726.7260,W,34.35,264.00,230818,,,A*40
$GPGGA,131848.250,4308.4774,N,07726.7293,W,1,11,0.91,155.1,M,-34.4,M,,*5C
$GPRMC,131848.500,A,4308.4772,N,07726.7325,W,34.10,264.54,230818,,,A*47
$GPGGA,131848.750,4308.4770,N,07726.7357,W,1,11,0.91,155.3,M,-34.4,M,,*56
$GPRMC,131849.000,A,4308.4768,N,07726.7389,W,34.05,264.83,230818,,,A*40
$GPGGA,131849.250,4308.4765,N,07726.7422,W,1,11,0.91,155.4,M,-34.4,M,,*54
$GPRMC,131849.500,A,4308.4763,N,07726.7454,W,34.02,264.04,230818,,,A*41
$GPGGA,131849.750,4308.4761,N,07726.7486,W,1,11,0.91,155.7,M,-34.4,M,,*58
$GPRMC,131850.000,A,4308.4758,N,07726.7517,W,33.73,263.71,230818,,,A*46
$GPGGA,131850.250,4308.4756,N,07726.7549,W,1,11,0.91,155.9,M,-34.4,M,,*5D
$GPRMC,131850.500,A,4308.4753,N,07726.7580,W,33.47,263.80,230818,,,A*4F
$GPGGA,131850.750,4308.4751,N,07726.7612,W,1,11,0.91,156.1,M,-34.4,M,,*59
$GPRMC,131851.000,A,4308.4749,N,07726.7643,W,33.15,264.64,230818,,,A*46
$GPGGA,131851.250,4308.4748,N,07726.7674,W,1,11,0.91,156.4,M,-34.4,M,,*50
$GPRMC,131851.500,A,4308.4746,N,07726.7704,W,32.82,264.96,230818,,,A*4C
$GPGGA,131851.750,4308.4744,N,07726.7734,W,1,11,0.91,156.5,M,-34.4,M,,*5D
$GPRMC,131852.000,A,4308.4742,N,07726.7764,W,32.52,264.65,230818,,,A*49
$GPGGA,131852.250,4308.4740,N,07726.7794,W,1,11,0.91,156.7,M,-34.4,M,,*57
$GPRMC,131852.500,A,4308.4738,N,07726.7824,W,30.98,264.84,230818,,,A*41
$GPGGA,131852.750,4308.4736,N,07726.7853,W,1,11,0.91,156.5,M,-34.4,M,,*55
$GPRMC,131853.000,A,4308.4734,N,07726.7882,W,30.54,264.36,230818,,,A*4C
$GPGGA,131853.250,4308.4732,N,07726.7911,W,1,11,0.91,156.2,M,-34.4,M,,*55
$GPRMC,131853.500,A,4308.4730,N,07726.7939,W,30.46,262.77,230818,,,A*4C
$GPGGA,131853.750,4308.4727,N,07726.7968,W,1,11,0.91,155.9,M,-34.4,M,,*52
$GPRMC,131854.000,A,4308.4724,N,07726.7997,W,30.51,262.02,230818,,,A*4B
$GPGGA,131854.250,4308.4721,N,07726.8026,W,1,11,0.91,156.0,M,-34.4,M,,*50
$GPRMC,131854.500,A,4308.4718,N,07726.8055,W,30.73,262.13,230818,,,A*49
$GPGGA,131854.750,4308.4716,N,07726.8084,W,1,11,0.91,156.1,M,-34.4,M,,*58
$GPRMC,131855.000,A,4308.4713,N,07726.8113,W,30.76,263.41,230818,,,A*46
$GPGGA,131855.250,4308.4710,N,07726.8142,W,1,11,0.91,156.2,M,-34.4,M,,*52
$GPRMC,131855.500,A,4308.4708,N,07726.8171,W,30.54,263.50,230818,,,A*4D
$GPGGA,131855.750,4308.4705,N,07726.8200,W,1,11,0.91,156.3,M,-34.4,M,,*57
$GPRMC,131856.000,A,4308.4702,N,07726.8228,W,30.19,263.13,230818,,,A*40
$GPGGA,131856.250,4308.4700,N,07726.8257,W,1,11,0.91,156.2,M,-34.4,M,,*57
$GPRMC,131856.500,A,4308.4697,N,07726.8285,W,30.17,262.32,230818,,,A*43
$GPGGA,131856.750,4308.4695,N,07726.8314,W,1,11,0.91,156.1,M,-34.4,M,,*5A
$GPRMC,131857.000,A,4308.4693,N,07726.8343,W,30.16,262.97,230818,,,A*46
$GPGGA,131857.250,4308.4690,N,07726.8372,W,1,11,0.91,156.1,M,-34.4,M,,*5B
$GPRMC,131857.500,A,4308.4688,N,07726.8401,W,30.59,262.86,230818,,,A*43
$GPGGA,131857.750,4308.4686,N,07726.8431,W,1,11,0.91,155.7,M,-34.4,M,,*5C
$GPRMC,131858.000,A,4308.4685,N,07726.8461,W,31.65,263.53,230818,,,A*45
$GPGGA,131858.250,4308.4683,N,07726.8491,W,1,11,0.91,155.3,M,-34.4,M,,*5D
$GPRMC,131858.500,A,4308.4681,N,07726.8521,W,31.73,264.41,230818,,,A*42
$GPGGA,131858.750,4308.4680,N,07726.8552,W,1,11,0.91,155.1,M,-34.4,M,,*57
$GPRMC,131859.000,A,4308.4678,N,07726.8582,W,32.17,264.29,230818,,,A*46
$GPGGA,131859.250,4308.4676,N,07726.8613,W,1,11,0.91,155.0,M,-34.4,M,,*5D
$GPRMC,131859.500,A,4308.4674,N,07726.8643,W,32.24,264.22,230818,,,A*4A
$GPGGA,131859.750,4308.4672,N,07726.8674,W,1,11,0.91,154.7,M,-34.4,M,,*5B
$GPRMC,131900.000,A,4308.4670,N,07726.8705,W,32.53,264.05,230818,,,A*40
$GPGGA,131900.250,4308.4668,N,07726.8736,W,1,11,0.91,154.3,M,-34.4,M,,*5B
$GPRMC,131900.500,A,4308.4667,N,07726.8768,W,32.73,264.99,230818,,,A*4F
$GPGGA,131900.750,4308.4665,N,07726.8799,W,1,11,0.91,153.9,M,-34.4,M,,*5B
$GPRMC,131901.000,A,4308.4664,N,07726.8830,W,32.48,265.29,230818,,,A*48
$GPGGA,131901.250,4308.4663,N,07726.8861,W,1,11,0.91,153.6,M,-34.4,M,,*5E
$GPRMC,131901.500,A,4308.4662,N,07726.8891,W,32.48,264.95,230818,,,A*46
$GPGGA,131901.750,4308.4660,N,07726.8921,W,1,11,0.91,153.3,M,-34.4,M,,*58
$GPRMC,131902.000,A,4308.4658,N,07726.8951,W,32.29,264.79,230818,,,A*41
$GPGGA,131902.250,4308.4656,N,07726.8981,W,1,11,0.91,153.2,M,-34.4,M,,*50
$GPRMC,131902.500,A,4308.4655,N,07726.9011,W,31.27,264.80,230818,,,A*4E
$GPGGA,131902.750,4308.4653,N,07726.9040,W,1,11,0.91,153.1,M,-34.4,M,,*56
$GPRMC,131903.000,A,4308.4651,N,07726.9069,W,30.77,264.17,230818,,,A*4B
$GPGGA,131903.250,4308.4649,N,07726.9098,W,1,11,0.91,152.8,M,-34.4,M,,*54
$GPRMC,131903.500,A,4308.4648,N,07726.9128,W,30.77,264.76,230818,,,A*45
$GPGGA,131903.750,4308.4646,N,07726.9157,W,1,11,0.91,152.5,M,-34.4,M,,*51
$GPRMC,131904.000,A,4308.4644,N,07726.9186,W,30.55,264.24,230818,,,A*48
$GPGGA,131904.250,4308.4642,N,07726.9215,W,1,11,0.91,152.3,M,-34.4,M,,*54
$GPRMC,131904.500,A,4308.4640,N,07726.9244,W,30.23,264.30,230818,,,A*40
$GPGGA,131904.750,4308.4638,N,07726.9272,W,1,11,0.91,152.0,M,-34.4,M,,*5E
$GPRMC,131905.000,A,4308.4637,N,07726.9301,W,30.12,265.20,230818,,,A*46
$GPGGA,131905.250,4308.4635,N,07726.9329,W,1,11,0.91,151.5,M,-34.4,M,,*5E
$GPRMC,131905.500,A,4308.4634,N,07726.9357,W,29.94,265.39,230818,,,A*4D
$GPGGA,131905.750,4308.4632,N,07726.9385,W,1,11,0.91,151.2,M,-34.4,M,,*5D
$GPRMC,131906.000,A,4308.4630,N,07726.9412,W,28.94,264.98,230818,,,A*42
$GPGGA,131906.250,4308.4629,N,07726.9440,W,1,11,0.91,151.1,M,-34.4,M,,*5C
$GPRMC,131906.500,A,4308.4627,N,07726.9467,W,29.06,265.20,230818,,,A*4B
$GPGGA,131906.750,4308.4625,N,07726.9494,W,1,11,0.91,151.0,M,-34.4,M,,*5D
$GPRMC,131907.000,A,4308.4624,N,07726.9520,W,27.68,265.33,230818,,,A*4A
$GPGGA,131907.250,4308.4621,N,07726.9546,W,1,11,0.91,150.9,M,-34.4,M,,*5B
$GPRMC,131907.500,A,4308.4620,N,07726.9573,W,27.69,264.61,230818,,,A*4A
$GPGGA,131907.750,4308.4618,N,07726.9599,W,1,11,0.91,150.6,M,-34.4,M,,*59
$GPRMC,131908.000,A,4308.4615,N,07726.9625,W,27.71,263.87,230818,,,A*40
$GPGGA,131908.250,4308.4614,N,07726.9652,W,1,11,0.91,150.6,M,-34.4,M,,*5B
$GPRMC,131908.500,A,4308.4612,N,07726.9678,W,27.78,265.97,230818,,,A*44
$GPGGA,131908.750,4308.4610,N,07726.9705,W,1,11,0.91,150.6,M,-34.4,M,,*59
$GPRMC,131909.000,A,4308.4608,N,07726.9731,W,27.79,264.76,230818,,,A*48
$GPGGA,131909.250,4308.4607,N,07726.9758,W,1,11,0.91,150.5,M,-34.4,M,,*50
$GPRMC,131909.500,A,4308.4605,N,07726.9784,W,27.81,265.61,230818,,,A*4E
$GPGGA,131909.750,4308.4604,N,07726.9811,W,1,11,0.91,150.5,M,-34.4,M,,*54
$GPRMC,131910.000,A,4308.4602,N,07726.9837,W,27.59,265.85,230818,,,A*4C
$GPGGA,131910.250,4308.4601,N,07726.9863,W,1,11,0.91,150.4,M,-34.4,M,,*58
$GPRMC,131910.500,A,4308.4600,N,07726.9889,W,27.31,266.22,230818,,,A*4E
$GPGGA,131910.750,4308.4599,N,07726.9915,W,1,11,0.91,150.4,M,-34.4,M,,*5F
$GPRMC,131911.000,A,4308.4597,N,07726.9941,W,27.42,265.59,230818,,,A*49
$GPGGA,131911.250,4308.4596,N,07726.9967,W,1,11,0.91,150.4,M,-34.4,M,,*51
$GPRMC,131911.500,A,4308.4595,N,07726.9993,W,27.54,266.43,230818,,,A*4E
$GPGGA,131911.750,4308.4594,N,07727.0019,W,1,11,0.91,150.5,M,-34.4,M,,*5F
$GPRMC,131912.000,A,4308.4592,N,07727.0045,W,27.74,266.43,230818,,,A*47
$GPGGA,131912.250,4308.4591,N,07727.0072,W,1,11,0.91,150.4,M,-34.4,M,,*50
$GPRMC,131912.500,A,4308.4591,N,07727.0098,W,27.82,266.00,230818,,,A*4F
$GPGGA,131912.750,4308.4589,N,07727.0125,W,1,11,0.91,150.3,M,-34.4,M,,*58
$GPRMC,131913.000,A,4308.4588,N,07727.0152,W,28.32,266.18,230818,,,A*49
$GPGGA,131913.250,4308.4587,N,07727.0180,W,1,11,0.91,150.1,M,-34.4,M,,*5F
$GPRMC,131913.500,A,4308.4586,N,07727.0208,W,29.05,266.27,230818,,,A*47
$GPGGA,131913.750,4308.4585,N,07727.0236,W,1,11,0.91,150.1,M,-34.4,M,,*56
$GPRMC,131914.000,A,4308.4584,N,07727.0265,W,29.51,266.91,230818,,,A*40
$GPGGA,131914.250,4308.4582,N,07727.0294,W,1,11,0.91,150.2,M,-34.4,M,,*58
$GPRMC,131914.500,A,4308.4581,N,07727.0323,W,30.32,267.19,230818,,,A*4F
$GPGGA,131914.750,4308.4581,N,07727.0353,W,1,11,0.91,150.1,M,-34.4,M,,*57
$GPRMC,131915.000,A,4308.4581,N,07727.0383,W,31.85,268.25,230818,,,A*4C
$GPGGA,131915.250,4308.4580,N,07727.0414,W,1,11,0.91,149.9,M,-34.4,M,,*56
$GPRMC,131915.500,A,4308.4580,N,07727.0445,W,32.49,269.12,230818,,,A*43
$GPGGA,131915.750,4308.4580,N,07727.0476,W,1,11,0.91,149.7,M,-34.4,M,,*59
$GPRMC,131916.000,A,4308.4581,N,07727.0508,W,33.36,269.95,230818,,,A*4A
$GPGGA,131916.250,4308.4581,N,07727.0540,W,1,11,0.91,149.5,M,-34.4,M,,*58
$GPRMC,131916.500,A,4308.4582,N,07727.0572,W,34.11,270.18,230818,,,A*4E
$GPGGA,131916.750,4308.4582,N,07727.0605,W,1,11,0.91,149.3,M,-34.4,M,,*5A
$GPRMC,131917.000,A,4308.4582,N,07727.0638,W,34.47,270.56,230818,,,A*4E
$GPGGA,131917.250,4308.4583,N,07727.0671,W,1,11,0.91,149.3,M,-34.4,M,,*5C
$GPRMC,131917.500,A,4308.4583,N,07727.0704,W,34.63,271.14,230818,,,A*45
$GPGGA,131917.750,4308.4584,N,07727.0736,W,1,11,0.91,149.2,M,-34.4,M,,*5D
$GPRMC,131918.000,A,4308.4585,N,07727.0770,W,34.87,271.82,230818,,,A*4F
$GPGGA,131918.250,4308.4587,N,07727.0803,W,1,11,0.91,149.1,M,-34.4,M,,*5E
$GPRMC,131918.500,A,4308.4588,N,07727.0836,W,35.10,272.30,230818,,,A*4F
$GPGGA,131918.750,4308.4590,N,07727.0870,W,1,11,0.91,149.0,M,-34.4,M,,*58
$GPRMC,131919.000,A,4308.4593,N,07727.0903,W,35.39,273.63,230818,,,A*4A
$GPGGA,131919.250,4308.4594,N,07727.0937,W,1,11,0.91,149.0,M,-34.4,M,,*5A
$GPRMC,131919.500,A,4308.4597,N,07727.0970,W,35.49,274.63,230818,,,A*4F
$GPGGA,131919.750,4308.4601,N,07727.1004,W,1,11,0.91,149.2,M,-34.4,M,,*5A
$GPRMC,131920.000,A,4308.4604,N,07727.1038,W,36.34,276.88,230818,,,A*43
$GPGGA,131920.250,4308.4608,N,07727.1072,W,1,11,0.91,149.2,M,-34.4,M,,*5D
$GPRMC,131920.500,A,4308.4612,N,07727.1106,W,36.41,277.32,230818,,,A*4F
$GPGGA,131920.750,4308.4617,N,07727.1140,W,1,11,0.91,149.2,M,-34.4,M,,*56
$GPRMC,131921.000,A,4308.4622,N,07727.1175,W,36.79,278.64,230818,,,A*4B
$GPGGA,131921.250,4308.4627,N,07727.1209,W,1,11,0.91,149.2,M,-34.4,M,,*5F
$GPRMC,131921.500,A,4308.4631,N,07727.1244,W,37.07,279.36,230818,,,A*43
$GPGGA,131921.750,4308.4637,N,07727.1279,W,1,11,0.91,149.1,M,-34.4,M,,*5F
$GPRMC,131922.000,A,4308.4643,N,07727.1314,W,37.32,279.87,230818,,,A*48
$GPGGA,131922.250,4308.4648,N,07727.1349,W,1,11,0.91,148.9,M,-34.4,M,,*5A
$GPRMC,131922.500,A,4308.4653,N,07727.1384,W,37.38,279.21,230818,,,A*43
$GPGGA,131922.750,4308.4658,N,07727.1420,W,1,11,0.91,148.7,M,-34.4,M,,*58
$GPRMC,131923.000,A,4308.4664,N,07727.1455,W,37.97,278.86,230818,,,A*41
$GPGGA,131923.250,4308.4669,N,07727.1491,W,1,11,0.91,148.4,M,-34.4,M,,*57
$GPRMC,131923.500,A,4308.4673,N,07727.1527,W,37.94,278.62,230818,,,A*4F
$GPGGA,131923.750,4308.4678,N,07727.1562,W,1,11,0.91,148.3,M,-34.4,M,,*58
$GPRMC,131924.000,A,4308.4683,N,07727.1598,W,37.81,278.68,230818,,,A*48
$GPGGA,131924.250,4308.4687,N,07727.1633,W,1,11,0.91,148.2,M,-34.4,M,,*5C
$GPRMC,131924.500,A,4308.4691,N,07727.1669,W,38.03,278.77,230818,,,A*48
$GPGGA,131924.750,4308.4696,N,07727.1705,W,1,11,0.91,148.0,M,-34.4,M,,*5F
$GPRMC,131925.000,A,4308.4700,N,07727.1741,W,37.97,278.78,230818,,,A*43
$GPGGA,131925.250,4308.4704,N,07727.1777,W,1,11,0.91,147.9,M,-34.4,M,,*52
$GPRMC,131925.500,A,4308.4709,N,07727.1813,W,37.93,278.70,230818,,,A*4B
$GPGGA,131925.750,4308.4713,N,07727.1849,W,1,11,0.91,147.7,M,-34.4,M,,*5D
$GPRMC,131926.000,A,4308.4717,N,07727.1884,W,37.97,278.72,230818,,,A*4A
$GPGGA,131926.250,4308.4722,N,07727.1920,W,1,11,0.91,147.6,M,-34.4,M,,*56
$GPRMC,131926.500,A,4308.4727,N,07727.1955,W,37.99,278.61,230818,,,A*4D
$GPGGA,131926.750,4308.4732,N,07727.1991,W,1,11,0.91,147.3,M,-34.4,M,,*5D
$GPRMC,131927.000,A,4308.4736,N,07727.2027,W,37.95,278.36,230818,,,A*48
$GPGGA,131927.250,4308.4741,N,07727.2062,W,1,11,0.91,147.1,M,-34.4,M,,*59
$GPRMC,131927.500,A,4308.4745,N,07727.2098,W,37.70,278.38,230818,,,A*48
$GPGGA,131927.750,4308.4750,N,07727.2133,W,1,11,0.91,147.0,M,-34.4,M,,*58
$GPRMC,131928.000,A,4308.4755,N,07727.2168,W,37.67,279.23,230818,,,A*40
$GPGGA,131928.250,4308.4759,N,07727.2204,W,1,11,0.91,146.8,M,-34.4,M,,*55
$GPRMC,131928.500,A,4308.4764,N,07727.2239,W,37.59,279.52,230818,,,A*4B
$GPGGA,131928.750,4308.4769,N,07727.2274,W,1,11,0.91,146.8,M,-34.4,M,,*54
$GPRMC,131929.000,A,4308.4774,N,07727.2309,W,37.05,279.83,230818,,,A*49
$GPGGA,131929.250,4308.4778,N,07727.2344,W,1,11,0.91,146.7,M,-34.4,M,,*5D
$GPRMC,131929.500,A,4308.4783,N,07727.2378,W,36.98,279.86,230818,,,A*42
$GPGGA,131929.750,4308.4788,N,07727.2413,W,1,11,0.91,146.6,M,-34.4,M,,*53
$GPRMC,131930.000,A,4308.4793,N,07727.2447,W,36.33,280.43,230818,,,A*4B
$GPGGA,131930.250,4308.4798,N,07727.2481,W,1,11,0.91,146.4,M,-34.4,M,,*56
$GPRMC,131930.500,A,4308.4802,N,07727.2514,W,35.86,280.08,230818,,,A*4C
$GPGGA,131930.750,4308.4806,N,07727.2547,W,1,11,0.91,146.5,M,-34.4,M,,*51
$GPRMC,131931.000,A,4308.4811,N,07727.2580,W,35.73,279.41,230818,,,A*46
$GPGGA,131931.250,4308.4814,N,07727.2613,W,1,11,0.91,146.6,M,-34.4,M,,*57
$GPRMC,131931.500,A,4308.4818,N,07727.2646,W,35.16,278.64,230818,,,A*46
$GPGGA,131931.750,4308.4823,N,07727.2679,W,1,11,0.91,146.4,M,-34.4,M,,*58
$GPRMC,131932.000,A,4308.4827,N,07727.2712,W,34.91,278.73,230818,,,A*44
$GPGGA,131932.250,4308.4831,N,07727.2745,W,1,11,0.91,146.2,M,-34.4,M,,*55
$GPRMC,131932.500,A,4308.4835,N,07727.2777,W,34.63,278.37,230818,,,A*4C
$GPGGA,131932.750,4308.4840,N,07727.2809,W,1,11,0.91,145.9,M,-34.4,M,,*59
$GPRMC,131933.000,A,4308.4844,N,07727.2841,W,34.06,278.60,230818,,,A*45
$GPGGA,131933.250,4308.4848,N,07727.2873,W,1,11,0.91,145.7,M,-34.4,M,,*56
$GPRMC,131933.500,A,4308.4852,N,07727.2904,W,34.08,278.48,230818,,,A*43
$GPGGA,131933.750,4308.4856,N,07727.2936,W,1,11,0.91,145.5,M,-34.4,M,,*5E
$GPRMC,131934.000,A,4308.4860,N,07727.2968,W,34.08,278.92,230818,,,A*4D
$GPGGA,131934.250,4308.4864,N,07727.3000,W,1,11,0.91,145.3,M,-34.4,M,,*56
$GPRMC,131934.500,A,4308.4868,N,07727.3032,W,34.16,279.00,230818,,,A*42
$GPGGA,131934.750,4308.4871,N,07727.3064,W,1,11,0.91,145.2,M,-34.4,M,,*54
