Vers 57
USE_SERIAL_FEEDBACK=false
DEVELOPMENT_MODE=false
USE_RMC_ONLY=false

$GPRMC,125530.600,A,4308.3067,N,07726.2603,W,0.01,35.25,101018,,,A*4D
$GPGGA,125530.800,4308.3067,N,07726.2604,W,1,08,1.00,146.6,M,-34.4,M,,*5D
$GPRMC,125531.000,A,4308.3068,N,07726.2604,W,0.02,231.19,101018,,,A*78
$GPGGA,125531.200,4308.3068,N,07726.2605,W,1,08,1.00,146.6,M,-34.4,M,,*58
$GPRMC,125531.400,A,4308.3068,N,07726.2605,W,0.05,30.62,101018,,,A*45
$GPGGA,125531.600,4308.3068,N,07726.2605,W,1,08,1.00,146.6,M,-34.4,M,,*5C
$GPRMC,125531.800,A,4308.3068,N,07726.2605,W,0.03,130.97,101018,,,A*74
$GPGGA,125532.000,4308.3069,N,07726.2606,W,1,08,1.00,146.4,M,-34.4,M,,*59
$GPRMC,125532.200,A,4308.3069,N,07726.2606,W,0.01,29.31,101018,,,A*48
$GPGGA,125532.400,4308.3069,N,07726.2606,W,1,08,1.00,146.3,M,-34.4,M,,*5A
$GPRMC,125532.600,A,4308.3069,N,07726.2606,W,0.03,15.35,101018,,,A*45
$GPGGA,125532.800,4308.3069,N,07726.2606,W,1,08,1.00,146.1,M,-34.4,M,,*54
$GPRMC,125533.000,A,4308.3069,N,07726.2606,W,0.02,92.73,101018,,,A*4E
$GPGGA,125533.200,4308.3069,N,07726.2606,W,1,08,1.00,146.0,M,-34.4,M,,*5E
$GPRMC,125533.400,A,4308.3069,N,07726.2606,W,0.07,137.31,101018,,,A*77
$GPGGA,125533.600,4308.3069,N,07726.2606,W,1,08,1.00,146.0,M,-34.4,M,,*5A
$GPRMC,125533.800,A,4308.3069,N,07726.2606,W,0.03,293.96,101018,,,A*7F
$GPGGA,125534.000,4308.3069,N,07726.2606,W,1,08,1.00,145.9,M,-34.4,M,,*51
$GPRMC,125534.200,A,4308.3069,N,07726.2606,W,0.04,319.46,101018,,,A*7B
$GPGGA,125534.400,4308.3070,N,07726.2606,W,1,08,1.00,145.8,M,-34.4,M,,*5C
$GPRMC,125534.600,A,4308.3070,N,07726.2606,W,0.03,270.03,101018,,,A*7F
$GPGGA,125534.800,4308.3070,N,07726.2606,W,1,08,1.00,145.8,M,-34.4,M,,*50
$GPRMC,125535.000,A,4308.3070,N,07726.2606,W,0.03,39.65,101018,,,A*47
$GPGGA,125535.200,4308.3070,N,07726.2606,W,1,08,1.00,145.7,M,-34.4,M,,*54
$GPRMC,125535.400,A,4308.3070,N,07726.2606,W,0.01,228.50,101018,,,A*75
$GPGGA,125535.600,4308.3070,N,07726.2606,W,1,08,1.00,145.8,M,-34.4,M,,*5F
$GPRMC,125535.800,A,4308.3070,N,07726.2606,W,0.02,156.83,101018,,,A*7E
$GPGGA,125536.000,4308.3070,N,07726.2606,W,1,08,1.00,145.7,M,-34.4,M,,*55
$GPRMC,125536.200,A,4308.3070,N,07726.2606,W,0.03,323.03,101018,,,A*7E
$GPGGA,125536.400,4308.3070,N,07726.2607,W,1,08,1.00,145.8,M,-34.4,M,,*5F
$GPRMC,125536.600,A,4308.3070,N,07726.2607,W,0.02,159.18,101018,,,A*7F
$GPGGA,125536.800,4308.3070,N,07726.2607,W,1,08,1.00,145.8,M,-34.4,M,,*53
$GPRMC,125537.000,A,4308.3069,N,07726.2607,W,0.02,141.41,101018,,,A*75
$GPGGA,125537.200,4308.3069,N,07726.2607,W,1,08,1.00,145.8,M,-34.4,M,,*50
$GPRMC,125537.400,A,4308.3069,N,07726.2607,W,0.03,329.36,101018,,,A*7C
$GPGGA,125537.600,4308.3069,N,07726.2607,W,1,08,1.00,145.8,M,-34.4,M,,*54
$GPRMC,125537.800,A,4308.3069,N,07726.2608,W,0.01,83.57,101018,,,A*49
$GPGGA,125538.000,4308.3069,N,07726.2608,W,1,08,1.00,145.9,M,-34.4,M,,*53
$GPRMC,125538.200,A,4308.3069,N,07726.2608,W,0.01,248.79,101018,,,A*75
$GPGGA,125538.400,4308.3069,N,07726.2608,W,1,08,1.00,146.0,M,-34.4,M,,*5D
$GPRMC,125538.600,A,4308.3069,N,07726.2609,W,0.02,128.86,101018,,,A*76
$GPGGA,125538.800,4308.3069,N,07726.2609,W,1,08,1.00,146.0,M,-34.4,M,,*50
$GPRMC,125539.000,A,4308.3069,N,07726.2609,W,0.02,261.90,101018,,,A*78
$GPGGA,125539.200,4308.3069,N,07726.2609,W,1,08,1.00,146.0,M,-34.4,M,,*5B
$GPRMC,125539.400,A,4308.3069,N,07726.2610,W,0.02,69.16,101018,,,A*40
$GPGGA,125539.600,4308.3069,N,07726.2610,W,1,08,1.00,146.1,M,-34.4,M,,*56
$GPRMC,125539.800,A,4308.3069,N,07726.2610,W,0.02,152.98,101018,,,A*73
$GPGGA,125540.000,4308.3069,N,07726.2610,W,1,08,1.00,146.2,M,-34.4,M,,*5D
$GPRMC,125540.200,A,4308.3069,N,07726.2611,W,0.01,171.85,101018,,,A*78
$GPGGA,125540.400,4308.3068,N,07726.2611,W,1,08,1.00,146.2,M,-34.4,M,,*59
$GPRMC,125540.600,A,4308.3068,N,07726.2611,W,0.03,15.19,101018,,,A*49
$GPGGA,125540.800,4308.3068,N,07726.2611,W,1,08,1.00,146.3,M,-34.4,M,,*54
$GPRMC,125541.000,A,4308.3068,N,07726.2612,W,0.02,20.16,101018,,,A*45
$GPGGA,125541.200,4308.3068,N,07726.2612,W,1,08,1.00,146.3,M,-34.4,M,,*5C
$GPRMC,125541.400,A,4308.3068,N,07726.2612,W,0.01,170.20,101018,,,A*73
$GPGGA,125541.600,4308.3068,N,07726.2613,W,1,08,1.00,146.4,M,-34.4,M,,*5E
$GPRMC,125541.800,A,4308.3068,N,07726.2613,W,0.02,343.81,101018,,,A*74
$GPGGA,125542.000,4308.3068,N,07726.2613,W,1,08,1.00,146.4,M,-34.4,M,,*5B
$GPRMC,125542.200,A,4308.3068,N,07726.2614,W,0.01,351.56,101018,,,A*70
$GPGGA,125542.400,4308.3068,N,07726.2614,W,1,08,1.02,146.5,M,-34.4,M,,*5B
$GPRMC,125542.600,A,4308.3067,N,07726.2614,W,0.01,205.33,101018,,,A*78
$GPGGA,125542.800,4308.3067,N,07726.2615,W,1,08,1.00,146.5,M,-34.4,M,,*5B
$GPRMC,125543.000,A,4308.3067,N,07726.2615,W,0.02,239.99,101018,,,A*72
$GPGGA,125543.200,4308.3067,N,07726.2615,W,1,08,1.00,146.5,M,-34.4,M,,*50
$GPRMC,125543.400,A,4308.3067,N,07726.2616,W,0.03,121.14,101018,,,A*7B
$GPGGA,125543.600,4308.3067,N,07726.2616,W,1,08,1.00,146.5,M,-34.4,M,,*57
$GPRMC,125543.800,A,4308.3067,N,07726.2616,W,0.02,237.39,101018,,,A*7D
$GPGGA,125544.000,4308.3067,N,07726.2617,W,1,08,1.00,146.5,M,-34.4,M,,*57
$GPRMC,125544.200,A,4308.3067,N,07726.2617,W,0.01,150.23,101018,,,A*7B
$GPGGA,125544.400,4308.3067,N,07726.2617,W,1,08,1.00,146.5,M,-34.4,M,,*53
$GPRMC,125544.600,A,4308.3067,N,07726.2618,W,0.02,156.92,101018,,,A*7F
$GPGGA,125544.800,4308.3067,N,07726.2618,W,1,08,1.00,146.5,M,-34.4,M,,*50
$GPRMC,125545.000,A,4308.3067,N,07726.2618,W,0.03,13.61,101018,,,A*45
$GPGGA,125545.200,4308.3067,N,07726.2619,W,1,08,1.02,146.5,M,-34.4,M,,*58
$GPRMC,125545.400,A,4308.3067,N,07726.2619,W,0.00,64.77,101018,,,A*44
$GPGGA,125545.600,4308.3067,N,07726.2619,W,1,08,1.00,146.5,M,-34.4,M,,*5E
$GPRMC,125545.800,A,4308.3067,N,07726.2619,W,0.00,359.66,101018,,,A*75
$GPGGA,125546.000,4308.3067,N,07726.2620,W,1,08,1.02,146.5,M,-34.4,M,,*53
$GPRMC,125546.200,A,4308.3067,N,07726.2620,W,0.02,42.73,101018,,,A*49
$GPGGA,125546.400,4308.3067,N,07726.2620,W,1,08,1.00,146.5,M,-34.4,M,,*55
$GPRMC,125546.600,A,4308.3067,N,07726.2620,W,0.00,282.46,101018,,,A*77
$GPGGA,125546.800,4308.3067,N,07726.2621,W,1,08,1.00,146.5,M,-34.4,M,,*58
$GPRMC,125547.000,A,4308.3067,N,07726.2621,W,0.01,69.69,101018,,,A*4A
$GPGGA,125547.200,4308.3067,N,07726.2621,W,1,08,1.00,146.5,M,-34.4,M,,*53
$GPRMC,125547.400,A,4308.3067,N,07726.2622,W,0.02,326.28,101018,,,A*73
$GPGGA,125547.600,4308.3067,N,07726.2622,W,1,08,1.00,146.6,M,-34.4,M,,*57
$GPRMC,125547.800,A,4308.3067,N,07726.2622,W,0.01,159.69,101018,,,A*73
$GPGGA,125548.000,4308.3067,N,07726.2622,W,1,08,1.00,146.6,M,-34.4,M,,*5E
$GPRMC,125548.200,A,4308.3068,N,07726.2623,W,0.03,359.99,101018,,,A*77
$GPGGA,125548.400,4308.3068,N,07726.2623,W,1,08,1.02,146.7,M,-34.4,M,,*57
$GPRMC,125548.600,A,4308.3068,N,07726.2623,W,0.01,354.84,101018,,,A*70
$GPGGA,125548.800,4308.3068,N,07726.2623,W,1,08,1.02,146.7,M,-34.4,M,,*5B
$GPRMC,125549.000,A,4308.3068,N,07726.2624,W,0.03,123.18,101018,,,A*75
$GPGGA,125549.200,4308.3068,N,07726.2624,W,1,08,1.00,146.8,M,-34.4,M,,*5A
$GPRMC,125549.400,A,4308.3069,N,07726.2624,W,0.01,9.96,101018,,,A*7D
$GPGGA,125549.600,4308.3069,N,07726.2625,W,1,08,1.02,146.8,M,-34.4,M,,*5C
$GPRMC,125549.800,A,4308.3069,N,07726.2625,W,0.02,292.00,101018,,,A*7C
$GPGGA,125550.000,4308.3069,N,07726.2625,W,1,08,1.00,146.9,M,-34.4,M,,*51
$GPRMC,125550.200,A,4308.3069,N,07726.2625,W,0.01,144.51,101018,,,A*71
$GPGGA,125550.400,4308.3069,N,07726.2626,W,1,08,1.00,146.9,M,-34.4,M,,*56
$GPRMC,125550.600,A,4308.3069,N,07726.2626,W,0.03,36.67,101018,,,A*45
$GPGGA,125550.800,4308.3070,N,07726.2626,W,1,08,1.00,147.0,M,-34.4,M,,*5A
$GPRMC,125551.000,A,4308.3070,N,07726.2626,W,0.00,163.87,101018,,,A*76
$GPGGA,125551.200,4308.3070,N,07726.2627,W,1,08,1.00,147.1,M,-34.4,M,,*51
$GPRMC,125551.400,A,4308.3070,N,07726.2627,W,0.03,153.76,101018,,,A*7D
$GPGGA,125551.600,4308.3070,N,07726.2627,W,1,08,1.00,147.1,M,-34.4,M,,*55
$GPRMC,125551.800,A,4308.3070,N,07726.2627,W,0.01,12.63,101018,,,A*43
$GPGGA,125552.000,4308.3071,N,07726.2627,W,1,08,1.02,147.2,M,-34.4,M,,*50
$GPRMC,125552.200,A,4308.3071,N,07726.2628,W,0.01,127.13,101018,,,A*74
$GPGGA,125552.400,4308.3071,N,07726.2628,W,1,08,1.00,147.2,M,-34.4,M,,*59
$GPRMC,125552.600,A,4308.3072,N,07726.2628,W,0.02,5.46,101018,,,A*71
$GPGGA,125552.800,4308.3072,N,07726.2628,W,1,08,1.02,147.3,M,-34.4,M,,*55
$GPRMC,125553.000,A,4308.3072,N,07726.2629,W,0.02,216.59,101018,,,A*79
$GPGGA,125553.200,4308.3072,N,07726.2629,W,1,08,1.00,147.4,M,-34.4,M,,*5A
$GPRMC,125553.400,A,4308.3073,N,07726.2629,W,0.03,175.49,101018,,,A*7A
$GPGGA,125553.600,4308.3073,N,07726.2629,W,1,08,1.00,147.4,M,-34.4,M,,*5F
$GPRMC,125553.800,A,4308.3073,N,07726.2629,W,0.00,299.34,101018,,,A*7E
$GPGGA,125554.000,4308.3073,N,07726.2629,W,1,08,1.00,147.5,M,-34.4,M,,*5F
$GPRMC,125554.200,A,4308.3074,N,07726.2630,W,0.02,142.96,101018,,,A*73
$GPGGA,125554.400,4308.3074,N,07726.2630,W,1,08,1.00,147.6,M,-34.4,M,,*57
$GPRMC,125554.600,A,4308.3075,N,07726.2630,W,0.18,0.56,101018,,,A*76
$GPGGA,125554.800,4308.3075,N,07726.2630,W,1,08,1.02,147.6,M,-34.4,M,,*58
$GPRMC,125555.000,A,4308.3075,N,07726.2630,W,0.48,5.79,101018,,,A*7C
$GPGGA,125555.200,4308.3076,N,07726.2630,W,1,08,1.02,147.7,M,-34.4,M,,*51
$GPRMC,125555.400,A,4308.3077,N,07726.2630,W,0.81,9.71,101018,,,A*7B
$GPGGA,125555.600,4308.3077,N,07726.2630,W,1,08,1.02,147.7,M,-34.4,M,,*54
$GPRMC,125555.800,A,4308.3078,N,07726.2630,W,1.17,6.25,101018,,,A*78
$GPGGA,125556.000,4308.3079,N,07726.2630,W,1,08,1.02,147.7,M,-34.4,M,,*5F
$GPRMC,125556.200,A,4308.3080,N,07726.2630,W,1.53,4.56,101018,,,A*70
$GPGGA,125556.400,4308.3081,N,07726.2630,W,1,08,1.02,147.8,M,-34.4,M,,*53
$GPRMC,125556.600,A,4308.3083,N,07726.2630,W,1.86,2.65,101018,,,A*79
$GPGGA,125556.800,4308.3084,N,07726.2630,W,1,08,1.02,147.8,M,-34.4,M,,*5A
$GPRMC,125557.000,A,4308.3085,N,07726.2630,W,2.19,5.25,101018,,,A*7E
$GPGGA,125557.200,4308.3087,N,07726.2630,W,1,08,1.02,147.8,M,-34.4,M,,*52
$GPRMC,125557.400,A,4308.3089,N,07726.2630,W,2.44,4.21,101018,,,A*7B
$GPGGA,125557.600,4308.3090,N,07726.2630,W,1,08,1.02,147.9,M,-34.4,M,,*51
$GPRMC,125557.800,A,4308.3092,N,07726.2630,W,2.39,3.53,101018,,,A*75
$GPGGA,125558.000,4308.3093,N,07726.2629,W,1,08,1.02,147.9,M,-34.4,M,,*53
$GPRMC,125558.200,A,4308.3095,N,07726.2629,W,2.52,5.66,101018,,,A*72
$GPGGA,125558.400,4308.3097,N,07726.2629,W,1,08,1.02,147.9,M,-34.4,M,,*53
$GPRMC,125558.600,A,4308.3098,N,07726.2629,W,2.63,5.16,101018,,,A*7E
$GPGGA,125558.800,4308.3100,N,07726.2629,W,1,08,1.02,147.9,M,-34.4,M,,*50
$GPRMC,125559.000,A,4308.3102,N,07726.2629,W,2.75,7.44,101018,,,A*79
$GPGGA,125559.200,4308.3103,N,07726.2628,W,1,08,1.02,147.9,M,-34.4,M,,*59
$GPRMC,125559.400,A,4308.3105,N,07726.2628,W,2.85,7.07,101018,,,A*73
$GPGGA,125559.600,4308.3107,N,07726.2628,W,1,08,1.02,147.9,M,-34.4,M,,*59
$GPRMC,125559.800,A,4308.3109,N,07726.2627,W,3.00,9.40,101018,,,A*7D
$GPGGA,125600.000,4308.3110,N,07726.2627,W,1,08,1.02,147.9,M,-34.4,M,,*59
$GPRMC,125600.200,A,4308.3112,N,07726.2626,W,2.99,11.60,101018,,,A*49
$GPGGA,125600.400,4308.3114,N,07726.2626,W,1,09,0.91,147.9,M,-34.4,M,,*52
$GPRMC,125600.600,A,4308.3116,N,07726.2625,W,2.79,11.73,101018,,,A*46
$GPGGA,125600.800,4308.3117,N,07726.2625,W,1,09,0.91,147.9,M,-34.4,M,,*5E
$GPRMC,125601.000,A,4308.3119,N,07726.2625,W,2.09,12.29,101018,,,A*45
$GPGGA,125601.200,4308.3120,N,07726.2624,W,1,09,0.91,147.9,M,-34.4,M,,*50
$GPRMC,125601.400,A,4308.3121,N,07726.2624,W,1.37,12.38,101018,,,A*45
$GPGGA,125601.600,4308.3122,N,07726.2623,W,1,09,0.91,147.9,M,-34.4,M,,*51
$GPRMC,125601.800,A,4308.3122,N,07726.2623,W,0.79,22.02,101018,,,A*4C
$GPGGA,125602.000,4308.3122,N,07726.2623,W,1,09,0.90,147.9,M,-34.4,M,,*55
$GPRMC,125602.200,A,4308.3123,N,07726.2623,W,0.12,14.53,101018,,,A*48
$GPGGA,125602.400,4308.3123,N,07726.2623,W,1,09,0.91,147.9,M,-34.4,M,,*51
$GPRMC,125602.600,A,4308.3123,N,07726.2623,W,0.02,335.29,101018,,,A*70
$GPGGA,125602.800,4308.3123,N,07726.2623,W,1,09,0.91,147.8,M,-34.4,M,,*5C
$GPRMC,125603.000,A,4308.3123,N,07726.2623,W,0.17,11.39,101018,,,A*47
$GPGGA,125603.200,4308.3123,N,07726.2623,W,1,09,0.91,147.8,M,-34.4,M,,*57
$GPRMC,125603.400,A,4308.3123,N,07726.2623,W,0.74,11.68,101018,,,A*42
$GPGGA,125603.600,4308.3124,N,07726.2623,W,1,09,0.91,147.8,M,-34.4,M,,*54
$GPRMC,125603.800,A,4308.3124,N,07726.2622,W,1.30,11.37,101018,,,A*43
$GPGGA,125604.000,4308.3125,N,07726.2622,W,1,09,0.91,147.8,M,-34.4,M,,*55
$GPRMC,125604.200,A,4308.3126,N,07726.2622,W,1.79,15.38,101018,,,A*4A
$GPGGA,125604.400,4308.3127,N,07726.2621,W,1,09,0.91,147.8,M,-34.4,M,,*50
$GPRMC,125604.600,A,4308.3128,N,07726.2621,W,2.19,15.55,101018,,,A*4D
$GPGGA,125604.800,4308.3130,N,07726.2621,W,1,09,0.91,147.7,M,-34.4,M,,*55
$GPRMC,125605.000,A,4308.3131,N,07726.2620,W,2.49,19.13,101018,,,A*48
$GPGGA,125605.200,4308.3133,N,07726.2619,W,1,09,0.90,147.7,M,-34.4,M,,*57
$GPRMC,125605.400,A,4308.3134,N,07726.2619,W,2.95,21.91,101018,,,A*43
$GPGGA,125605.600,4308.3136,N,07726.2618,W,1,09,0.91,147.7,M,-34.4,M,,*56
$GPRMC,125605.800,A,4308.3137,N,07726.2616,W,3.03,29.97,101018,,,A*43
$GPGGA,125606.000,4308.3138,N,07726.2615,W,1,09,0.91,147.7,M,-34.4,M,,*50
$GPRMC,125606.200,A,4308.3140,N,07726.2614,W,3.06,34.89,101018,,,A*4E
$GPGGA,125606.400,4308.3141,N,07726.2612,W,1,09,0.91,147.7,M,-34.4,M,,*5D
$GPRMC,125606.600,A,4308.3143,N,07726.2611,W,3.11,33.79,101018,,,A*42
$GPGGA,125606.800,4308.3144,N,07726.2609,W,1,09,0.91,147.8,M,-34.4,M,,*51
$GPRMC,125607.000,A,4308.3145,N,07726.2607,W,3.13,56.92,101018,,,A*40
$GPGGA,125607.200,4308.3146,N,07726.2605,W,1,09,0.91,147.8,M,-34.4,M,,*54
$GPRMC,125607.400,A,4308.3147,N,07726.2603,W,3.12,51.80,101018,,,A*47
$GPGGA,125607.600,4308.3148,N,07726.2601,W,1,09,0.90,147.8,M,-34.4,M,,*5B
$GPRMC,125607.800,A,4308.3149,N,07726.2599,W,2.69,61.79,101018,,,A*4D
$GPGGA,125608.000,4308.3150,N,07726.2597,W,1,09,0.91,147.8,M,-34.4,M,,*56
$GPRMC,125608.200,A,4308.3150,N,07726.2596,W,1.64,69.88,101018,,,A*47
$GPGGA,125608.400,4308.3151,N,07726.2595,W,1,09,0.90,147.8,M,-34.4,M,,*50
$GPRMC,125608.600,A,4308.3151,N,07726.2594,W,0.53,76.85,101018,,,A*46
$GPGGA,125608.800,4308.3151,N,07726.2594,W,1,09,0.91,147.8,M,-34.4,M,,*5C
$GPRMC,125609.000,A,4308.3151,N,07726.2594,W,0.15,250.35,101018,,,A*7E
$GPGGA,125609.200,4308.3151,N,07726.2594,W,1,09,0.91,147.8,M,-34.4,M,,*57
$GPRMC,125609.400,A,4308.3151,N,07726.2594,W,0.51,252.39,101018,,,A*74
$GPGGA,125609.600,4308.3150,N,07726.2595,W,1,09,0.91,147.9,M,-34.4,M,,*52
$GPRMC,125609.800,A,4308.3150,N,07726.2595,W,1.07,256.24,101018,,,A*72
$GPGGA,125610.000,4308.3150,N,07726.2596,W,1,09,0.90,147.9,M,-34.4,M,,*5E
$GPRMC,125610.200,A,4308.3150,N,07726.2597,W,1.69,259.19,101018,,,A*7B
$GPGGA,125610.400,4308.3150,N,07726.2598,W,1,09,0.91,147.9,M,-34.4,M,,*55
$GPRMC,125610.600,A,4308.3150,N,07726.2600,W,2.37,260.62,101018,,,A*7C
$GPGGA,125610.800,4308.3149,N,07726.2602,W,1,09,0.90,147.9,M,-34.4,M,,*50
$GPRMC,125611.000,A,4308.3149,N,07726.2604,W,3.26,262.32,101018,,,A*71
$GPGGA,125611.200,4308.3149,N,07726.2606,W,1,09,0.91,148.0,M,-34.4,M,,*58
$GPRMC,125611.400,A,4308.3149,N,07726.2609,W,3.76,263.62,101018,,,A*79
$GPGGA,125611.600,4308.3148,N,07726.2612,W,1,09,0.91,148.0,M,-34.4,M,,*58
$GPRMC,125611.800,A,4308.3148,N,07726.2615,W,4.40,267.46,101018,,,A*79
$GPGGA,125612.000,4308.3148,N,07726.2618,W,1,09,0.91,148.1,M,-34.4,M,,*56
$GPRMC,125612.200,A,4308.3148,N,07726.2622,W,4.90,270.66,101018,,,A*7D
$GPGGA,125612.400,4308.3148,N,07726.2625,W,1,09,0.91,148.1,M,-34.4,M,,*5C
$GPRMC,125612.600,A,4308.3148,N,07726.2629,W,5.50,273.51,101018,,,A*78
$GPGGA,125612.800,4308.3149,N,07726.2633,W,1,09,0.91,148.2,M,-34.4,M,,*55
$GPRMC,125613.000,A,4308.3149,N,07726.2638,W,6.04,276.19,101018,,,A*75
$GPGGA,125613.200,4308.3149,N,07726.2642,W,1,09,0.91,148.2,M,-34.4,M,,*58
$GPRMC,125613.400,A,4308.3150,N,07726.2647,W,6.67,279.40,101018,,,A*77
$GPGGA,125613.600,4308.3151,N,07726.2652,W,1,09,0.91,148.3,M,-34.4,M,,*55
$GPRMC,125613.800,A,4308.3151,N,07726.2657,W,7.37,281.87,101018,,,A*73
$GPGGA,125614.000,4308.3152,N,07726.2663,W,1,09,0.91,148.3,M,-34.4,M,,*55
$GPRMC,125614.200,A,4308.3153,N,07726.2668,W,7.90,282.29,101018,,,A*7A
$GPGGA,125614.400,4308.3154,N,07726.2674,W,1,08,1.02,148.4,M,-34.4,M,,*5C
$GPRMC,125614.600,A,4308.3155,N,07726.2681,W,8.57,282.91,101018,,,A*78
$GPGGA,125614.800,4308.3156,N,07726.2687,W,1,09,0.91,148.4,M,-34.4,M,,*54
$GPRMC,125615.000,A,4308.3157,N,07726.2694,W,9.22,284.28,101018,,,A*7E
$GPGGA,125615.200,4308.3159,N,07726.2701,W,1,09,0.91,148.5,M,-34.4,M,,*5E
$GPRMC,125615.400,A,4308.3160,N,07726.2708,W,9.79,284.91,101018,,,A*76
$GPGGA,125615.600,4308.3161,N,07726.2715,W,1,09,0.91,148.5,M,-34.4,M,,*54
$GPRMC,125615.800,A,4308.3163,N,07726.2723,W,10.27,284.40,101018,,,A*4F
$GPGGA,125616.000,4308.3165,N,07726.2731,W,1,09,0.91,148.6,M,-34.4,M,,*50
$GPRMC,125616.200,A,4308.3166,N,07726.2738,W,10.67,285.01,101018,,,A*49
$GPGGA,125616.400,4308.3168,N,07726.2746,W,1,09,0.91,148.7,M,-34.4,M,,*58
$GPRMC,125616.600,A,4308.3170,N,07726.2755,W,11.08,285.76,101018,,,A*49
$GPGGA,125616.800,4308.3172,N,07726.2763,W,1,09,0.91,148.8,M,-34.4,M,,*57
$GPRMC,125617.000,A,4308.3174,N,07726.2772,W,11.64,286.49,101018,,,A*4A
$GPGGA,125617.200,4308.3176,N,07726.2781,W,1,09,0.91,148.9,M,-34.4,M,,*55
$GPRMC,125617.400,A,4308.3178,N,07726.2789,W,11.95,288.22,101018,,,A*4B
$GPGGA,125617.600,4308.3180,N,07726.2798,W,1,09,0.91,148.9,M,-34.4,M,,*50
$GPRMC,125617.800,A,4308.3182,N,07726.2807,W,12.49,289.59,101018,,,A*44
$GPGGA,125618.000,4308.3185,N,07726.2817,W,1,09,0.91,149.0,M,-34.4,M,,*5C
$GPRMC,125618.200,A,4308.3188,N,07726.2826,W,12.84,290.76,101018,,,A*4C
$GPGGA,125618.400,4308.3190,N,07726.2835,W,1,09,0.91,149.1,M,-34.4,M,,*5D
$GPRMC,125618.600,A,4308.3193,N,07726.2845,W,13.40,292.38,101018,,,A*46
$GPGGA,125618.800,4308.3196,N,07726.2855,W,1,09,0.91,149.1,M,-34.4,M,,*51
$GPRMC,125619.000,A,4308.3199,N,07726.2864,W,13.73,293.68,101018,,,A*4C
$GPGGA,125619.200,4308.3202,N,07726.2874,W,1,09,0.91,149.2,M,-34.4,M,,*54
$GPRMC,125619.400,A,4308.3206,N,07726.2884,W,14.12,295.76,101018,,,A*4A
$GPGGA,125619.600,4308.3209,N,07726.2894,W,1,08,1.02,149.3,M,-34.4,M,,*5E
$GPRMC,125619.800,A,4308.3213,N,07726.2903,W,14.40,297.45,101018,,,A*49
$GPGGA,125620.000,4308.3217,N,07726.2913,W,1,08,1.02,149.4,M,-34.4,M,,*54
$GPRMC,125620.200,A,4308.3221,N,07726.2923,W,14.85,298.08,101018,,,A*45
$GPGGA,125620.400,4308.3225,N,07726.2933,W,1,09,0.91,149.5,M,-34.4,M,,*58
$GPRMC,125620.600,A,4308.3229,N,07726.2943,W,15.09,298.03,101018,,,A*41
$GPGGA,125620.800,4308.3233,N,07726.2954,W,1,09,0.91,149.5,M,-34.4,M,,*52
$GPRMC,125621.000,A,4308.3237,N,07726.2964,W,15.57,298.91,101018,,,A*4C
$GPGGA,125621.200,4308.3241,N,07726.2975,W,1,09,0.91,149.6,M,-34.4,M,,*5C
$GPRMC,125621.400,A,4308.3246,N,07726.2985,W,16.41,299.84,101018,,,A*40
$GPGGA,125621.600,4308.3250,N,07726.2997,W,1,09,0.91,149.7,M,-34.4,M,,*55
$GPRMC,125621.800,A,4308.3255,N,07726.3008,W,16.73,300.97,101018,,,A*41
$GPGGA,125622.000,4308.3260,N,07726.3019,W,1,09,0.91,149.9,M,-34.4,M,,*53
$GPRMC,125622.200,A,4308.3265,N,07726.3030,W,17.45,301.33,101018,,,A*4B
$GPGGA,125622.400,4308.3270,N,07726.3042,W,1,09,0.91,150.0,M,-34.4,M,,*59
$GPRMC,125622.600,A,4308.3275,N,07726.3054,W,17.83,301.66,101018,,,A*46
$GPGGA,125622.800,4308.3280,N,07726.3066,W,1,09,0.91,150.1,M,-34.4,M,,*5D
$GPRMC,125623.000,A,4308.3286,N,07726.3078,W,18.28,301.57,101018,,,A*4F
$GPGGA,125623.200,4308.3291,N,07726.3090,W,1,09,0.91,150.2,M,-34.4,M,,*5C
$GPRMC,125623.400,A,4308.3296,N,07726.3102,W,18.67,301.63,101018,,,A*4A
$GPGGA,125623.600,4308.3302,N,07726.3114,W,1,08,1.02,150.4,M,-34.4,M,,*52
$GPRMC,125623.800,A,4308.3308,N,07726.3126,W,18.88,302.52,101018,,,A*46
$GPGGA,125624.000,4308.3313,N,07726.3139,W,1,08,1.02,150.5,M,-34.4,M,,*5D
$GPRMC,125624.200,A,4308.3319,N,07726.3151,W,19.10,302.56,101018,,,A*4F
$GPGGA,125624.400,4308.3325,N,07726.3164,W,1,08,1.02,150.6,M,-34.4,M,,*57
$GPRMC,125624.600,A,4308.3330,N,07726.3176,W,19.15,302.59,101018,,,A*4F
$GPGGA,125624.800,4308.3336,N,07726.3189,W,1,08,1.02,150.7,M,-34.4,M,,*5B
$GPRMC,125625.000,A,4308.3342,N,07726.3201,W,19.40,303.10,101018,,,A*42
$GPGGA,125625.200,4308.3348,N,07726.3214,W,1,08,1.02,150.8,M,-34.4,M,,*51
$GPRMC,125625.400,A,4308.3354,N,07726.3226,W,19.40,303.07,101018,,,A*42
$GPGGA,125625.600,4308.3359,N,07726.3238,W,1,07,1.08,150.9,M,-34.4,M,,*5F
$GPRMC,125625.800,A,4308.3365,N,07726.3251,W,19.37,302.87,101018,,,A*45
$GPGGA,125626.000,4308.3371,N,07726.3263,W,1,08,1.02,151.0,M,-34.4,M,,*53
$GPRMC,125626.200,A,4308.3377,N,07726.3276,W,19.33,302.87,101018,,,A*4E
$GPGGA,125626.400,4308.3383,N,07726.3288,W,1,08,1.02,151.1,M,-34.4,M,,*5E
$GPRMC,125626.600,A,4308.3389,N,07726.3300,W,19.33,302.53,101018,,,A*42
$GPGGA,125626.800,4308.3395,N,07726.3313,W,1,08,1.02,151.3,M,-34.4,M,,*54
$GPRMC,125627.000,A,4308.3401,N,07726.3325,W,19.31,302.97,101018,,,A*4F
$GPGGA,125627.200,4308.3406,N,07726.3337,W,1,08,1.02,151.4,M,-34.4,M,,*53
$GPRMC,125627.400,A,4308.3412,N,07726.3350,W,19.29,303.02,101018,,,A*4F
$GPGGA,125627.600,4308.3418,N,07726.3362,W,1,08,1.02,151.5,M,-34.4,M,,*59
$GPRMC,125627.800,A,4308.3424,N,07726.3374,W,19.24,303.29,101018,,,A*44
$GPGGA,125628.000,4308.3430,N,07726.3387,W,1,08,1.02,151.6,M,-34.4,M,,*52
$GPRMC,125628.200,A,4308.3436,N,07726.3399,W,19.42,303.29,101018,,,A*41
$GPGGA,125628.400,4308.3442,N,07726.3411,W,1,08,1.02,151.8,M,-34.4,M,,*55
$GPRMC,125628.600,A,4308.3447,N,07726.3423,W,19.17,303.40,101018,,,A*4A
$GPGGA,125628.800,4308.3453,N,07726.3435,W,1,08,1.02,151.9,M,-34.4,M,,*5E
$GPRMC,125629.000,A,4308.3459,N,07726.3448,W,19.15,304.07,101018,,,A*49
$GPGGA,125629.200,4308.3465,N,07726.3460,W,1,08,1.02,152.0,M,-34.4,M,,*5A
$GPRMC,125629.400,A,4308.3471,N,07726.3472,W,18.87,304.97,101018,,,A*4D
$GPGGA,125629.600,4308.3477,N,07726.3483,W,1,08,1.02,152.2,M,-34.4,M,,*52
$GPRMC,125629.800,A,4308.3483,N,07726.3495,W,18.82,305.67,101018,,,A*4E
$GPGGA,125630.000,4308.3490,N,07726.3507,W,1,08,1.02,152.3,M,-34.4,M,,*59
$GPRMC,125630.200,A,4308.3496,N,07726.3518,W,18.78,307.73,101018,,,A*4E
$GPGGA,125630.400,4308.3503,N,07726.3529,W,1,08,1.02,152.4,M,-34.4,M,,*5D
$GPRMC,125630.600,A,4308.3509,N,07726.3540,W,18.68,308.83,101018,,,A*41
$GPGGA,125630.800,4308.3516,N,07726.3550,W,1,08,1.02,152.5,M,-34.4,M,,*5A
$GPRMC,125631.000,A,4308.3522,N,07726.3561,W,18.40,311.10,101018,,,A*44
$GPGGA,125631.200,4308.3529,N,07726.3571,W,1,08,1.02,152.7,M,-34.4,M,,*5C
$GPRMC,125631.400,A,4308.3536,N,07726.3582,W,18.36,312.85,101018,,,A*46
$GPGGA,125631.600,4308.3543,N,07726.3592,W,1,08,1.02,152.8,M,-34.4,M,,*56
$GPRMC,125631.800,A,4308.3550,N,07726.3602,W,18.38,314.90,101018,,,A*4D
$GPGGA,125632.000,4308.3557,N,07726.3612,W,1,08,1.02,152.9,M,-34.4,M,,*5C
$GPRMC,125632.200,A,4308.3565,N,07726.3622,W,18.56,317.75,101018,,,A*40
$GPGGA,125632.400,4308.3573,N,07726.3631,W,1,08,1.02,153.1,M,-34.4,M,,*56
$GPRMC,125632.600,A,4308.3581,N,07726.3641,W,18.83,320.49,101018,,,A*48
$GPGGA,125632.800,4308.3589,N,07726.3650,W,1,08,1.02,153.2,M,-34.4,M,,*5B
$GPRMC,125633.000,A,4308.3597,N,07726.3659,W,18.95,323.24,101018,,,A*4E
$GPGGA,125633.200,4308.3606,N,07726.3667,W,1,08,1.02,153.3,M,-34.4,M,,*51
$GPRMC,125633.400,A,4308.3614,N,07726.3676,W,19.30,326.55,101018,,,A*42
$GPGGA,125633.600,4308.3623,N,07726.3684,W,1,08,1.02,153.4,M,-34.4,M,,*58
$GPRMC,125633.800,A,4308.3633,N,07726.3691,W,19.38,329.25,101018,,,A*42
$GPGGA,125634.000,4308.3642,N,07726.3699,W,1,08,1.02,153.5,M,-34.4,M,,*53
$GPRMC,125634.200,A,4308.3651,N,07726.3706,W,19.33,332.81,101018,,,A*4B
$GPGGA,125634.400,4308.3661,N,07726.3712,W,1,08,1.02,153.6,M,-34.4,M,,*57
$GPRMC,125634.600,A,4308.3671,N,07726.3718,W,19.31,336.36,101018,,,A*48
$GPGGA,125634.800,4308.3680,N,07726.3724,W,1,07,1.08,153.6,M,-34.4,M,,*54
$GPRMC,125635.000,A,4308.3690,N,07726.3730,W,19.40,339.63,101018,,,A*43
$GPGGA,125635.200,4308.3701,N,07726.3735,W,1,07,1.08,153.7,M,-34.4,M,,*56
$GPRMC,125635.400,A,4308.3711,N,07726.3739,W,19.49,342.07,101018,,,A*41
$GPGGA,125635.600,4308.3721,N,07726.3744,W,1,07,1.08,153.8,M,-34.4,M,,*59
$GPRMC,125635.800,A,4308.3732,N,07726.3748,W,19.81,344.61,101018,,,A*48
$GPGGA,125636.000,4308.3742,N,07726.3752,W,1,08,0.98,153.8,M,-34.4,M,,*59
$GPRMC,125636.200,A,4308.3753,N,07726.3756,W,19.87,347.23,101018,,,A*4A
$GPGGA,125636.400,4308.3764,N,07726.3759,W,1,08,0.99,153.8,M,-34.4,M,,*53
$GPRMC,125636.600,A,4308.3775,N,07726.3762,W,20.09,350.07,101018,,,A*41
$GPGGA,125636.800,4308.3786,N,07726.3764,W,1,08,0.99,153.8,M,-34.4,M,,*5D
$GPRMC,125637.000,A,4308.3798,N,07726.3766,W,20.34,353.05,101018,,,A*4E
$GPGGA,125637.200,4308.3809,N,07726.3768,W,1,08,0.99,153.9,M,-34.4,M,,*53
$GPRMC,125637.400,A,4308.3821,N,07726.3769,W,20.47,355.99,101018,,,A*4F
$GPGGA,125637.600,4308.3832,N,07726.3770,W,1,08,0.99,153.9,M,-34.4,M,,*56
$GPRMC,125637.800,A,4308.3844,N,07726.3771,W,20.67,358.53,101018,,,A*40
$GPGGA,125638.000,4308.3855,N,07726.3771,W,1,09,0.91,154.0,M,-34.4,M,,*58
$GPRMC,125638.200,A,4308.3867,N,07726.3771,W,20.69,0.97,101018,,,A*4C
$GPGGA,125638.400,4308.3879,N,07726.3771,W,1,09,0.91,154.0,M,-34.4,M,,*52
$GPRMC,125638.600,A,4308.3890,N,07726.3770,W,20.79,4.28,101018,,,A*40
$GPGGA,125638.800,4308.3902,N,07726.3769,W,1,09,0.91,154.0,M,-34.4,M,,*5A
$GPRMC,125639.000,A,4308.3913,N,07726.3767,W,20.95,6.05,101018,,,A*44
$GPGGA,125639.200,4308.3925,N,07726.3765,W,1,09,0.91,154.1,M,-34.4,M,,*59
$GPRMC,125639.400,A,4308.3937,N,07726.3763,W,21.17,7.90,101018,,,A*44
$GPGGA,125639.600,4308.3948,N,07726.3761,W,1,09,0.91,154.1,M,-34.4,M,,*52
$GPRMC,125639.800,A,4308.3960,N,07726.3758,W,21.15,9.41,101018,,,A*42
$GPGGA,125640.000,4308.3972,N,07726.3755,W,1,09,0.91,154.3,M,-34.4,M,,*56
$GPRMC,125640.200,A,4308.3983,N,07726.3753,W,20.95,9.92,101018,,,A*47
$GPGGA,125640.400,4308.3995,N,07726.3750,W,1,09,0.91,154.3,M,-34.4,M,,*5E
$GPRMC,125640.600,A,4308.4006,N,07726.3747,W,21.05,10.38,101018,,,A*75
$GPGGA,125640.800,4308.4018,N,07726.3744,W,1,09,0.91,154.3,M,-34.4,M,,*5C
$GPRMC,125641.000,A,4308.4029,N,07726.3741,W,21.20,10.27,101018,,,A*70
$GPGGA,125641.200,4308.4041,N,07726.3738,W,1,09,0.91,154.4,M,-34.4,M,,*57
$GPRMC,125641.400,A,4308.4053,N,07726.3735,W,21.19,10.34,101018,,,A*72
$GPGGA,125641.600,4308.4064,N,07726.3732,W,1,09,0.91,154.3,M,-34.4,M,,*59
$GPRMC,125641.800,A,4308.4076,N,07726.3729,W,21.13,10.32,101018,,,A*78
$GPGGA,125642.000,4308.4087,N,07726.3726,W,1,09,0.91,154.3,M,-34.4,M,,*54
$GPRMC,125642.200,A,4308.4099,N,07726.3723,W,21.11,9.84,101018,,,A*4D
$GPGGA,125642.400,4308.4111,N,07726.3720,W,1,09,0.91,154.4,M,-34.4,M,,*5F
$GPRMC,125642.600,A,4308.4122,N,07726.3717,W,21.11,9.79,101018,,,A*4D
$GPGGA,125642.800,4308.4134,N,07726.3714,W,1,09,0.91,154.4,M,-34.4,M,,*53
$GPRMC,125643.000,A,4308.4145,N,07726.3712,W,21.27,9.05,101018,,,A*40
$GPGGA,125643.200,4308.4157,N,07726.3709,W,1,09,0.91,154.6,M,-34.4,M,,*53
$GPRMC,125643.400,A,4308.4168,N,07726.3706,W,20.67,9.11,101018,,,A*4E
$GPGGA,125643.600,4308.4179,N,07726.3704,W,1,09,0.91,154.6,M,-34.4,M,,*56
$GPRMC,125643.800,A,4308.4191,N,07726.3701,W,20.21,8.92,101018,,,A*4B
$GPGGA,125644.000,4308.4202,N,07726.3699,W,1,09,0.91,154.7,M,-34.4,M,,*5C
$GPRMC,125644.200,A,4308.4212,N,07726.3696,W,19.86,8.81,101018,,,A*44
$GPGGA,125644.400,4308.4223,N,07726.3694,W,1,09,0.91,154.7,M,-34.4,M,,*56
$GPRMC,125644.600,A,4308.4234,N,07726.3692,W,19.27,8.76,101018,,,A*43
$GPGGA,125644.800,4308.4244,N,07726.3689,W,1,09,0.91,154.8,M,-34.4,M,,*58
$GPRMC,125645.000,A,4308.4255,N,07726.3687,W,18.89,8.58,101018,,,A*4E
$GPGGA,125645.200,4308.4265,N,07726.3685,W,1,09,0.91,154.8,M,-34.4,M,,*5C
$GPRMC,125645.400,A,4308.4275,N,07726.3682,W,18.57,8.77,101018,,,A*43
$GPGGA,125645.600,4308.4286,N,07726.3680,W,1,09,0.91,154.9,M,-34.4,M,,*51
$GPRMC,125645.800,A,4308.4296,N,07726.3678,W,18.06,8.83,101018,,,A*48
$GPGGA,125646.000,4308.4306,N,07726.3676,W,1,09,0.91,154.9,M,-34.4,M,,*54
$GPRMC,125646.200,A,4308.4316,N,07726.3674,W,17.71,8.79,101018,,,A*4E
$GPGGA,125646.400,4308.4325,N,07726.3672,W,1,09,0.91,155.0,M,-34.4,M,,*5D
$GPRMC,125646.600,A,4308.4335,N,07726.3669,W,17.24,9.27,101018,,,A*4D
$GPGGA,125646.800,4308.4344,N,07726.3667,W,1,09,0.91,155.0,M,-34.4,M,,*52
$GPRMC,125647.000,A,4308.4353,N,07726.3666,W,16.99,9.47,101018,,,A*44
$GPGGA,125647.200,4308.4362,N,07726.3664,W,1,09,0.91,155.0,M,-34.4,M,,*5E
$GPRMC,125647.400,A,4308.4372,N,07726.3662,W,16.81,9.80,101018,,,A*45
$GPGGA,125647.600,4308.4381,N,07726.3660,W,1,09,0.91,155.1,M,-34.4,M,,*52
$GPRMC,125647.800,A,4308.4390,N,07726.3658,W,16.23,9.25,101018,,,A*4B
$GPGGA,125648.000,4308.4399,N,07726.3655,W,1,09,0.91,155.2,M,-34.4,M,,*57
$GPRMC,125648.200,A,4308.4408,N,07726.3653,W,15.90,9.06,101018,,,A*49
$GPGGA,125648.400,4308.4417,N,07726.3651,W,1,09,0.91,155.2,M,-34.4,M,,*56
$GPRMC,125648.600,A,4308.4425,N,07726.3649,W,15.46,9.32,101018,,,A*45
$GPGGA,125648.800,4308.4434,N,07726.3646,W,1,09,0.91,155.3,M,-34.4,M,,*5C
$GPRMC,125649.000,A,4308.4443,N,07726.3644,W,15.11,9.04,101018,,,A*48
$GPGGA,125649.200,4308.4451,N,07726.3642,W,1,09,0.91,155.4,M,-34.4,M,,*57
$GPRMC,125649.400,A,4308.4459,N,07726.3640,W,14.28,9.74,101018,,,A*4F
$GPGGA,125649.600,4308.4467,N,07726.3638,W,1,09,0.91,155.5,M,-34.4,M,,*5A
$GPRMC,125649.800,A,4308.4474,N,07726.3636,W,13.65,9.43,101018,,,A*47
$GPGGA,125650.000,4308.4482,N,07726.3634,W,1,09,0.91,155.5,M,-34.4,M,,*53
$GPRMC,125650.200,A,4308.4489,N,07726.3633,W,13.06,9.14,101018,,,A*45
$GPGGA,125650.400,4308.4496,N,07726.3631,W,2,09,0.91,155.6,M,-34.4,M,0000,0000*57
$GPRMC,125650.600,A,4308.4502,N,07726.3630,W,11.82,9.72,101018,,,D*4B
$GPGGA,125650.800,4308.4508,N,07726.3628,W,2,09,0.91,155.6,M,-34.4,M,0000,0000*55
$GPRMC,125651.000,A,4308.4514,N,07726.3627,W,10.59,9.76,101018,,,D*4E
$GPGGA,125651.200,4308.4520,N,07726.3626,W,2,09,0.91,155.7,M,-34.4,M,0000,0000*5B
$GPRMC,125651.400,A,4308.4525,N,07726.3624,W,8.98,10.72,101018,,,D*43
$GPGGA,125651.600,4308.4529,N,07726.3623,W,2,09,0.91,155.7,M,-34.4,M,0000,0000*53
$GPRMC,125651.800,A,4308.4533,N,07726.3622,W,7.10,10.87,101018,,,D*4B
$GPGGA,125652.000,4308.4537,N,07726.3621,W,2,09,0.91,155.7,M,-34.4,M,0000,0000*5B
$GPRMC,125652.200,A,4308.4540,N,07726.3621,W,5.44,10.68,101018,,,D*47
$GPGGA,125652.400,4308.4542,N,07726.3620,W,2,09,0.91,155.8,M,-34.4,M,0000,0000*53
$GPRMC,125652.600,A,4308.4544,N,07726.3620,W,3.80,8.71,101018,,,D*79
$GPGGA,125652.800,4308.4546,N,07726.3619,W,2,09,0.91,155.8,M,-34.4,M,0000,0000*51
$GPRMC,125653.000,A,4308.4547,N,07726.3619,W,2.48,12.37,101018,,,D*4B
$GPGGA,125653.200,4308.4548,N,07726.3619,W,2,09,0.91,155.8,M,-34.4,M,0000,0000*54
$GPRMC,125653.400,A,4308.4548,N,07726.3618,W,1.24,12.37,101018,,,D*48
$GPGGA,125653.600,4308.4549,N,07726.3618,W,2,09,0.91,155.8,M,-34.4,M,0000,0000*50
$GPRMC,125653.800,A,4308.4549,N,07726.3618,W,0.80,12.37,101018,,,D*4A
$GPGGA,125654.000,4308.4549,N,07726.3618,W,2,09,0.91,155.8,M,-34.4,M,0000,0000*51
$GPRMC,125654.200,A,4308.4550,N,07726.3618,W,0.87,12.37,101018,,,D*48
$GPGGA,125654.400,4308.4550,N,07726.3618,W,2,09,0.91,155.7,M,-34.4,M,0000,0000*52
$GPRMC,125654.600,A,4308.4551,N,07726.3618,W,1.86,12.37,101018,,,D*4D
$GPGGA,125654.800,4308.4552,N,07726.3618,W,2,09,0.91,155.7,M,-34.4,M,0000,0000*5C
$GPRMC,125655.000,A,4308.4553,N,07726.3618,W,2.95,6.26,101018,,,D*7C
$GPGGA,125655.200,4308.4555,N,07726.3617,W,2,09,0.91,155.7,M,-34.4,M,0000,0000*5F
$GPRMC,125655.400,A,4308.4557,N,07726.3618,W,3.91,0.15,101018,,,D*7F
$GPGGA,125655.600,4308.4559,N,07726.3618,W,2,09,0.91,155.7,M,-34.4,M,0000,0000*58
$GPRMC,125655.800,A,4308.4562,N,07726.3618,W,4.69,356.11,101018,,,D*71
$GPGGA,125656.000,4308.4564,N,07726.3619,W,2,09,0.91,155.7,M,-34.4,M,0000,0000*52
$GPRMC,125656.200,A,4308.4568,N,07726.3619,W,5.68,350.03,101018,,,D*76
$GPGGA,125656.400,4308.4571,N,07726.3620,W,2,09,0.91,155.7,M,-34.4,M,0000,0000*58
$GPRMC,125656.600,A,4308.4575,N,07726.3622,W,6.92,342.76,101018,,,D*71
$GPGGA,125656.800,4308.4579,N,07726.3623,W,2,09,0.91,155.8,M,-34.4,M,0000,0000*50
$GPRMC,125657.000,A,4308.4582,N,07726.3626,W,7.75,333.69,101018,,,D*7A
$GPGGA,125657.200,4308.4586,N,07726.3629,W,2,09,0.91,155.8,M,-34.4,M,0000,0000*51
$GPRMC,125657.400,A,4308.4590,N,07726.3632,W,8.50,326.42,101018,,,D*7D
$GPGGA,125657.600,4308.4594,N,07726.3636,W,2,09,0.91,155.8,M,-34.4,M,0000,0000*58
$GPRMC,125657.800,A,4308.4598,N,07726.3641,W,9.42,317.10,101018,,,D*7A
$GPGGA,125658.000,4308.4602,N,07726.3646,W,2,09,0.91,155.8,M,-34.4,M,0000,0000*5A
$GPRMC,125658.200,A,4308.4606,N,07726.3652,W,10.19,308.79,101018,,,D*4E
$GPGGA,125658.400,4308.4609,N,07726.3658,W,2,09,0.91,155.7,M,-34.4,M,0000,0000*55
$GPRMC,125658.600,A,4308.4613,N,07726.3665,W,11.09,302.80,101018,,,D*46
$GPGGA,125658.800,4308.4616,N,07726.3673,W,2,09,0.91,155.7,M,-34.4,M,0000,0000*5E
$GPRMC,125659.000,A,4308.4619,N,07726.3681,W,11.54,294.59,101018,,,D*43
$GPGGA,125659.200,4308.4621,N,07726.3689,W,2,09,0.91,155.5,M,-34.4,M,0000,0000*56
$GPRMC,125659.400,A,4308.4624,N,07726.3698,W,12.46,288.04,101018,,,D*44
$GPGGA,125659.600,4308.4626,N,07726.3706,W,2,09,0.91,155.4,M,-34.4,M,0000,0000*52
$GPRMC,125659.800,A,4308.4628,N,07726.3716,W,13.18,282.88,101018,,,D*47
$GPGGA,125700.000,4308.4629,N,07726.3726,W,2,09,0.91,155.3,M,-34.4,M,0000,0000*53
$GPRMC,125700.200,A,4308.4631,N,07726.3736,W,13.75,278.58,101018,,,D*49
$GPGGA,125700.400,4308.4632,N,07726.3746,W,2,09,0.91,155.2,M,-34.4,M,0000,0000*5A
$GPRMC,125700.600,A,4308.4633,N,07726.3757,W,14.33,277.66,101018,,,D*4F
$GPGGA,125700.800,4308.4634,N,07726.3768,W,2,09,0.91,155.1,M,-34.4,M,0000,0000*5F
$GPRMC,125701.000,A,4308.4635,N,07726.3778,W,14.44,277.38,101018,,,D*48
$GPGGA,125701.200,4308.4636,N,07726.3789,W,2,09,0.91,154.9,M,-34.4,M,0000,0000*50
$GPRMC,125701.400,A,4308.4637,N,07726.3800,W,14.49,276.84,101018,,,D*45
$GPGGA,125701.600,4308.4639,N,07726.3810,W,2,09,0.90,154.8,M,-34.4,M,0000,0000*54
$GPRMC,125701.800,A,4308.4640,N,07726.3821,W,14.56,276.67,101018,,,D*49
$GPGGA,125702.000,4308.4641,N,07726.3831,W,2,09,0.91,154.6,M,-34.4,M,0000,0000*52
$GPRMC,125702.200,A,4308.4642,N,07726.3842,W,14.82,278.18,101018,,,D*48
$GPGGA,125702.400,4308.4643,N,07726.3853,W,2,09,0.91,154.5,M,-34.4,M,0000,0000*53
$GPRMC,125702.600,A,4308.4644,N,07726.3864,W,14.67,277.46,101018,,,D*41
$GPGGA,125702.800,4308.4645,N,07726.3875,W,2,09,0.91,154.4,M,-34.4,M,0000,0000*5C
$GPRMC,125703.000,A,4308.4646,N,07726.3886,W,14.65,277.41,101018,,,D*4D
$GPGGA,125703.200,4308.4647,N,07726.3897,W,2,09,0.91,154.3,M,-34.4,M,0000,0000*5E
$GPRMC,125703.400,A,4308.4648,N,07726.3908,W,14.73,277.22,101018,,,D*42
$GPGGA,125703.600,4308.4649,N,07726.3919,W,2,09,0.91,154.2,M,-34.4,M,0000,0000*52
$GPRMC,125703.800,A,4308.4650,N,07726.3930,W,14.75,277.06,101018,,,D*4C
$GPGGA,125704.000,4308.4651,N,07726.3941,W,2,09,0.91,154.0,M,-34.4,M,0000,0000*55
$GPRMC,125704.200,A,4308.4652,N,07726.3952,W,14.77,277.48,101018,,,D*4F
$GPGGA,125704.400,4308.4654,N,07726.3963,W,2,09,0.91,153.9,M,-34.4,M,0000,0000*5A
$GPRMC,125704.600,A,4308.4655,N,07726.3974,W,14.78,276.70,101018,,,D*4D
$GPGGA,125704.800,4308.4656,N,07726.3985,W,2,09,0.91,153.8,M,-34.4,M,0000,0000*5D
$GPRMC,125705.000,A,4308.4657,N,07726.3996,W,14.79,276.97,101018,,,D*4C
$GPGGA,125705.200,4308.4658,N,07726.4007,W,2,09,0.91,153.7,M,-34.4,M,0000,0000*53
$GPRMC,125705.400,A,4308.4659,N,07726.4018,W,14.79,277.08,101018,,,D*49
$GPGGA,125705.600,4308.4660,N,07726.4029,W,2,09,0.91,153.6,M,-34.4,M,0000,0000*51
$GPRMC,125705.800,A,4308.4661,N,07726.4041,W,14.79,277.69,101018,,,D*45
$GPGGA,125706.000,4308.4661,N,07726.4052,W,2,09,0.91,153.5,M,-34.4,M,0000,0000*5A
$GPRMC,125706.200,A,4308.4662,N,07726.4063,W,14.53,277.28,101018,,,D*42
$GPGGA,125706.400,4308.4663,N,07726.4075,W,2,09,0.91,153.4,M,-34.4,M,0000,0000*58
$GPRMC,125706.600,A,4308.4664,N,07726.4086,W,14.22,278.36,101018,,,D*4D
$GPGGA,125706.800,4308.4665,N,07726.4097,W,2,09,0.91,153.4,M,-34.4,M,0000,0000*5E
$GPRMC,125707.000,A,4308.4666,N,07726.4108,W,14.00,277.99,101018,,,D*45
$GPGGA,125707.200,4308.4667,N,07726.4118,W,2,09,0.91,153.3,M,-34.4,M,0000,0000*56
$GPRMC,125707.400,A,4308.4668,N,07726.4129,W,13.95,278.16,101018,,,D*4F
$GPGGA,125707.600,4308.4669,N,07726.4139,W,2,09,0.91,153.3,M,-34.4,M,0000,0000*5F
$GPRMC,125707.800,A,4308.4669,N,07726.4149,W,13.71,279.15,101018,,,D*4C
$GPGGA,125708.000,4308.4671,N,07726.4159,W,2,09,0.91,153.2,M,-34.4,M,0000,0000*58
$GPRMC,125708.200,A,4308.4671,N,07726.4169,W,13.66,278.29,101018,,,D*4A
$GPGGA,125708.400,4308.4672,N,07726.4180,W,2,09,0.91,153.1,M,-34.4,M,0000,0000*58
$GPRMC,125708.600,A,4308.4674,N,07726.4190,W,13.41,277.73,101018,,,D*48
$GPGGA,125708.800,4308.4675,N,07726.4200,W,2,09,0.91,153.1,M,-34.4,M,0000,0000*58
$GPRMC,125709.000,A,4308.4676,N,07726.4210,W,13.32,277.77,101018,,,D*46
$GPGGA,125709.200,4308.4677,N,07726.4219,W,2,09,0.91,153.0,M,-34.4,M,0000,0000*58
$GPRMC,125709.400,A,4308.4678,N,07726.4229,W,13.13,278.17,101018,,,D*4C
$GPGGA,125709.600,4308.4679,N,07726.4239,W,2,09,0.91,153.0,M,-34.4,M,0000,0000*50
$GPRMC,125709.800,A,4308.4680,N,07726.4249,W,12.24,277.99,101018,,,D*4D
$GPGGA,125710.000,4308.4680,N,07726.4258,W,2,09,0.91,153.0,M,-34.4,M,0000,0000*5F
$GPRMC,125710.200,A,4308.4681,N,07726.4266,W,11.12,278.91,101018,,,D*42
$GPGGA,125710.400,4308.4682,N,07726.4274,W,2,09,0.90,153.0,M,-34.4,M,0000,0000*56
$GPRMC,125710.600,A,4308.4683,N,07726.4282,W,10.11,278.10,101018,,,D*45
$GPGGA,125710.800,4308.4684,N,07726.4289,W,2,09,0.91,153.0,M,-34.4,M,0000,0000*5F
$GPRMC,125711.000,A,4308.4685,N,07726.4296,W,9.68,279.22,101018,,,D*77
$GPGGA,125711.200,4308.4686,N,07726.4303,W,2,09,0.91,153.0,M,-34.4,M,0000,0000*55
$GPRMC,125711.400,A,4308.4687,N,07726.4310,W,9.15,278.32,101018,,,D*74
$GPGGA,125711.600,4308.4688,N,07726.4317,W,2,09,0.91,153.0,M,-34.4,M,0000,0000*5A
$GPRMC,125711.800,A,4308.4689,N,07726.4323,W,8.58,279.03,101018,,,D*7D
$GPGGA,125712.000,4308.4690,N,07726.4329,W,2,09,0.91,153.0,M,-34.4,M,0000,0000*5B
$GPRMC,125712.200,A,4308.4691,N,07726.4335,W,7.97,277.39,101018,,,D*71
$GPGGA,125712.400,4308.4692,N,07726.4341,W,2,09,0.91,153.0,M,-34.4,M,0000,0000*53
$GPRMC,125712.600,A,4308.4693,N,07726.4347,W,7.45,276.42,101018,,,D*70
$GPGGA,125712.800,4308.4694,N,07726.4352,W,2,09,0.90,153.0,M,-34.4,M,0000,0000*5A
$GPRMC,125713.000,A,4308.4694,N,07726.4358,W,6.98,279.00,101018,,,D*76
$GPGGA,125713.200,4308.4695,N,07726.4363,W,2,09,0.90,152.9,M,-34.4,M,0000,0000*5A
$GPRMC,125713.400,A,4308.4696,N,07726.4368,W,6.43,277.77,101018,,,D*7B
$GPGGA,125713.600,4308.4696,N,07726.4372,W,2,09,0.91,152.9,M,-34.4,M,0000,0000*5C
$GPRMC,125713.800,A,4308.4697,N,07726.4377,W,6.07,278.44,101018,,,D*77
$GPGGA,125714.000,4308.4697,N,07726.4381,W,2,09,0.91,152.9,M,-34.4,M,0000,0000*50
$GPRMC,125714.200,A,4308.4697,N,07726.4385,W,5.54,277.57,101018,,,D*7F
$GPGGA,125714.400,4308.4697,N,07726.4389,W,2,09,0.91,153.0,M,-34.4,M,0000,0000*54
$GPRMC,125714.600,A,4308.4698,N,07726.4393,W,5.30,277.80,101018,,,D*7B
$GPGGA,125714.800,4308.4698,N,07726.4397,W,2,09,0.90,153.0,M,-34.4,M,0000,0000*59
$GPRMC,125715.000,A,4308.4699,N,07726.4401,W,5.62,278.81,101018,,,D*78
$GPGGA,125715.200,4308.4699,N,07726.4405,W,2,09,0.91,153.0,M,-34.4,M,0000,0000*5E
$GPRMC,125715.400,A,4308.4700,N,07726.4410,W,7.11,278.99,101018,,,D*72
$GPGGA,125715.600,4308.4700,N,07726.4416,W,2,09,0.91,153.0,M,-34.4,M,0000,0000*59
$GPRMC,125715.800,A,4308.4701,N,07726.4422,W,8.51,278.18,101018,,,D*7C
$GPGGA,125716.000,4308.4702,N,07726.4428,W,2,09,0.91,152.9,M,-34.4,M,0000,0000*5B
$GPRMC,125716.200,A,4308.4702,N,07726.4435,W,9.88,278.05,101018,,,D*79
$GPGGA,125716.400,4308.4703,N,07726.4443,W,2,09,0.90,152.9,M,-34.4,M,0000,0000*52
$GPRMC,125716.600,A,4308.4704,N,07726.4451,W,10.95,278.60,101018,,,D*4E
$GPGGA,125716.800,4308.4705,N,07726.4459,W,2,09,0.91,152.9,M,-34.4,M,0000,0000*52
$GPRMC,125717.000,A,4308.4706,N,07726.4468,W,11.88,277.66,101018,,,D*45
$GPGGA,125717.200,4308.4707,N,07726.4477,W,2,09,0.90,153.0,M,-34.4,M,0000,0000*5E
$GPRMC,125717.400,A,4308.4708,N,07726.4487,W,12.92,278.43,101018,,,D*4E
$GPGGA,125717.600,4308.4709,N,07726.4497,W,2,09,0.91,153.1,M,-34.4,M,0000,0000*5A
$GPRMC,125717.800,A,4308.4710,N,07726.4508,W,13.72,278.49,101018,,,D*48
$GPGGA,125718.000,4308.4710,N,07726.4519,W,2,09,0.91,153.2,M,-34.4,M,0000,0000*5F
$GPRMC,125718.200,A,4308.4711,N,07726.4530,W,14.86,277.84,101018,,,D*45
$GPGGA,125718.400,4308.4712,N,07726.4542,W,2,09,0.91,153.2,M,-34.4,M,0000,0000*57
$GPRMC,125718.600,A,4308.4713,N,07726.4553,W,15.67,277.66,101018,,,D*44
$GPGGA,125718.800,4308.4714,N,07726.4565,W,2,09,0.91,153.2,M,-34.4,M,0000,0000*58
$GPRMC,125719.000,A,4308.4715,N,07726.4578,W,16.85,277.62,101018,,,D*47
$GPGGA,125719.200,4308.4716,N,07726.4591,W,2,09,0.91,153.1,M,-34.4,M,0000,0000*59
$GPRMC,125719.400,A,4308.4717,N,07726.4605,W,17.75,277.46,101018,,,D*40
$GPGGA,125719.600,4308.4719,N,07726.4618,W,2,09,0.90,153.1,M,-34.4,M,0000,0000*51
$GPRMC,125719.800,A,4308.4720,N,07726.4633,W,18.54,277.44,101018,,,D*43
$GPGGA,125720.000,4308.4722,N,07726.4647,W,2,09,0.91,153.1,M,-34.4,M,0000,0000*5E
$GPRMC,125720.200,A,4308.4723,N,07726.4662,W,19.40,277.69,101018,,,D*4F
$GPGGA,125720.400,4308.4725,N,07726.4677,W,2,09,0.91,153.2,M,-34.4,M,0000,0000*5D
$GPRMC,125720.600,A,4308.4726,N,07726.4692,W,20.08,276.55,101018,,,D*49
$GPGGA,125720.800,4308.4727,N,07726.4707,W,2,09,0.91,153.3,M,-34.4,M,0000,0000*54
$GPRMC,125721.000,A,4308.4728,N,07726.4723,W,20.70,276.95,101018,,,D*48
$GPGGA,125721.200,4308.4730,N,07726.4738,W,2,09,0.91,153.4,M,-34.4,M,0000,0000*52
$GPRMC,125721.400,A,4308.4731,N,07726.4754,W,21.15,276.04,101018,,,D*4E
$GPGGA,125721.600,4308.4732,N,07726.4770,W,2,09,0.90,153.5,M,-34.4,M,0000,0000*58
$GPRMC,125721.800,A,4308.4734,N,07726.4787,W,21.90,276.84,101018,,,D*4C
$GPGGA,125722.000,4308.4736,N,07726.4803,W,2,09,0.91,153.6,M,-34.4,M,0000,0000*50
$GPRMC,125722.200,A,4308.4738,N,07726.4820,W,22.58,277.07,101018,,,D*46
$GPGGA,125722.400,4308.4739,N,07726.4837,W,2,09,0.91,153.7,M,-34.4,M,0000,0000*5D
$GPRMC,125722.600,A,4308.4741,N,07726.4855,W,23.03,276.87,101018,,,D*48
$GPGGA,125722.800,4308.4742,N,07726.4872,W,2,09,0.91,153.8,M,-34.4,M,0000,0000*53
$GPRMC,125723.000,A,4308.4744,N,07726.4890,W,23.79,276.70,101018,,,D*46
$GPGGA,125723.200,4308.4745,N,07726.4908,W,2,09,0.90,153.8,M,-34.4,M,0000,0000*52
$GPRMC,125723.400,A,4308.4746,N,07726.4926,W,23.86,275.32,101018,,,D*49
$GPGGA,125723.600,4308.4748,N,07726.4944,W,2,09,0.90,154.0,M,-34.4,M,0000,0000*5C
$GPRMC,125723.800,A,4308.4749,N,07726.4963,W,24.41,275.35,101018,,,D*40
$GPGGA,125724.000,4308.4750,N,07726.4981,W,2,09,0.91,154.1,M,-34.4,M,0000,0000*5D
$GPRMC,125724.200,A,4308.4751,N,07726.5000,W,24.85,275.38,101018,,,D*4C
$GPGGA,125724.400,4308.4752,N,07726.5018,W,2,09,0.91,154.2,M,-34.4,M,0000,0000*50
$GPRMC,125724.600,A,4308.4754,N,07726.5038,W,25.33,275.37,101018,,,D*45
$GPGGA,125724.800,4308.4755,N,07726.5057,W,2,09,0.91,154.3,M,-34.4,M,0000,0000*51
$GPRMC,125725.000,A,4308.4756,N,07726.5076,W,25.77,275.25,101018,,,D*49
$GPGGA,125725.200,4308.4757,N,07726.5095,W,2,09,0.91,154.3,M,-34.4,M,0000,0000*56
$GPRMC,125725.400,A,4308.4759,N,07726.5115,W,26.18,275.31,101018,,,D*49
$GPGGA,125725.600,4308.4760,N,07726.5135,W,2,09,0.91,154.4,M,-34.4,M,0000,0000*5A
$GPRMC,125725.800,A,4308.4761,N,07726.5155,W,26.63,275.48,101018,,,D*48
$GPGGA,125726.000,4308.4763,N,07726.5175,W,2,09,0.91,154.4,M,-34.4,M,0000,0000*58
$GPRMC,125726.200,A,4308.4764,N,07726.5196,W,26.92,274.61,101018,,,D*4F
$GPGGA,125726.400,4308.4765,N,07726.5216,W,2,09,0.90,154.4,M,-34.4,M,0000,0000*5D
$GPRMC,125726.600,A,4308.4767,N,07726.5237,W,27.14,274.02,101018,,,D*4A
$GPGGA,125726.800,4308.4768,N,07726.5258,W,2,09,0.90,154.4,M,-34.4,M,0000,0000*56
$GPRMC,125727.000,A,4308.4769,N,07726.5279,W,27.64,274.34,101018,,,D*4B
$GPGGA,125727.200,4308.4770,N,07726.5300,W,2,09,0.90,154.4,M,-34.4,M,0000,0000*58
$GPRMC,125727.400,A,4308.4771,N,07726.5321,W,27.95,273.60,101018,,,D*42
$GPGGA,125727.600,4308.4772,N,07726.5342,W,2,09,0.91,154.4,M,-34.4,M,0000,0000*59
$GPRMC,125727.800,A,4308.4773,N,07726.5364,W,28.29,273.38,101018,,,D*48
$GPGGA,125728.000,4308.4774,N,07726.5385,W,2,08,1.02,154.4,M,-34.4,M,0000,0000*57
$GPRMC,125728.200,A,4308.4775,N,07726.5407,W,28.77,273.72,101018,,,D*4C
$GPGGA,125728.400,4308.4776,N,07726.5429,W,2,08,1.02,154.4,M,-34.4,M,0000,0000*50
$GPRMC,125728.600,A,4308.4776,N,07726.5451,W,28.86,272.62,101018,,,D*46
$GPGGA,125728.800,4308.4777,N,07726.5473,W,2,08,1.02,154.4,M,-34.4,M,0000,0000*52
$GPRMC,125729.000,A,4308.4778,N,07726.5495,W,29.06,272.67,101018,,,D*4B
$GPGGA,125729.200,4308.4779,N,07726.5518,W,2,08,1.02,154.4,M,-34.4,M,0000,0000*5B
$GPRMC,125729.400,A,4308.4780,N,07726.5540,W,29.17,272.75,101018,,,D*42
$GPGGA,125729.600,4308.4780,N,07726.5563,W,2,08,1.02,154.3,M,-34.4,M,0000,0000*52
$GPRMC,125729.800,A,4308.4781,N,07726.5585,W,30.02,272.87,101018,,,D*47
$GPGGA,125730.000,4308.4782,N,07726.5608,W,2,08,1.02,154.3,M,-34.4,M,0000,0000*50
$GPRMC,125730.200,A,4308.4782,N,07726.5631,W,30.35,272.51,101018,,,D*45
$GPGGA,125730.400,4308.4783,N,07726.5654,W,2,08,1.02,154.3,M,-34.4,M,0000,0000*5C
$GPRMC,125730.600,A,4308.4784,N,07726.5678,W,30.64,273.04,101018,,,D*4F
$GPGGA,125730.800,4308.4785,N,07726.5701,W,2,08,1.02,154.3,M,-34.4,M,0000,0000*57
$GPRMC,125731.000,A,4308.4786,N,07726.5725,W,31.03,273.38,101018,,,D*4C
$GPGGA,125731.200,4308.4787,N,07726.5748,W,2,08,1.02,154.4,M,-34.4,M,0000,0000*54
$GPRMC,125731.400,A,4308.4788,N,07726.5772,W,31.23,273.29,101018,,,D*46
$GPGGA,125731.600,4308.4789,N,07726.5796,W,2,08,1.02,154.5,M,-34.4,M,0000,0000*5C
$GPRMC,125731.800,A,4308.4789,N,07726.5820,W,31.45,273.06,101018,,,D*4E
$GPGGA,125732.000,4308.4790,N,07726.5844,W,2,08,1.02,154.5,M,-34.4,M,0000,0000*51
$GPRMC,125732.200,A,4308.4791,N,07726.5868,W,31.70,273.06,101018,,,D*44
$GPGGA,125732.400,4308.4792,N,07726.5893,W,2,08,1.02,154.7,M,-34.4,M,0000,0000*5F
$GPRMC,125732.600,A,4308.4793,N,07726.5917,W,32.04,272.83,101018,,,D*47
$GPGGA,125732.800,4308.4794,N,07726.5941,W,2,08,1.02,154.8,M,-34.4,M,0000,0000*54
$GPRMC,125733.000,A,4308.4795,N,07726.5965,W,32.05,272.55,101018,,,D*49
$GPGGA,125733.200,4308.4796,N,07726.5990,W,2,08,1.02,154.9,M,-34.4,M,0000,0000*50
$GPRMC,125733.400,A,4308.4796,N,07726.6014,W,32.11,272.60,101018,,,D*41
$GPGGA,125733.600,4308.4797,N,07726.6038,W,2,08,1.02,155.1,M,-34.4,M,0000,0000*54
$GPRMC,125733.800,A,4308.4798,N,07726.6063,W,32.07,272.04,101018,,,D*46
$GPGGA,125734.000,4308.4798,N,07726.6087,W,2,08,1.02,155.2,M,-34.4,M,0000,0000*5D
$GPRMC,125734.200,A,4308.4799,N,07726.6111,W,32.05,272.04,101018,,,D*4C
$GPGGA,125734.400,4308.4799,N,07726.6135,W,2,08,1.02,155.4,M,-34.4,M,0000,0000*56
$GPRMC,125734.600,A,4308.4799,N,07726.6159,W,31.33,271.07,101018,,,D*42
$GPGGA,125734.800,4308.4800,N,07726.6182,W,2,08,1.02,155.5,M,-34.4,M,0000,0000*58
$GPRMC,125735.000,A,4308.4800,N,07726.6206,W,31.29,271.26,101018,,,D*4B
$GPGGA,125735.200,4308.4800,N,07726.6230,W,2,08,1.02,155.5,M,-34.4,M,0000,0000*59
$GPRMC,125735.400,A,4308.4800,N,07726.6253,W,31.32,270.22,101018,,,D*40
$GPGGA,125735.600,4308.4801,N,07726.6277,W,2,08,1.02,155.6,M,-34.4,M,0000,0000*5C
$GPRMC,125735.800,A,4308.4801,N,07726.6301,W,31.33,270.05,101018,,,D*4F
$GPGGA,125736.000,4308.4801,N,07726.6324,W,2,08,1.02,155.7,M,-34.4,M,0000,0000*5F
$GPRMC,125736.200,A,4308.4801,N,07726.6348,W,31.53,269.90,101018,,,D*49
$GPGGA,125736.400,4308.4801,N,07726.6372,W,2,08,1.02,155.7,M,-34.4,M,0000,0000*58
$GPRMC,125736.600,A,4308.4801,N,07726.6396,W,31.54,268.91,101018,,,D*49
$GPGGA,125736.800,4308.4800,N,07726.6420,W,2,08,1.02,155.8,M,-34.4,M,0000,0000*5A
$GPRMC,125737.000,A,4308.4800,N,07726.6444,W,31.63,268.60,101018,,,D*4D
$GPGGA,125737.200,4308.4800,N,07726.6468,W,2,08,1.02,155.9,M,-34.4,M,0000,0000*5C
$GPRMC,125737.400,A,4308.4799,N,07726.6492,W,31.88,267.68,101018,,,D*4F
$GPGGA,125737.600,4308.4798,N,07726.6516,W,2,08,1.02,156.0,M,-34.4,M,0000,0000*54
$GPRMC,125737.800,A,4308.4797,N,07726.6540,W,31.91,266.96,101018,,,D*4B
$GPGGA,125738.000,4308.4797,N,07726.6565,W,2,08,1.02,156.1,M,-34.4,M,0000,0000*57
$GPRMC,125738.200,A,4308.4796,N,07726.6589,W,32.10,266.59,101018,,,D*43
$GPGGA,125738.400,4308.4795,N,07726.6613,W,2,08,1.02,156.2,M,-34.4,M,0000,0000*50
$GPRMC,125738.600,A,4308.4793,N,07726.6637,W,32.22,266.33,101018,,,D*49
$GPGGA,125738.800,4308.4792,N,07726.6662,W,2,08,1.02,156.3,M,-34.4,M,0000,0000*5C
$GPRMC,125739.000,A,4308.4791,N,07726.6686,W,32.32,266.22,101018,,,D*47
$GPGGA,125739.200,4308.4790,N,07726.6711,W,2,09,0.90,156.4,M,-34.4,M,0000,0000*5C
$GPRMC,125739.400,A,4308.4789,N,07726.6735,W,32.49,266.10,101018,,,D*4E
$GPGGA,125739.600,4308.4788,N,07726.6760,W,2,09,0.91,156.5,M,-34.4,M,0000,0000*57
$GPRMC,125739.800,A,4308.4787,N,07726.6784,W,32.53,266.09,101018,,,D*45
$GPGGA,125740.000,4308.4785,N,07726.6809,W,2,08,1.02,156.6,M,-34.4,M,0000,0000*5B
$GPRMC,125740.200,A,4308.4784,N,07726.6833,W,32.58,265.72,101018,,,D*45
$GPGGA,125740.400,4308.4783,N,07726.6858,W,2,09,0.90,156.8,M,-34.4,M,0000,0000*58
$GPRMC,125740.600,A,4308.4782,N,07726.6882,W,32.61,265.55,101018,,,D*42
$GPGGA,125740.800,4308.4780,N,07726.6907,W,2,09,0.91,156.8,M,-34.4,M,0000,0000*5D
$GPRMC,125741.000,A,4308.4779,N,07726.6931,W,32.65,265.84,101018,,,D*40
$GPGGA,125741.200,4308.4778,N,07726.6956,W,2,09,0.90,157.0,M,-34.4,M,0000,0000*5D
$GPRMC,125741.400,A,4308.4776,N,07726.6980,W,32.67,265.77,101018,,,D*4F
$GPGGA,125741.600,4308.4775,N,07726.7005,W,2,09,0.91,157.2,M,-34.4,M,0000,0000*59
$GPRMC,125741.800,A,4308.4774,N,07726.7030,W,32.68,265.87,101018,,,D*42
$GPGGA,125742.000,4308.4772,N,07726.7055,W,2,09,0.90,157.3,M,-34.4,M,0000,0000*5E
$GPRMC,125742.200,A,4308.4771,N,07726.7079,W,32.73,266.43,101018,,,D*42
$GPGGA,125742.400,4308.4770,N,07726.7104,W,2,09,0.91,157.5,M,-34.4,M,0000,0000*5A
$GPRMC,125742.600,A,4308.4768,N,07726.7128,W,32.50,265.89,101018,,,D*4F
$GPGGA,125742.800,4308.4767,N,07726.7153,W,2,08,1.02,157.8,M,-34.4,M,0000,0000*55
$GPRMC,125743.000,A,4308.4766,N,07726.7177,W,32.50,265.96,101018,,,D*42
$GPGGA,125743.200,4308.4764,N,07726.7202,W,2,09,0.90,158.0,M,-34.4,M,0000,0000*56
$GPRMC,125743.400,A,4308.4763,N,07726.7226,W,32.43,266.17,101018,,,D*4C
$GPGGA,125743.600,4308.4762,N,07726.7251,W,2,09,0.90,158.2,M,-34.4,M,0000,0000*50
$GPRMC,125743.800,A,4308.4760,N,07726.7275,W,32.13,265.62,101018,,,D*41
$GPGGA,125744.000,4308.4759,N,07726.7299,W,2,08,1.02,158.5,M,-34.4,M,0000,0000*51
$GPRMC,125744.200,A,4308.4757,N,07726.7323,W,31.92,265.86,101018,,,D*4A
$GPGGA,125744.400,4308.4756,N,07726.7347,W,2,08,1.02,158.8,M,-34.4,M,0000,0000*55
$GPRMC,125744.600,A,4308.4755,N,07726.7371,W,31.74,266.21,101018,,,D*4D
$GPGGA,125744.800,4308.4753,N,07726.7395,W,2,08,1.02,159.0,M,-34.4,M,0000,0000*5A
$GPRMC,125745.000,A,4308.4752,N,07726.7419,W,31.66,265.81,101018,,,D*4E
$GPGGA,125745.200,4308.4751,N,07726.7443,W,2,08,1.02,159.2,M,-34.4,M,0000,0000*5D
$GPRMC,125745.400,A,4308.4749,N,07726.7466,W,31.60,265.64,101018,,,D*45
$GPGGA,125745.600,4308.4748,N,07726.7490,W,2,08,1.02,159.5,M,-34.4,M,0000,0000*58
$GPRMC,125745.800,A,4308.4747,N,07726.7514,W,31.59,266.01,101018,,,D*49
$GPGGA,125746.000,4308.4745,N,07726.7538,W,2,09,0.91,159.7,M,-34.4,M,0000,0000*5B
$GPRMC,125746.200,A,4308.4744,N,07726.7562,W,31.53,266.11,101018,,,D*49
$GPGGA,125746.400,4308.4743,N,07726.7585,W,2,09,0.91,160.0,M,-34.4,M,0000,0000*52
$GPRMC,125746.600,A,4308.4741,N,07726.7609,W,31.44,265.84,101018,,,D*4F
$GPGGA,125746.800,4308.4740,N,07726.7633,W,2,09,0.90,160.2,M,-34.4,M,0000,0000*50
$GPRMC,125747.000,A,4308.4739,N,07726.7656,W,31.35,265.86,101018,,,D*49
$GPGGA,125747.200,4308.4737,N,07726.7680,W,2,09,0.91,160.4,M,-34.4,M,0000,0000*54
$GPRMC,125747.400,A,4308.4736,N,07726.7703,W,31.27,265.41,101018,,,D*4B
$GPGGA,125747.600,4308.4735,N,07726.7727,W,2,09,0.90,160.6,M,-34.4,M,0000,0000*5D
$GPRMC,125747.800,A,4308.4733,N,07726.7751,W,31.21,265.75,101018,,,D*44
$GPGGA,125748.000,4308.4732,N,07726.7774,W,2,09,0.91,160.6,M,-34.4,M,0000,0000*54
$GPRMC,125748.200,A,4308.4731,N,07726.7798,W,31.26,265.72,101018,,,D*46
$GPGGA,125748.400,4308.4729,N,07726.7822,W,2,09,0.91,160.6,M,-34.4,M,0000,0000*56
$GPRMC,125748.600,A,4308.4728,N,07726.7845,W,31.56,265.66,101018,,,D*47
$GPGGA,125748.800,4308.4727,N,07726.7869,W,2,09,0.91,160.6,M,-34.4,M,0000,0000*5B
$GPRMC,125749.000,A,4308.4725,N,07726.7893,W,31.75,265.72,101018,,,D*42
$GPGGA,125749.200,4308.4724,N,07726.7917,W,2,09,0.91,160.6,M,-34.4,M,0000,0000*5B
$GPRMC,125749.400,A,4308.4723,N,07726.7941,W,31.87,265.37,101018,,,D*42
$GPGGA,125749.600,4308.4721,N,07726.7965,W,2,09,0.90,160.5,M,-34.4,M,0000,0000*5D
$GPRMC,125749.800,A,4308.4720,N,07726.7990,W,32.12,264.92,101018,,,D*40
$GPGGA,125750.000,4308.4718,N,07726.8014,W,2,09,0.91,160.5,M,-34.4,M,0000,0000*58
$GPRMC,125750.200,A,4308.4717,N,07726.8038,W,32.30,265.22,101018,,,D*48
$GPGGA,125750.400,4308.4716,N,07726.8063,W,2,08,1.02,160.4,M,-34.4,M,0000,0000*59
$GPRMC,125750.600,A,4308.4714,N,07726.8087,W,32.64,265.26,101018,,,D*4E
$GPGGA,125750.800,4308.4713,N,07726.8112,W,2,08,1.02,160.2,M,-34.4,M,0000,0000*51
$GPRMC,125751.000,A,4308.4712,N,07726.8136,W,32.72,265.45,101018,,,D*46
$GPGGA,125751.200,4308.4710,N,07726.8161,W,2,08,1.02,160.2,M,-34.4,M,0000,0000*5D
$GPRMC,125751.400,A,4308.4708,N,07726.8186,W,32.91,265.08,101018,,,D*46
$GPGGA,125751.600,4308.4707,N,07726.8210,W,2,08,1.02,160.1,M,-34.4,M,0000,0000*59
$GPRMC,125751.800,A,4308.4705,N,07726.8235,W,33.13,265.24,101018,,,D*49
$GPGGA,125752.000,4308.4704,N,07726.8260,W,2,09,0.90,160.0,M,-34.4,M,0000,0000*52
$GPRMC,125752.200,A,4308.4703,N,07726.8285,W,33.20,265.17,101018,,,D*4D
$GPGGA,125752.400,4308.4701,N,07726.8311,W,2,08,1.02,159.9,M,-34.4,M,0000,0000*5C
$GPRMC,125752.600,A,4308.4700,N,07726.8336,W,33.39,264.88,101018,,,D*4C
$GPGGA,125752.800,4308.4698,N,07726.8361,W,2,08,1.02,159.8,M,-34.4,M,0000,0000*57
$GPRMC,125753.000,A,4308.4696,N,07726.8386,W,33.43,264.84,101018,,,D*4F
$GPGGA,125753.200,4308.4695,N,07726.8411,W,2,09,0.90,159.7,M,-34.4,M,0000,0000*55
$GPRMC,125753.400,A,4308.4693,N,07726.8437,W,33.60,264.97,101018,,,D*40
$GPGGA,125753.600,4308.4691,N,07726.8462,W,2,09,0.90,159.5,M,-34.4,M,0000,0000*53
$GPRMC,125753.800,A,4308.4690,N,07726.8487,W,33.66,264.76,101018,,,D*4D
$GPGGA,125754.000,4308.4688,N,07726.8513,W,2,09,0.90,159.4,M,-34.4,M,0000,0000*5C
$GPRMC,125754.200,A,4308.4687,N,07726.8538,W,33.68,264.93,101018,,,D*46
$GPGGA,125754.400,4308.4685,N,07726.8563,W,2,09,0.91,159.2,M,-34.4,M,0000,0000*55
$GPRMC,125754.600,A,4308.4683,N,07726.8589,W,33.70,264.82,101018,,,D*45
$GPGGA,125754.800,4308.4681,N,07726.8614,W,2,08,1.02,159.1,M,-34.4,M,0000,0000*57
$GPRMC,125755.000,A,4308.4680,N,07726.8640,W,33.74,264.75,101018,,,D*4B
$GPGGA,125755.200,4308.4678,N,07726.8666,W,2,09,0.90,159.0,M,-34.4,M,0000,0000*55
$GPRMC,125755.400,A,4308.4676,N,07726.8691,W,33.72,264.60,101018,,,D*48
$GPGGA,125755.600,4308.4675,N,07726.8717,W,2,09,0.90,158.9,M,-34.4,M,0000,0000*53
$GPRMC,125755.800,A,4308.4673,N,07726.8742,W,33.44,264.45,101018,,,D*4C
$GPGGA,125756.000,4308.4671,N,07726.8767,W,2,09,0.90,158.7,M,-34.4,M,0000,0000*5B
$GPRMC,125756.200,A,4308.4670,N,07726.8792,W,33.39,265.06,101018,,,D*47
$GPGGA,125756.400,4308.4668,N,07726.8818,W,2,09,0.90,158.6,M,-34.4,M,0000,0000*51
$GPRMC,125756.600,A,4308.4666,N,07726.8843,W,33.14,264.99,101018,,,D*4F
$GPGGA,125756.800,4308.4665,N,07726.8868,W,2,09,0.90,158.5,M,-34.4,M,0000,0000*54
$GPRMC,125757.000,A,4308.4663,N,07726.8893,W,33.08,264.62,101018,,,D*49
$GPGGA,125757.200,4308.4662,N,07726.8918,W,2,09,0.90,158.4,M,-34.4,M,0000,0000*5F
$GPRMC,125757.400,A,4308.4660,N,07726.8943,W,32.83,265.06,101018,,,D*43
$GPGGA,125757.600,4308.4658,N,07726.8968,W,2,08,1.02,158.3,M,-34.4,M,0000,0000*59
$GPRMC,125757.800,A,4308.4657,N,07726.8992,W,32.64,265.13,101018,,,D*4A
$GPGGA,125758.000,4308.4655,N,07726.9017,W,2,09,0.91,158.3,M,-34.4,M,0000,0000*57
$GPRMC,125758.200,A,4308.4654,N,07726.9042,W,32.46,265.05,101018,,,D*4E
$GPGGA,125758.400,4308.4652,N,07726.9067,W,2,09,0.91,158.2,M,-34.4,M,0000,0000*52
$GPRMC,125758.600,A,4308.4651,N,07726.9091,W,32.36,265.20,101018,,,D*41
$GPGGA,125758.800,4308.4649,N,07726.9116,W,2,09,0.90,158.2,M,-34.4,M,0000,0000*52
$GPRMC,125759.000,A,4308.4648,N,07726.9140,W,32.20,265.09,101018,,,D*4F
$GPGGA,125759.200,4308.4646,N,07726.9164,W,2,08,1.02,158.1,M,-34.4,M,0000,0000*5B
$GPRMC,125759.400,A,4308.4645,N,07726.9189,W,32.11,265.41,101018,,,D*4D
$GPGGA,125759.600,4308.4644,N,07726.9213,W,2,09,0.90,157.9,M,-34.4,M,0000,0000*52
$GPRMC,125759.800,A,4308.4642,N,07726.9237,W,32.05,265.37,101018,,,D*44
$GPGGA,125800.000,4308.4641,N,07726.9261,W,2,09,0.90,157.8,M,-34.4,M,0000,0000*56
$GPRMC,125800.200,A,4308.4640,N,07726.9285,W,31.91,265.18,101018,,,D*45
$GPGGA,125800.400,4308.4638,N,07726.9309,W,2,10,0.86,157.5,M,-34.4,M,0000,0000*51
$GPRMC,125800.600,A,4308.4637,N,07726.9332,W,31.93,265.18,101018,,,D*4E
$GPGGA,125800.800,4308.4635,N,07726.9356,W,2,10,0.86,157.2,M,-34.4,M,0000,0000*5D
$GPRMC,125801.000,A,4308.4634,N,07726.9380,W,32.15,265.63,101018,,,D*42
$GPGGA,125801.200,4308.4632,N,07726.9404,W,2,10,0.86,157.0,M,-34.4,M,0000,0000*53
$GPRMC,125801.400,A,4308.4631,N,07726.9428,W,32.27,265.27,101018,,,D*47
$GPGGA,125801.600,4308.4630,N,07726.9452,W,2,10,0.86,156.7,M,-34.4,M,0000,0000*50
$GPRMC,125801.800,A,4308.4628,N,07726.9476,W,32.51,265.28,101018,,,D*46
$GPGGA,125802.000,4308.4627,N,07726.9501,W,2,09,0.95,156.5,M,-34.4,M,0000,0000*5C
$GPRMC,125802.200,A,4308.4625,N,07726.9525,W,32.69,264.90,101018,,,D*4C
$GPGGA,125802.400,4308.4623,N,07726.9550,W,2,09,0.95,156.2,M,-34.4,M,0000,0000*5F
$GPRMC,125802.600,A,4308.4622,N,07726.9574,W,32.80,265.24,101018,,,D*42
$GPGGA,125802.800,4308.4620,N,07726.9599,W,2,10,0.86,155.9,M,-34.4,M,0000,0000*57
$GPRMC,125803.000,A,4308.4619,N,07726.9624,W,33.01,265.17,101018,,,D*43
$GPGGA,125803.200,4308.4617,N,07726.9648,W,2,09,0.95,155.7,M,-34.4,M,0000,0000*53
$GPRMC,125803.400,A,4308.4616,N,07726.9673,W,33.13,265.27,101018,,,D*4A
$GPGGA,125803.600,4308.4614,N,07726.9698,W,2,09,0.95,155.4,M,-34.4,M,0000,0000*5A
$GPRMC,125803.800,A,4308.4612,N,07726.9723,W,33.39,265.07,101018,,,D*4C
$GPGGA,125804.000,4308.4611,N,07726.9748,W,2,09,0.95,155.2,M,-34.4,M,0000,0000*54
$GPRMC,125804.200,A,4308.4609,N,07726.9774,W,33.62,265.12,101018,,,D*43
$GPGGA,125804.400,4308.4607,N,07726.9799,W,2,09,0.95,154.9,M,-34.4,M,0000,0000*51
$GPRMC,125804.600,A,4308.4605,N,07726.9824,W,33.71,264.88,101018,,,D*41
$GPGGA,125804.800,4308.4604,N,07726.9850,W,2,09,0.95,154.7,M,-34.4,M,0000,0000*5A
$GPRMC,125805.000,A,4308.4602,N,07726.9875,W,33.78,265.18,101018,,,D*44
$GPGGA,125805.200,4308.4600,N,07726.9900,W,2,09,0.95,154.5,M,-34.4,M,0000,0000*53
$GPRMC,125805.400,A,4308.4598,N,07726.9926,W,33.86,265.39,101018,,,D*45
$GPGGA,125805.600,4308.4597,N,07726.9952,W,2,10,0.86,154.3,M,-34.4,M,0000,0000*51
$GPRMC,125805.800,A,4308.4595,N,07726.9977,W,33.98,265.66,101018,,,D*45
$GPGGA,125806.000,4308.4593,N,07727.0003,W,2,10,0.86,154.2,M,-34.4,M,0000,0000*54
$GPRMC,125806.200,A,4308.4592,N,07727.0029,W,34.06,266.33,101018,,,D*42
$GPGGA,125806.400,4308.4591,N,07727.0054,W,2,10,0.86,154.0,M,-34.4,M,0000,0000*52
$GPRMC,125806.600,A,4308.4589,N,07727.0080,W,34.05,266.41,101018,,,D*49
$GPGGA,125806.800,4308.4588,N,07727.0106,W,2,10,0.86,153.8,M,-34.4,M,0000,0000*5F
$GPRMC,125807.000,A,4308.4587,N,07727.0132,W,34.09,266.60,101018,,,D*47
$GPGGA,125807.200,4308.4585,N,07727.0157,W,2,10,0.86,153.7,M,-34.4,M,0000,0000*52
$GPRMC,125807.400,A,4308.4584,N,07727.0183,W,34.13,266.85,101018,,,D*4A
$GPGGA,125807.600,4308.4583,N,07727.0209,W,2,10,0.86,153.5,M,-34.4,M,0000,0000*5A
$GPRMC,125807.800,A,4308.4582,N,07727.0235,W,34.16,266.70,101018,,,D*41
$GPGGA,125808.000,4308.4581,N,07727.0261,W,2,09,0.95,153.4,M,-34.4,M,0000,0000*54
$GPRMC,125808.200,A,4308.4580,N,07727.0287,W,34.12,267.09,101018,,,D*44
$GPGGA,125808.400,4308.4579,N,07727.0312,W,2,10,0.86,153.3,M,-34.4,M,0000,0000*5F
$GPRMC,125808.600,A,4308.4578,N,07727.0338,W,34.06,267.62,101018,,,D*4A
$GPGGA,125808.800,4308.4578,N,07727.0364,W,2,09,0.95,153.1,M,-34.4,M,0000,0000*5B
$GPRMC,125809.000,A,4308.4577,N,07727.0390,W,34.02,268.49,101018,,,D*42
$GPGGA,125809.200,4308.4576,N,07727.0415,W,2,09,0.95,153.0,M,-34.4,M,0000,0000*5E
$GPRMC,125809.400,A,4308.4576,N,07727.0441,W,34.00,268.50,101018,,,D*46
$GPGGA,125809.600,4308.4576,N,07727.0467,W,2,09,0.95,152.9,M,-34.4,M,0000,0000*57
$GPRMC,125809.800,A,4308.4576,N,07727.0493,W,34.04,269.21,101018,,,D*46
$GPGGA,125810.000,4308.4576,N,07727.0519,W,2,10,0.86,152.7,M,-34.4,M,0000,0000*55
$GPRMC,125810.200,A,4308.4575,N,07727.0544,W,34.04,269.15,101018,,,D*4B
$GPGGA,125810.400,4308.4575,N,07727.0570,W,2,10,0.86,152.6,M,-34.4,M,0000,0000*5C
$GPRMC,125810.600,A,4308.4576,N,07727.0595,W,34.30,271.78,101018,,,D*45
$GPGGA,125810.800,4308.4577,N,07727.0621,W,2,10,0.86,152.4,M,-34.4,M,0000,0000*57
