Vers 57
USE_SERIAL_FEEDBACK=false
DEVELOPMENT_MODE=false
USE_RMC_ONLY=false

$GPRMC,121830.600,A,4308.3021,N,07726.2630,W,0.01,338.36,111018,,,A*7B
$GPGGA,121830.800,4308.3022,N,07726.2629,W,1,08,1.09,139.8,M,-34.4,M,,*55
$GPRMC,121831.000,A,4308.3022,N,07726.2629,W,0.06,13.81,111018,,,A*46
$GPGGA,121831.200,4308.3022,N,07726.2629,W,1,08,1.12,139.3,M,-34.4,M,,*5F
$GPRMC,121831.400,A,4308.3021,N,07726.2629,W,0.02,292.31,111018,,,A*75
$GPGGA,121831.600,4308.3022,N,07726.2629,W,1,08,1.09,139.2,M,-34.4,M,,*50
$GPRMC,121831.800,A,4308.3021,N,07726.2629,W,0.01,28.47,111018,,,A*48
$GPGGA,121832.000,4308.3022,N,07726.2630,W,1,08,1.09,139.3,M,-34.4,M,,*5C
$GPRMC,121832.200,A,4308.3022,N,07726.2630,W,0.02,246.30,111018,,,A*73
$GPGGA,121832.400,4308.3023,N,07726.2630,W,1,08,1.09,139.4,M,-34.4,M,,*5E
$GPRMC,121832.600,A,4308.3023,N,07726.2631,W,0.03,250.74,111018,,,A*71
$GPGGA,121832.800,4308.3023,N,07726.2631,W,1,08,1.09,139.7,M,-34.4,M,,*50
$GPRMC,121833.000,A,4308.3024,N,07726.2632,W,0.01,93.93,111018,,,A*44
$GPGGA,121833.200,4308.3024,N,07726.2633,W,1,08,1.09,140.2,M,-34.4,M,,*55
$GPRMC,121833.400,A,4308.3024,N,07726.2634,W,0.02,204.51,111018,,,A*77
$GPGGA,121833.600,4308.3025,N,07726.2635,W,1,08,1.09,140.6,M,-34.4,M,,*52
$GPRMC,121833.800,A,4308.3025,N,07726.2635,W,0.02,2.81,111018,,,A*72
$GPGGA,121834.000,4308.3025,N,07726.2636,W,1,08,1.12,140.9,M,-34.4,M,,*55
$GPRMC,121834.200,A,4308.3026,N,07726.2636,W,0.02,97.80,111018,,,A*42
$GPGGA,121834.400,4308.3026,N,07726.2636,W,1,08,1.09,141.2,M,-34.4,M,,*52
$GPRMC,121834.600,A,4308.3026,N,07726.2637,W,0.01,52.41,111018,,,A*40
$GPGGA,121834.800,4308.3027,N,07726.2637,W,1,08,1.09,141.5,M,-34.4,M,,*59
$GPRMC,121835.000,A,4308.3027,N,07726.2638,W,0.02,352.49,111018,,,A*71
$GPGGA,121835.200,4308.3027,N,07726.2638,W,1,08,1.12,141.7,M,-34.4,M,,*55
$GPRMC,121835.400,A,4308.3028,N,07726.2638,W,0.02,51.48,111018,,,A*4B
$GPGGA,121835.600,4308.3028,N,07726.2639,W,1,08,1.09,142.0,M,-34.4,M,,*51
$GPRMC,121835.800,A,4308.3028,N,07726.2639,W,0.00,345.45,111018,,,A*7F
$GPGGA,121836.000,4308.3028,N,07726.2640,W,1,08,1.12,142.2,M,-34.4,M,,*52
$GPRMC,121836.200,A,4308.3029,N,07726.2640,W,0.01,171.26,111018,,,A*78
$GPGGA,121836.400,4308.3029,N,07726.2640,W,1,08,1.09,142.5,M,-34.4,M,,*5A
$GPRMC,121836.600,A,4308.3029,N,07726.2640,W,0.02,37.22,111018,,,A*48
$GPGGA,121836.800,4308.3030,N,07726.2640,W,1,08,1.09,142.7,M,-34.4,M,,*5C
$GPRMC,121837.000,A,4308.3030,N,07726.2641,W,0.01,119.62,111018,,,A*7C
$GPGGA,121837.200,4308.3030,N,07726.2641,W,1,08,1.09,142.8,M,-34.4,M,,*59
$GPRMC,121837.400,A,4308.3030,N,07726.2641,W,0.04,92.43,111018,,,A*4C
$GPGGA,121837.600,4308.3030,N,07726.2641,W,1,08,1.09,142.9,M,-34.4,M,,*5C
$GPRMC,121837.800,A,4308.3030,N,07726.2641,W,0.02,238.68,111018,,,A*7D
$GPGGA,121838.000,4308.3031,N,07726.2641,W,1,08,1.09,143.0,M,-34.4,M,,*5C
$GPRMC,121838.200,A,4308.3031,N,07726.2641,W,0.02,19.21,111018,,,A*45
$GPGGA,121838.400,4308.3031,N,07726.2641,W,1,08,1.09,143.1,M,-34.4,M,,*59
$GPRMC,121838.600,A,4308.3031,N,07726.2641,W,0.02,44.18,111018,,,A*43
$GPGGA,121838.800,4308.3031,N,07726.2642,W,1,08,1.09,143.2,M,-34.4,M,,*55
$GPRMC,121839.000,A,4308.3031,N,07726.2642,W,0.01,331.85,111018,,,A*71
$GPGGA,121839.200,4308.3032,N,07726.2642,W,1,08,1.09,143.2,M,-34.4,M,,*5D
$GPRMC,121839.400,A,4308.3032,N,07726.2642,W,0.02,235.06,111018,,,A*7B
$GPGGA,121839.600,4308.3032,N,07726.2642,W,1,08,1.09,143.2,M,-34.4,M,,*59
$GPRMC,121839.800,A,4308.3033,N,07726.2642,W,0.01,11.69,111018,,,A*48
$GPGGA,121840.000,4308.3033,N,07726.2642,W,1,08,1.12,143.1,M,-34.4,M,,*59
$GPRMC,121840.200,A,4308.3033,N,07726.2642,W,0.02,358.04,111018,,,A*7A
$GPGGA,121840.400,4308.3033,N,07726.2641,W,1,07,1.14,143.0,M,-34.4,M,,*56
$GPRMC,121840.600,A,4308.3034,N,07726.2641,W,0.01,101.39,111018,,,A*79
$GPGGA,121840.800,4308.3034,N,07726.2641,W,1,08,1.09,142.8,M,-34.4,M,,*57
$GPRMC,121841.000,A,4308.3034,N,07726.2641,W,0.01,237.99,111018,,,A*72
$GPGGA,121841.200,4308.3034,N,07726.2641,W,1,08,1.09,142.7,M,-34.4,M,,*53
$GPRMC,121841.400,A,4308.3034,N,07726.2641,W,0.00,180.17,111018,,,A*7E
$GPGGA,121841.600,4308.3035,N,07726.2641,W,1,07,1.13,142.6,M,-34.4,M,,*53
$GPRMC,121841.800,A,4308.3035,N,07726.2641,W,0.02,52.18,111018,,,A*40
$GPGGA,121842.000,4308.3035,N,07726.2641,W,1,07,1.13,142.5,M,-34.4,M,,*55
$GPRMC,121842.200,A,4308.3035,N,07726.2641,W,0.01,239.14,111018,,,A*79
$GPGGA,121842.400,4308.3035,N,07726.2641,W,1,08,1.09,142.4,M,-34.4,M,,*54
$GPRMC,121842.600,A,4308.3035,N,07726.2640,W,0.01,64.16,111018,,,A*44
$GPGGA,121842.800,4308.3035,N,07726.2640,W,1,08,1.09,142.3,M,-34.4,M,,*5E
$GPRMC,121843.000,A,4308.3035,N,07726.2640,W,0.02,73.11,111018,,,A*41
$GPGGA,121843.200,4308.3035,N,07726.2640,W,1,08,1.09,142.2,M,-34.4,M,,*54
$GPRMC,121843.400,A,4308.3035,N,07726.2640,W,0.03,162.49,111018,,,A*78
$GPGGA,121843.600,4308.3035,N,07726.2639,W,1,08,1.09,142.1,M,-34.4,M,,*5D
$GPRMC,121843.800,A,4308.3035,N,07726.2639,W,0.01,215.28,111018,,,A*7C
$GPGGA,121844.000,4308.3035,N,07726.2639,W,1,07,1.13,142.0,M,-34.4,M,,*59
$GPRMC,121844.200,A,4308.3035,N,07726.2639,W,0.01,322.40,111018,,,A*7A
$GPGGA,121844.400,4308.3035,N,07726.2639,W,1,08,1.09,142.0,M,-34.4,M,,*59
$GPRMC,121844.600,A,4308.3035,N,07726.2639,W,0.01,293.09,111018,,,A*78
$GPGGA,121844.800,4308.3035,N,07726.2638,W,1,07,1.13,141.9,M,-34.4,M,,*5A
$GPRMC,121845.000,A,4308.3035,N,07726.2638,W,0.01,53.12,111018,,,A*4A
$GPGGA,121845.200,4308.3035,N,07726.2638,W,1,08,1.09,141.9,M,-34.4,M,,*55
$GPRMC,121845.400,A,4308.3035,N,07726.2638,W,0.01,359.38,111018,,,A*7F
$GPGGA,121845.600,4308.3035,N,07726.2638,W,1,07,1.14,141.9,M,-34.4,M,,*52
$GPRMC,121845.800,A,4308.3035,N,07726.2638,W,0.06,245.62,111018,,,A*77
$GPGGA,121846.000,4308.3036,N,07726.2638,W,1,08,1.09,142.0,M,-34.4,M,,*5D
$GPRMC,121846.200,A,4308.3036,N,07726.2638,W,0.02,45.54,111018,,,A*4E
$GPGGA,121846.400,4308.3036,N,07726.2638,W,1,08,1.09,142.0,M,-34.4,M,,*59
$GPRMC,121846.600,A,4308.3036,N,07726.2638,W,0.00,34.36,111018,,,A*4A
$GPGGA,121846.800,4308.3036,N,07726.2638,W,1,08,1.09,142.1,M,-34.4,M,,*54
$GPRMC,121847.000,A,4308.3036,N,07726.2638,W,0.02,315.32,111018,,,A*7B
$GPGGA,121847.200,4308.3036,N,07726.2638,W,1,07,1.13,142.2,M,-34.4,M,,*58
$GPRMC,121847.400,A,4308.3036,N,07726.2638,W,0.01,238.35,111018,,,A*75
$GPGGA,121847.600,4308.3036,N,07726.2638,W,1,08,1.09,142.3,M,-34.4,M,,*59
$GPRMC,121847.800,A,4308.3036,N,07726.2638,W,0.02,253.06,111018,,,A*77
$GPGGA,121848.000,4308.3037,N,07726.2638,W,1,08,1.09,142.4,M,-34.4,M,,*56
$GPRMC,121848.200,A,4308.3037,N,07726.2638,W,0.01,299.61,111018,,,A*77
$GPGGA,121848.400,4308.3037,N,07726.2638,W,1,08,1.09,142.5,M,-34.4,M,,*53
$GPRMC,121848.600,A,4308.3037,N,07726.2638,W,0.00,33.42,111018,,,A*41
$GPGGA,121848.800,4308.3037,N,07726.2638,W,1,08,1.09,142.6,M,-34.4,M,,*5C
$GPRMC,121849.000,A,4308.3037,N,07726.2638,W,0.01,119.66,111018,,,A*78
$GPGGA,121849.200,4308.3038,N,07726.2638,W,1,08,1.09,142.7,M,-34.4,M,,*59
$GPRMC,121849.400,A,4308.3038,N,07726.2638,W,0.01,10.74,111018,,,A*48
$GPGGA,121849.600,4308.3038,N,07726.2638,W,1,08,1.12,142.7,M,-34.4,M,,*57
$GPRMC,121849.800,A,4308.3038,N,07726.2638,W,0.01,350.08,111018,,,A*78
$GPGGA,121850.000,4308.3038,N,07726.2638,W,1,08,1.12,142.9,M,-34.4,M,,*57
$GPRMC,121850.200,A,4308.3038,N,07726.2637,W,0.02,203.24,111018,,,A*7F
$GPGGA,121850.400,4308.3038,N,07726.2637,W,1,08,1.09,142.9,M,-34.4,M,,*56
$GPRMC,121850.600,A,4308.3038,N,07726.2637,W,0.01,81.77,111018,,,A*46
$GPGGA,121850.800,4308.3038,N,07726.2637,W,1,08,1.09,143.0,M,-34.4,M,,*52
$GPRMC,121851.000,A,4308.3038,N,07726.2637,W,0.01,80.25,111018,,,A*47
$GPGGA,121851.200,4308.3039,N,07726.2637,W,1,08,1.09,143.1,M,-34.4,M,,*59
$GPRMC,121851.400,A,4308.3039,N,07726.2637,W,0.01,112.75,111018,,,A*7D
$GPGGA,121851.600,4308.3039,N,07726.2636,W,1,08,1.09,143.1,M,-34.4,M,,*5C
$GPRMC,121851.800,A,4308.3039,N,07726.2636,W,0.01,13.30,111018,,,A*41
$GPGGA,121852.000,4308.3039,N,07726.2636,W,1,08,1.12,143.2,M,-34.4,M,,*50
$GPRMC,121852.200,A,4308.3039,N,07726.2636,W,0.00,284.24,111018,,,A*70
$GPGGA,121852.400,4308.3039,N,07726.2635,W,1,08,1.09,143.3,M,-34.4,M,,*5C
$GPRMC,121852.600,A,4308.3039,N,07726.2635,W,0.00,298.53,111018,,,A*7A
$GPGGA,121852.800,4308.3039,N,07726.2635,W,1,08,1.09,143.3,M,-34.4,M,,*50
$GPRMC,121853.000,A,4308.3038,N,07726.2635,W,0.00,268.35,111018,,,A*73
$GPGGA,121853.200,4308.3038,N,07726.2634,W,1,08,1.09,143.4,M,-34.4,M,,*5C
$GPRMC,121853.400,A,4308.3038,N,07726.2634,W,0.00,74.67,111018,,,A*4E
$GPGGA,121853.600,4308.3038,N,07726.2634,W,1,08,1.09,143.4,M,-34.4,M,,*58
$GPRMC,121853.800,A,4308.3038,N,07726.2633,W,0.01,106.28,111018,,,A*7B
$GPGGA,121854.000,4308.3038,N,07726.2633,W,1,08,1.09,143.4,M,-34.4,M,,*5E
$GPRMC,121854.200,A,4308.3038,N,07726.2633,W,0.02,100.98,111018,,,A*78
$GPGGA,121854.400,4308.3038,N,07726.2632,W,1,08,1.09,143.4,M,-34.4,M,,*5B
$GPRMC,121854.600,A,4308.3037,N,07726.2632,W,0.02,225.58,111018,,,A*7A
$GPGGA,121854.800,4308.3037,N,07726.2632,W,1,08,1.09,143.4,M,-34.4,M,,*58
$GPRMC,121855.000,A,4308.3037,N,07726.2632,W,0.02,180.46,111018,,,A*7E
$GPGGA,121855.200,4308.3037,N,07726.2631,W,1,08,1.09,143.4,M,-34.4,M,,*50
$GPRMC,121855.400,A,4308.3037,N,07726.2631,W,0.01,81.91,111018,,,A*40
$GPGGA,121855.600,4308.3037,N,07726.2630,W,1,08,1.09,143.4,M,-34.4,M,,*55
$GPRMC,121855.800,A,4308.3036,N,07726.2630,W,0.02,31.67,111018,,,A*4D
$GPGGA,121856.000,4308.3036,N,07726.2630,W,1,08,1.09,143.4,M,-34.4,M,,*51
$GPRMC,121856.200,A,4308.3036,N,07726.2629,W,0.01,186.22,111018,,,A*73
$GPGGA,121856.400,4308.3036,N,07726.2629,W,1,08,1.09,143.5,M,-34.4,M,,*5C
$GPRMC,121856.600,A,4308.3035,N,07726.2629,W,0.02,109.30,111018,,,A*73
$GPGGA,121856.800,4308.3035,N,07726.2628,W,1,08,1.09,143.5,M,-34.4,M,,*52
$GPRMC,121857.000,A,4308.3035,N,07726.2628,W,0.02,206.57,111018,,,A*78
$GPGGA,121857.200,4308.3035,N,07726.2628,W,1,08,1.09,143.5,M,-34.4,M,,*59
$GPRMC,121857.400,A,4308.3035,N,07726.2627,W,0.01,279.82,111018,,,A*70
$GPGGA,121857.600,4308.3035,N,07726.2627,W,1,08,1.09,143.6,M,-34.4,M,,*51
$GPRMC,121857.800,A,4308.3034,N,07726.2627,W,0.01,62.63,111018,,,A*4A
$GPGGA,121858.000,4308.3034,N,07726.2626,W,1,08,1.09,143.6,M,-34.4,M,,*58
$GPRMC,121858.200,A,4308.3034,N,07726.2626,W,0.01,185.96,111018,,,A*7C
$GPGGA,121858.400,4308.3034,N,07726.2626,W,1,08,1.09,143.7,M,-34.4,M,,*5D
$GPRMC,121858.600,A,4308.3034,N,07726.2626,W,0.01,143.44,111018,,,A*7D
$GPGGA,121858.800,4308.3034,N,07726.2625,W,1,08,1.09,143.8,M,-34.4,M,,*5D
$GPRMC,121859.000,A,4308.3034,N,07726.2625,W,0.02,48.63,111018,,,A*45
$GPGGA,121859.200,4308.3034,N,07726.2625,W,1,08,1.09,143.9,M,-34.4,M,,*57
$GPRMC,121859.400,A,4308.3033,N,07726.2625,W,0.02,12.29,111018,,,A*47
$GPGGA,121859.600,4308.3033,N,07726.2625,W,1,08,1.12,144.1,M,-34.4,M,,*51
$GPRMC,121859.800,A,4308.3033,N,07726.2624,W,0.01,117.88,111018,,,A*76
$GPGGA,121900.000,4308.3033,N,07726.2624,W,1,08,1.09,144.2,M,-34.4,M,,*52
$GPRMC,121900.200,A,4308.3033,N,07726.2624,W,0.00,293.70,111018,,,A*78
$GPGGA,121900.400,4308.3033,N,07726.2624,W,1,10,0.89,144.4,M,-34.4,M,,*50
$GPRMC,121900.600,A,4308.3033,N,07726.2624,W,0.04,140.97,111018,,,A*7C
$GPGGA,121900.800,4308.3033,N,07726.2623,W,1,10,0.89,144.5,M,-34.4,M,,*5A
$GPRMC,121901.000,A,4308.3032,N,07726.2623,W,0.01,136.75,111018,,,A*75
$GPGGA,121901.200,4308.3032,N,07726.2623,W,1,10,0.89,144.7,M,-34.4,M,,*52
$GPRMC,121901.400,A,4308.3032,N,07726.2623,W,0.01,29.86,111018,,,A*42
$GPGGA,121901.600,4308.3032,N,07726.2623,W,1,10,0.89,144.8,M,-34.4,M,,*59
$GPRMC,121901.800,A,4308.3032,N,07726.2623,W,0.02,132.30,111018,,,A*7B
$GPGGA,121902.000,4308.3032,N,07726.2623,W,1,10,0.89,145.0,M,-34.4,M,,*55
$GPRMC,121902.200,A,4308.3032,N,07726.2623,W,0.02,88.58,111018,,,A*4C
$GPGGA,121902.400,4308.3032,N,07726.2623,W,1,10,0.89,145.1,M,-34.4,M,,*50
$GPRMC,121902.600,A,4308.3031,N,07726.2622,W,0.04,206.92,111018,,,A*7E
$GPGGA,121902.800,4308.3031,N,07726.2622,W,1,10,0.89,145.2,M,-34.4,M,,*5D
$GPRMC,121903.000,A,4308.3031,N,07726.2622,W,0.02,138.10,111018,,,A*7B
$GPGGA,121903.200,4308.3031,N,07726.2622,W,1,10,0.89,145.3,M,-34.4,M,,*57
$GPRMC,121903.400,A,4308.3031,N,07726.2622,W,0.04,116.81,111018,,,A*7D
$GPGGA,121903.600,4308.3031,N,07726.2622,W,1,10,0.89,145.4,M,-34.4,M,,*54
$GPRMC,121903.800,A,4308.3031,N,07726.2622,W,0.00,250.41,111018,,,A*78
$GPGGA,121904.000,4308.3031,N,07726.2622,W,1,10,0.89,145.4,M,-34.4,M,,*55
$GPRMC,121904.200,A,4308.3031,N,07726.2622,W,0.03,13.45,111018,,,A*47
$GPGGA,121904.400,4308.3031,N,07726.2622,W,1,10,0.90,145.4,M,-34.4,M,,*59
$GPRMC,121904.600,A,4308.3031,N,07726.2622,W,0.01,82.75,111018,,,A*4A
$GPGGA,121904.800,4308.3031,N,07726.2622,W,1,10,0.89,145.4,M,-34.4,M,,*5D
$GPRMC,121905.000,A,4308.3031,N,07726.2622,W,0.01,191.12,111018,,,A*7F
$GPGGA,121905.200,4308.3031,N,07726.2622,W,1,10,0.89,145.4,M,-34.4,M,,*56
$GPRMC,121905.400,A,4308.3031,N,07726.2622,W,0.01,349.45,111018,,,A*7E
$GPGGA,121905.600,4308.3031,N,07726.2622,W,1,10,0.90,145.4,M,-34.4,M,,*5A
$GPRMC,121905.800,A,4308.3031,N,07726.2622,W,0.02,110.84,111018,,,A*72
$GPGGA,121906.000,4308.3031,N,07726.2622,W,1,10,0.89,145.4,M,-34.4,M,,*57
$GPRMC,121906.200,A,4308.3031,N,07726.2622,W,0.02,194.63,111018,,,A*7E
$GPGGA,121906.400,4308.3031,N,07726.2622,W,1,10,0.89,145.4,M,-34.4,M,,*53
$GPRMC,121906.600,A,4308.3031,N,07726.2622,W,0.01,226.84,111018,,,A*7A
$GPGGA,121906.800,4308.3031,N,07726.2622,W,1,10,0.89,145.4,M,-34.4,M,,*5F
$GPRMC,121907.000,A,4308.3031,N,07726.2622,W,0.01,296.06,111018,,,A*7C
$GPGGA,121907.200,4308.3031,N,07726.2622,W,1,10,0.89,145.4,M,-34.4,M,,*54
$GPRMC,121907.400,A,4308.3031,N,07726.2622,W,0.01,71.06,111018,,,A*43
$GPGGA,121907.600,4308.3031,N,07726.2622,W,1,10,0.89,145.4,M,-34.4,M,,*50
$GPRMC,121907.800,A,4308.3031,N,07726.2622,W,0.02,59.70,111018,,,A*47
$GPGGA,121908.000,4308.3031,N,07726.2622,W,1,10,0.89,145.4,M,-34.4,M,,*59
$GPRMC,121908.200,A,4308.3031,N,07726.2622,W,0.23,4.29,111018,,,A*75
$GPGGA,121908.400,4308.3031,N,07726.2622,W,1,10,0.90,145.4,M,-34.4,M,,*55
$GPRMC,121908.600,A,4308.3031,N,07726.2622,W,0.76,4.50,111018,,,A*7F
$GPGGA,121908.800,4308.3032,N,07726.2622,W,1,10,0.90,145.4,M,-34.4,M,,*5A
$GPRMC,121909.000,A,4308.3032,N,07726.2622,W,1.50,6.32,111018,,,A*78
$GPGGA,121909.200,4308.3032,N,07726.2621,W,1,10,0.90,145.2,M,-34.4,M,,*54
$GPRMC,121909.400,A,4308.3032,N,07726.2621,W,2.12,3.92,111018,,,A*75
$GPGGA,121909.600,4308.3032,N,07726.2620,W,1,10,0.90,145.1,M,-34.4,M,,*52
$GPRMC,121909.800,A,4308.3033,N,07726.2620,W,2.86,4.87,111018,,,A*77
$GPGGA,121910.000,4308.3034,N,07726.2620,W,1,10,0.90,145.0,M,-34.4,M,,*5B
$GPRMC,121910.200,A,4308.3035,N,07726.2620,W,3.10,3.36,111018,,,A*70
$GPGGA,121910.400,4308.3037,N,07726.2620,W,1,10,0.90,145.1,M,-34.4,M,,*5D
$GPRMC,121910.600,A,4308.3038,N,07726.2620,W,3.27,3.24,111018,,,A*7E
$GPGGA,121910.800,4308.3040,N,07726.2619,W,1,10,0.90,145.2,M,-34.4,M,,*58
$GPRMC,121911.000,A,4308.3042,N,07726.2618,W,3.41,359.11,111018,,,A*75
$GPGGA,121911.200,4308.3044,N,07726.2618,W,1,09,0.94,145.4,M,-34.4,M,,*5C
$GPRMC,121911.400,A,4308.3047,N,07726.2618,W,3.30,359.46,111018,,,A*70
$GPGGA,121911.600,4308.3049,N,07726.2618,W,1,08,1.06,145.6,M,-34.4,M,,*5C
$GPRMC,121911.800,A,4308.3052,N,07726.2618,W,3.48,357.33,111018,,,A*7B
$GPGGA,121912.000,4308.3055,N,07726.2618,W,1,09,0.94,145.8,M,-34.4,M,,*51
$GPRMC,121912.200,A,4308.3057,N,07726.2618,W,3.60,355.55,111018,,,A*7F
$GPGGA,121912.400,4308.3059,N,07726.2619,W,1,09,0.94,146.0,M,-34.4,M,,*53
$GPRMC,121912.600,A,4308.3062,N,07726.2619,W,3.74,355.28,111018,,,A*73
$GPGGA,121912.800,4308.3064,N,07726.2619,W,1,09,0.94,146.2,M,-34.4,M,,*53
$GPRMC,121913.000,A,4308.3066,N,07726.2619,W,3.54,355.06,111018,,,A*7E
$GPGGA,121913.200,4308.3069,N,07726.2620,W,1,09,0.94,146.4,M,-34.4,M,,*59
$GPRMC,121913.400,A,4308.3071,N,07726.2620,W,2.70,356.00,111018,,,A*74
$GPGGA,121913.600,4308.3073,N,07726.2621,W,1,09,0.94,146.5,M,-34.4,M,,*56
$GPRMC,121913.800,A,4308.3075,N,07726.2621,W,1.84,356.22,111018,,,A*75
$GPGGA,121914.000,4308.3077,N,07726.2621,W,1,09,0.94,146.7,M,-34.4,M,,*51
$GPRMC,121914.200,A,4308.3078,N,07726.2622,W,0.99,355.85,111018,,,A*75
$GPGGA,121914.400,4308.3079,N,07726.2622,W,1,09,0.94,147.0,M,-34.4,M,,*5E
$GPRMC,121914.600,A,4308.3079,N,07726.2623,W,0.35,350.87,111018,,,A*70
$GPGGA,121914.800,4308.3080,N,07726.2623,W,1,10,0.90,147.2,M,-34.4,M,,*5B
$GPRMC,121915.000,A,4308.3080,N,07726.2624,W,0.02,163.26,111018,,,A*7B
$GPGGA,121915.200,4308.3081,N,07726.2624,W,1,10,0.89,147.3,M,-34.4,M,,*5F
$GPRMC,121915.400,A,4308.3081,N,07726.2625,W,0.09,3.08,111018,,,A*7F
$GPGGA,121915.600,4308.3082,N,07726.2625,W,1,10,0.90,147.5,M,-34.4,M,,*57
$GPRMC,121915.800,A,4308.3083,N,07726.2626,W,0.53,352.80,111018,,,A*7A
$GPGGA,121916.000,4308.3083,N,07726.2627,W,1,10,0.90,147.7,M,-34.4,M,,*53
$GPRMC,121916.200,A,4308.3084,N,07726.2627,W,0.76,355.71,111018,,,A*7B
$GPGGA,121916.400,4308.3085,N,07726.2628,W,1,09,0.94,147.8,M,-34.4,M,,*5D
$GPRMC,121916.600,A,4308.3086,N,07726.2629,W,1.12,358.53,111018,,,A*7D
$GPGGA,121916.800,4308.3087,N,07726.2629,W,1,09,0.94,147.8,M,-34.4,M,,*52
$GPRMC,121917.000,A,4308.3088,N,07726.2630,W,1.49,356.10,111018,,,A*7B
$GPGGA,121917.200,4308.3089,N,07726.2630,W,1,09,0.94,147.9,M,-34.4,M,,*5E
$GPRMC,121917.400,A,4308.3090,N,07726.2631,W,1.78,355.31,111018,,,A*75
$GPGGA,121917.600,4308.3092,N,07726.2631,W,1,10,0.90,147.9,M,-34.4,M,,*5D
$GPRMC,121917.800,A,4308.3093,N,07726.2631,W,2.02,354.94,111018,,,A*7A
$GPGGA,121918.000,4308.3094,N,07726.2632,W,1,09,0.94,147.9,M,-34.4,M,,*5D
$GPRMC,121918.200,A,4308.3095,N,07726.2632,W,1.59,357.72,111018,,,A*7C
$GPGGA,121918.400,4308.3096,N,07726.2632,W,1,09,0.94,147.9,M,-34.4,M,,*5B
$GPRMC,121918.600,A,4308.3097,N,07726.2632,W,1.08,358.18,111018,,,A*7D
$GPGGA,121918.800,4308.3097,N,07726.2632,W,1,09,0.94,147.9,M,-34.4,M,,*56
$GPRMC,121919.000,A,4308.3097,N,07726.2632,W,0.49,359.19,111018,,,A*7E
$GPGGA,121919.200,4308.3098,N,07726.2632,W,1,09,0.94,147.9,M,-34.4,M,,*52
$GPRMC,121919.400,A,4308.3098,N,07726.2632,W,0.01,165.78,111018,,,A*73
$GPGGA,121919.600,4308.3098,N,07726.2632,W,1,09,0.92,147.8,M,-34.4,M,,*51
$GPRMC,121919.800,A,4308.3098,N,07726.2632,W,0.03,107.51,111018,,,A*72
$GPGGA,121920.000,4308.3098,N,07726.2632,W,1,09,0.92,147.8,M,-34.4,M,,*5D
$GPRMC,121920.200,A,4308.3098,N,07726.2632,W,0.02,186.04,111018,,,A*7A
$GPGGA,121920.400,4308.3098,N,07726.2632,W,1,09,0.92,147.7,M,-34.4,M,,*56
$GPRMC,121920.600,A,4308.3098,N,07726.2632,W,0.01,184.16,111018,,,A*7C
$GPGGA,121920.800,4308.3098,N,07726.2633,W,1,09,0.92,147.7,M,-34.4,M,,*5B
$GPRMC,121921.000,A,4308.3098,N,07726.2633,W,0.03,321.88,111018,,,A*72
$GPGGA,121921.200,4308.3098,N,07726.2633,W,1,09,0.92,147.6,M,-34.4,M,,*51
$GPRMC,121921.400,A,4308.3098,N,07726.2633,W,0.02,292.36,111018,,,A*7B
$GPGGA,121921.600,4308.3098,N,07726.2633,W,1,09,0.92,147.5,M,-34.4,M,,*56
$GPRMC,121921.800,A,4308.3098,N,07726.2633,W,0.12,348.70,111018,,,A*72
$GPGGA,121922.000,4308.3098,N,07726.2633,W,1,09,0.94,147.4,M,-34.4,M,,*54
$GPRMC,121922.200,A,4308.3099,N,07726.2634,W,0.67,0.96,111018,,,A*78
$GPGGA,121922.400,4308.3099,N,07726.2634,W,1,09,0.94,147.3,M,-34.4,M,,*51
$GPRMC,121922.600,A,4308.3100,N,07726.2634,W,1.52,358.92,111018,,,A*70
$GPGGA,121922.800,4308.3101,N,07726.2634,W,1,08,1.06,147.3,M,-34.4,M,,*56
$GPRMC,121923.000,A,4308.3102,N,07726.2634,W,2.39,359.68,111018,,,A*7F
$GPGGA,121923.200,4308.3104,N,07726.2634,W,1,09,0.94,147.3,M,-34.4,M,,*53
$GPRMC,121923.400,A,4308.3105,N,07726.2634,W,2.80,0.40,111018,,,A*7B
$GPGGA,121923.600,4308.3107,N,07726.2634,W,1,08,1.06,147.2,M,-34.4,M,,*5E
$GPRMC,121923.800,A,4308.3108,N,07726.2635,W,3.07,0.91,111018,,,A*79
$GPGGA,121924.000,4308.3110,N,07726.2635,W,1,09,0.94,147.2,M,-34.4,M,,*53
$GPRMC,121924.200,A,4308.3112,N,07726.2635,W,3.31,358.71,111018,,,A*7A
$GPGGA,121924.400,4308.3114,N,07726.2635,W,1,09,0.94,147.3,M,-34.4,M,,*52
$GPRMC,121924.600,A,4308.3116,N,07726.2635,W,2.71,2.43,111018,,,A*72
$GPGGA,121924.800,4308.3117,N,07726.2635,W,1,09,0.94,147.3,M,-34.4,M,,*5D
$GPRMC,121925.000,A,4308.3119,N,07726.2635,W,2.10,4.81,111018,,,A*75
$GPGGA,121925.200,4308.3120,N,07726.2635,W,1,09,0.94,147.3,M,-34.4,M,,*52
$GPRMC,121925.400,A,4308.3121,N,07726.2635,W,1.44,3.31,111018,,,A*74
$GPGGA,121925.600,4308.3122,N,07726.2635,W,1,09,0.94,147.4,M,-34.4,M,,*53
$GPRMC,121925.800,A,4308.3123,N,07726.2636,W,1.30,4.71,111018,,,A*79
$GPGGA,121926.000,4308.3123,N,07726.2636,W,1,09,0.94,147.4,M,-34.4,M,,*54
$GPRMC,121926.200,A,4308.3124,N,07726.2636,W,1.22,4.65,111018,,,A*71
$GPGGA,121926.400,4308.3125,N,07726.2636,W,1,09,0.94,147.5,M,-34.4,M,,*57
$GPRMC,121926.600,A,4308.3126,N,07726.2636,W,0.84,5.70,111018,,,A*7F
$GPGGA,121926.800,4308.3126,N,07726.2636,W,1,09,0.94,147.7,M,-34.4,M,,*5A
$GPRMC,121927.000,A,4308.3127,N,07726.2636,W,0.63,8.61,111018,,,A*7D
$GPGGA,121927.200,4308.3127,N,07726.2636,W,1,09,0.94,147.8,M,-34.4,M,,*5F
$GPRMC,121927.400,A,4308.3128,N,07726.2636,W,0.89,4.66,111018,,,A*79
$GPGGA,121927.600,4308.3129,N,07726.2636,W,1,09,0.94,147.9,M,-34.4,M,,*54
$GPRMC,121927.800,A,4308.3130,N,07726.2636,W,1.29,3.93,111018,,,A*7A
$GPGGA,121928.000,4308.3130,N,07726.2636,W,1,10,0.90,148.0,M,-34.4,M,,*5F
$GPRMC,121928.200,A,4308.3131,N,07726.2636,W,1.72,5.77,111018,,,A*7C
$GPGGA,121928.400,4308.3132,N,07726.2636,W,1,09,0.94,148.1,M,-34.4,M,,*54
$GPRMC,121928.600,A,4308.3134,N,07726.2636,W,2.04,8.81,111018,,,A*7B
$GPGGA,121928.800,4308.3135,N,07726.2636,W,1,09,0.94,148.1,M,-34.4,M,,*5F
$GPRMC,121929.000,A,4308.3136,N,07726.2635,W,2.31,10.97,111018,,,A*45
$GPGGA,121929.200,4308.3137,N,07726.2635,W,1,09,0.94,148.1,M,-34.4,M,,*55
$GPRMC,121929.400,A,4308.3139,N,07726.2634,W,2.32,16.83,111018,,,A*4F
$GPGGA,121929.600,4308.3140,N,07726.2634,W,1,10,0.89,148.0,M,-34.4,M,,*55
$GPRMC,121929.800,A,4308.3141,N,07726.2633,W,2.48,21.00,111018,,,A*49
$GPGGA,121930.000,4308.3143,N,07726.2632,W,1,09,0.92,148.0,M,-34.4,M,,*5C
$GPRMC,121930.200,A,4308.3144,N,07726.2631,W,2.43,36.05,111018,,,A*44
$GPGGA,121930.400,4308.3145,N,07726.2629,W,1,09,0.92,147.9,M,-34.4,M,,*52
$GPRMC,121930.600,A,4308.3146,N,07726.2628,W,2.66,40.34,111018,,,A*4E
$GPGGA,121930.800,4308.3147,N,07726.2626,W,1,09,0.92,147.8,M,-34.4,M,,*52
$GPRMC,121931.000,A,4308.3148,N,07726.2625,W,2.68,38.96,111018,,,A*43
$GPGGA,121931.200,4308.3149,N,07726.2623,W,1,09,0.92,147.7,M,-34.4,M,,*5D
$GPRMC,121931.400,A,4308.3150,N,07726.2622,W,2.87,56.10,111018,,,A*4E
$GPGGA,121931.600,4308.3151,N,07726.2620,W,1,09,0.92,147.6,M,-34.4,M,,*52
$GPRMC,121931.800,A,4308.3151,N,07726.2617,W,2.75,60.42,111018,,,A*4A
$GPGGA,121932.000,4308.3152,N,07726.2615,W,1,09,0.92,147.5,M,-34.4,M,,*51
$GPRMC,121932.200,A,4308.3152,N,07726.2613,W,2.70,68.79,111018,,,A*41
$GPGGA,121932.400,4308.3152,N,07726.2611,W,1,09,0.92,147.4,M,-34.4,M,,*50
$GPRMC,121932.600,A,4308.3152,N,07726.2609,W,1.92,75.67,111018,,,A*42
$GPGGA,121932.800,4308.3152,N,07726.2608,W,1,09,0.92,147.3,M,-34.4,M,,*53
$GPRMC,121933.000,A,4308.3152,N,07726.2607,W,1.00,79.67,111018,,,A*4C
$GPGGA,121933.200,4308.3152,N,07726.2606,W,1,09,0.92,147.2,M,-34.4,M,,*57
$GPRMC,121933.400,A,4308.3152,N,07726.2605,W,0.24,95.19,111018,,,A*46
$GPGGA,121933.600,4308.3151,N,07726.2604,W,1,09,0.92,147.1,M,-34.4,M,,*51
$GPRMC,121933.800,A,4308.3151,N,07726.2604,W,0.10,247.99,111018,,,A*7A
$GPGGA,121934.000,4308.3151,N,07726.2604,W,1,09,0.92,147.0,M,-34.4,M,,*51
$GPRMC,121934.200,A,4308.3150,N,07726.2604,W,0.48,262.71,111018,,,A*7A
$GPGGA,121934.400,4308.3150,N,07726.2604,W,1,09,0.92,147.0,M,-34.4,M,,*54
$GPRMC,121934.600,A,4308.3150,N,07726.2605,W,1.09,268.43,111018,,,A*70
$GPGGA,121934.800,4308.3150,N,07726.2605,W,1,09,0.92,146.9,M,-34.4,M,,*51
$GPRMC,121935.000,A,4308.3150,N,07726.2606,W,1.75,266.83,111018,,,A*7D
$GPGGA,121935.200,4308.3149,N,07726.2608,W,1,09,0.92,146.9,M,-34.4,M,,*5F
$GPRMC,121935.400,A,4308.3149,N,07726.2609,W,2.43,271.30,111018,,,A*76
$GPGGA,121935.600,4308.3149,N,07726.2611,W,1,09,0.92,146.9,M,-34.4,M,,*53
$GPRMC,121935.800,A,4308.3149,N,07726.2613,W,3.04,269.70,111018,,,A*7E
$GPGGA,121936.000,4308.3149,N,07726.2615,W,1,09,0.92,147.0,M,-34.4,M,,*5A
$GPRMC,121936.200,A,4308.3149,N,07726.2618,W,3.64,274.94,111018,,,A*7C
$GPGGA,121936.400,4308.3149,N,07726.2621,W,1,09,0.92,147.0,M,-34.4,M,,*59
$GPRMC,121936.600,A,4308.3149,N,07726.2624,W,4.24,276.10,111018,,,A*7A
$GPGGA,121936.800,4308.3149,N,07726.2627,W,1,09,0.94,147.1,M,-34.4,M,,*54
$GPRMC,121937.000,A,4308.3150,N,07726.2631,W,4.96,277.90,111018,,,A*71
$GPGGA,121937.200,4308.3150,N,07726.2634,W,1,09,0.94,147.2,M,-34.4,M,,*56
$GPRMC,121937.400,A,4308.3151,N,07726.2638,W,5.55,281.09,111018,,,A*7A
$GPGGA,121937.600,4308.3151,N,07726.2643,W,1,10,0.90,147.3,M,-34.4,M,,*5E
$GPRMC,121937.800,A,4308.3152,N,07726.2647,W,6.19,282.48,111018,,,A*70
$GPGGA,121938.000,4308.3153,N,07726.2652,W,1,09,0.94,147.3,M,-34.4,M,,*59
$GPRMC,121938.200,A,4308.3154,N,07726.2657,W,6.77,282.29,111018,,,A*7D
$GPGGA,121938.400,4308.3155,N,07726.2662,W,1,09,0.94,147.5,M,-34.4,M,,*5E
$GPRMC,121938.600,A,4308.3155,N,07726.2667,W,7.43,282.72,111018,,,A*73
$GPGGA,121938.800,4308.3156,N,07726.2673,W,1,10,0.90,147.8,M,-34.4,M,,*50
$GPRMC,121939.000,A,4308.3158,N,07726.2678,W,7.94,282.28,111018,,,A*72
$GPGGA,121939.200,4308.3159,N,07726.2684,W,1,10,0.90,148.0,M,-34.4,M,,*5B
$GPRMC,121939.400,A,4308.3160,N,07726.2690,W,8.44,282.59,111018,,,A*7F
$GPGGA,121939.600,4308.3161,N,07726.2697,W,1,10,0.90,148.2,M,-34.4,M,,*54
$GPRMC,121939.800,A,4308.3162,N,07726.2704,W,9.04,282.71,111018,,,A*72
$GPGGA,121940.000,4308.3163,N,07726.2710,W,1,09,0.94,148.4,M,-34.4,M,,*5A
$GPRMC,121940.200,A,4308.3164,N,07726.2718,W,9.57,283.42,111018,,,A*7A
$GPGGA,121940.400,4308.3166,N,07726.2725,W,1,10,0.90,148.5,M,-34.4,M,,*50
$GPRMC,121940.600,A,4308.3167,N,07726.2732,W,10.19,284.71,111018,,,A*40
$GPGGA,121940.800,4308.3168,N,07726.2740,W,1,09,0.94,148.7,M,-34.4,M,,*5F
$GPRMC,121941.000,A,4308.3170,N,07726.2748,W,10.58,284.40,111018,,,A*4B
$GPGGA,121941.200,4308.3171,N,07726.2755,W,1,10,0.90,148.8,M,-34.4,M,,*5B
$GPRMC,121941.400,A,4308.3173,N,07726.2763,W,10.96,285.74,111018,,,A*41
$GPGGA,121941.600,4308.3174,N,07726.2771,W,1,09,0.94,148.9,M,-34.4,M,,*51
$GPRMC,121941.800,A,4308.3176,N,07726.2779,W,11.42,286.25,111018,,,A*4C
$GPGGA,121942.000,4308.3178,N,07726.2787,W,1,10,0.90,148.9,M,-34.4,M,,*5D
$GPRMC,121942.200,A,4308.3179,N,07726.2796,W,11.85,287.85,111018,,,A*4B
$GPGGA,121942.400,4308.3181,N,07726.2805,W,1,09,0.94,148.9,M,-34.4,M,,*56
$GPRMC,121942.600,A,4308.3183,N,07726.2813,W,12.12,288.87,111018,,,A*48
$GPGGA,121942.800,4308.3185,N,07726.2822,W,1,10,0.90,148.9,M,-34.4,M,,*57
$GPRMC,121943.000,A,4308.3187,N,07726.2831,W,12.65,290.47,111018,,,A*4E
$GPGGA,121943.200,4308.3190,N,07726.2840,W,1,10,0.90,148.9,M,-34.4,M,,*5C
$GPRMC,121943.400,A,4308.3192,N,07726.2849,W,12.98,291.71,111018,,,A*47
$GPGGA,121943.600,4308.3195,N,07726.2858,W,1,10,0.90,148.9,M,-34.4,M,,*54
$GPRMC,121943.800,A,4308.3197,N,07726.2867,W,13.24,294.25,111018,,,A*40
$GPGGA,121944.000,4308.3200,N,07726.2876,W,1,10,0.90,148.9,M,-34.4,M,,*56
$GPRMC,121944.200,A,4308.3203,N,07726.2885,W,13.57,297.14,111018,,,A*4A
$GPGGA,121944.400,4308.3207,N,07726.2895,W,1,09,0.94,148.9,M,-34.4,M,,*54
$GPRMC,121944.600,A,4308.3210,N,07726.2904,W,13.96,297.33,111018,,,A*4C
$GPGGA,121944.800,4308.3213,N,07726.2914,W,1,10,0.90,148.9,M,-34.4,M,,*59
$GPRMC,121945.000,A,4308.3217,N,07726.2923,W,14.52,298.50,111018,,,A*4C
$GPGGA,121945.200,4308.3220,N,07726.2932,W,1,10,0.90,148.8,M,-34.4,M,,*57
$GPRMC,121945.400,A,4308.3224,N,07726.2942,W,14.73,300.29,111018,,,A*42
$GPGGA,121945.600,4308.3227,N,07726.2951,W,1,10,0.90,148.7,M,-34.4,M,,*5E
$GPRMC,121945.800,A,4308.3231,N,07726.2960,W,14.92,300.69,111018,,,A*41
$GPGGA,121946.000,4308.3235,N,07726.2970,W,1,09,0.94,148.7,M,-34.4,M,,*57
$GPRMC,121946.200,A,4308.3239,N,07726.2980,W,15.25,301.62,111018,,,A*49
$GPGGA,121946.400,4308.3243,N,07726.2990,W,1,09,0.94,148.7,M,-34.4,M,,*5C
$GPRMC,121946.600,A,4308.3247,N,07726.3001,W,15.61,301.66,111018,,,A*41
$GPGGA,121946.800,4308.3251,N,07726.3011,W,1,10,0.90,148.6,M,-34.4,M,,*5F
$GPRMC,121947.000,A,4308.3255,N,07726.3021,W,15.90,301.77,111018,,,A*49
$GPGGA,121947.200,4308.3260,N,07726.3031,W,1,09,0.94,148.5,M,-34.4,M,,*5B
$GPRMC,121947.400,A,4308.3265,N,07726.3041,W,16.07,302.14,111018,,,A*43
$GPGGA,121947.600,4308.3269,N,07726.3052,W,1,09,0.94,148.4,M,-34.4,M,,*52
$GPRMC,121947.800,A,4308.3274,N,07726.3063,W,16.35,302.15,111018,,,A*4F
$GPGGA,121948.000,4308.3279,N,07726.3073,W,1,09,0.94,148.3,M,-34.4,M,,*5E
$GPRMC,121948.200,A,4308.3284,N,07726.3084,W,16.56,302.11,111018,,,A*4D
$GPGGA,121948.400,4308.3288,N,07726.3094,W,2,09,0.94,148.3,M,-34.4,M,0000,0000*5E
$GPRMC,121948.600,A,4308.3294,N,07726.3105,W,16.92,301.90,111018,,,D*47
$GPGGA,121948.800,4308.3299,N,07726.3116,W,2,09,0.94,148.3,M,-34.4,M,0000,0000*59
$GPRMC,121949.000,A,4308.3304,N,07726.3127,W,17.19,301.60,111018,,,D*45
$GPGGA,121949.200,4308.3309,N,07726.3138,W,2,10,0.90,148.3,M,-34.4,M,0000,0000*5A
$GPRMC,121949.400,A,4308.3314,N,07726.3149,W,17.26,302.00,111018,,,D*41
$GPGGA,121949.600,4308.3319,N,07726.3161,W,2,09,0.94,148.4,M,-34.4,M,0000,0000*58
$GPRMC,121949.800,A,4308.3325,N,07726.3172,W,17.58,302.02,111018,,,D*4C
$GPGGA,121950.000,4308.3330,N,07726.3184,W,2,09,0.94,148.5,M,-34.4,M,0000,0000*57
$GPRMC,121950.200,A,4308.3336,N,07726.3195,W,17.71,302.75,111018,,,D*4E
$GPGGA,121950.400,4308.3341,N,07726.3207,W,2,09,0.94,148.6,M,-34.4,M,0000,0000*5E
$GPRMC,121950.600,A,4308.3347,N,07726.3218,W,17.82,302.98,111018,,,D*45
$GPGGA,121950.800,4308.3353,N,07726.3230,W,2,09,0.94,148.8,M,-34.4,M,0000,0000*5B
$GPRMC,121951.000,A,4308.3358,N,07726.3241,W,17.52,303.93,111018,,,D*47
$GPGGA,121951.200,4308.3364,N,07726.3252,W,2,09,0.94,148.9,M,-34.4,M,0000,0000*51
$GPRMC,121951.400,A,4308.3370,N,07726.3263,W,16.87,304.84,111018,,,D*41
$GPGGA,121951.600,4308.3377,N,07726.3275,W,2,09,0.94,149.1,M,-34.4,M,0000,0000*5B
$GPRMC,121951.800,A,4308.3384,N,07726.3285,W,16.36,304.90,111018,,,D*41
$GPGGA,121952.000,4308.3389,N,07726.3296,W,2,09,0.94,149.3,M,-34.4,M,0000,0000*50
$GPRMC,121952.200,A,4308.3395,N,07726.3306,W,16.16,303.97,111018,,,D*40
$GPGGA,121952.400,4308.3400,N,07726.3316,W,2,09,0.94,149.5,M,-34.4,M,0000,0000*5D
$GPRMC,121952.600,A,4308.3406,N,07726.3327,W,15.98,303.45,111018,,,D*40
$GPGGA,121952.800,4308.3411,N,07726.3337,W,2,09,0.94,149.7,M,-34.4,M,0000,0000*50
$GPRMC,121953.000,A,4308.3416,N,07726.3347,W,16.10,303.31,111018,,,D*40
$GPGGA,121953.200,4308.3422,N,07726.3358,W,2,09,0.94,149.9,M,-34.4,M,0000,0000*5C
$GPRMC,121953.400,A,4308.3427,N,07726.3368,W,16.30,303.66,111018,,,D*4B
$GPGGA,121953.600,4308.3433,N,07726.3379,W,2,09,0.94,150.2,M,-34.4,M,0000,0000*58
$GPRMC,121953.800,A,4308.3438,N,07726.3389,W,16.37,303.58,111018,,,D*4C
$GPGGA,121954.000,4308.3443,N,07726.3400,W,2,10,0.90,150.4,M,-34.4,M,0000,0000*5D
$GPRMC,121954.200,A,4308.3449,N,07726.3410,W,16.48,303.46,111018,,,D*47
$GPGGA,121954.400,4308.3454,N,07726.3421,W,2,10,0.90,150.6,M,-34.4,M,0000,0000*5E
$GPRMC,121954.600,A,4308.3460,N,07726.3431,W,16.66,304.75,111018,,,D*40
$GPGGA,121954.800,4308.3465,N,07726.3442,W,2,10,0.90,150.8,M,-34.4,M,0000,0000*5B
$GPRMC,121955.000,A,4308.3470,N,07726.3453,W,16.85,305.31,111018,,,D*4E
$GPGGA,121955.200,4308.3476,N,07726.3463,W,2,09,0.94,151.0,M,-34.4,M,0000,0000*54
$GPRMC,121955.400,A,4308.3482,N,07726.3474,W,17.06,306.32,111018,,,D*48
$GPGGA,121955.600,4308.3487,N,07726.3484,W,2,09,0.94,151.2,M,-34.4,M,0000,0000*55
$GPRMC,121955.800,A,4308.3493,N,07726.3495,W,17.15,307.04,111018,,,D*4D
$GPGGA,121956.000,4308.3499,N,07726.3505,W,2,09,0.94,151.4,M,-34.4,M,0000,0000*51
$GPRMC,121956.200,A,4308.3505,N,07726.3515,W,17.22,307.72,111018,,,D*46
$GPGGA,121956.400,4308.3512,N,07726.3526,W,2,09,0.94,151.7,M,-34.4,M,0000,0000*55
$GPRMC,121956.600,A,4308.3518,N,07726.3536,W,17.15,308.93,111018,,,D*4B
$GPGGA,121956.800,4308.3524,N,07726.3546,W,2,09,0.94,151.8,M,-34.4,M,0000,0000*55
$GPRMC,121957.000,A,4308.3530,N,07726.3556,W,17.48,310.64,111018,,,D*49
$GPGGA,121957.200,4308.3537,N,07726.3566,W,2,09,0.94,152.1,M,-34.4,M,0000,0000*54
$GPRMC,121957.400,A,4308.3544,N,07726.3576,W,17.43,312.31,111018,,,D*45
$GPGGA,121957.600,4308.3551,N,07726.3587,W,2,09,0.94,152.3,M,-34.4,M,0000,0000*5D
$GPRMC,121957.800,A,4308.3558,N,07726.3597,W,17.60,314.84,111018,,,D*42
$GPGGA,121958.000,4308.3565,N,07726.3608,W,2,09,0.94,152.5,M,-34.4,M,0000,0000*51
$GPRMC,121958.200,A,4308.3573,N,07726.3617,W,17.64,317.39,111018,,,D*44
$GPGGA,121958.400,4308.3581,N,07726.3626,W,2,09,0.94,152.7,M,-34.4,M,0000,0000*51
$GPRMC,121958.600,A,4308.3588,N,07726.3635,W,17.76,320.39,111018,,,D*43
$GPGGA,121958.800,4308.3596,N,07726.3644,W,2,09,0.94,152.9,M,-34.4,M,0000,0000*51
$GPRMC,121959.000,A,4308.3604,N,07726.3652,W,17.97,322.99,111018,,,D*45
$GPGGA,121959.200,4308.3613,N,07726.3661,W,2,09,0.94,153.0,M,-34.4,M,0000,0000*5B
$GPRMC,121959.400,A,4308.3621,N,07726.3669,W,18.11,325.91,111018,,,D*40
$GPGGA,121959.600,4308.3630,N,07726.3677,W,2,09,0.94,153.2,M,-34.4,M,0000,0000*5B
$GPRMC,121959.800,A,4308.3638,N,07726.3684,W,18.35,329.32,111018,,,D*44
$GPGGA,122000.000,4308.3647,N,07726.3691,W,2,08,1.06,153.3,M,-34.4,M,0000,0000*59
$GPRMC,122000.200,A,4308.3656,N,07726.3698,W,18.34,332.45,111018,,,D*46
$GPGGA,122000.400,4308.3665,N,07726.3704,W,2,09,0.94,153.4,M,-34.4,M,0000,0000*5C
$GPRMC,122000.600,A,4308.3675,N,07726.3710,W,18.43,335.68,111018,,,D*4A
$GPGGA,122000.800,4308.3684,N,07726.3716,W,2,09,0.94,153.5,M,-34.4,M,0000,0000*5D
$GPRMC,122001.000,A,4308.3694,N,07726.3721,W,18.41,338.92,111018,,,D*4A
$GPGGA,122001.200,4308.3703,N,07726.3726,W,2,09,0.94,153.6,M,-34.4,M,0000,0000*58
$GPRMC,122001.400,A,4308.3713,N,07726.3730,W,18.45,341.22,111018,,,D*41
$GPGGA,122001.600,4308.3723,N,07726.3735,W,2,09,0.94,153.7,M,-34.4,M,0000,0000*5D
$GPRMC,122001.800,A,4308.3732,N,07726.3738,W,18.46,344.39,111018,,,D*4A
$GPGGA,122002.000,4308.3742,N,07726.3742,W,2,09,0.94,153.7,M,-34.4,M,0000,0000*5F
$GPRMC,122002.200,A,4308.3752,N,07726.3745,W,18.46,345.93,111018,,,D*4E
$GPGGA,122002.400,4308.3762,N,07726.3748,W,2,09,0.94,153.8,M,-34.4,M,0000,0000*5C
$GPRMC,122002.600,A,4308.3771,N,07726.3751,W,18.29,348.41,111018,,,D*45
$GPGGA,122002.800,4308.3781,N,07726.3754,W,2,09,0.94,153.8,M,-34.4,M,0000,0000*50
$GPRMC,122003.000,A,4308.3791,N,07726.3756,W,18.36,352.11,111018,,,D*4B
$GPGGA,122003.200,4308.3801,N,07726.3758,W,2,09,0.94,153.8,M,-34.4,M,0000,0000*50
$GPRMC,122003.400,A,4308.3811,N,07726.3759,W,18.56,353.33,111018,,,D*40
$GPGGA,122003.600,4308.3821,N,07726.3760,W,2,09,0.94,153.7,M,-34.4,M,0000,0000*52
$GPRMC,122003.800,A,4308.3832,N,07726.3761,W,18.44,356.49,111018,,,D*4D
$GPGGA,122004.000,4308.3842,N,07726.3761,W,2,09,0.94,153.8,M,-34.4,M,0000,0000*58
$GPRMC,122004.200,A,4308.3852,N,07726.3762,W,18.59,358.63,111018,,,D*4F
$GPGGA,122004.400,4308.3862,N,07726.3762,W,2,09,0.94,153.7,M,-34.4,M,0000,0000*52
$GPRMC,122004.600,A,4308.3873,N,07726.3761,W,18.90,2.15,111018,,,D*43
$GPGGA,122004.800,4308.3883,N,07726.3761,W,2,09,0.94,153.6,M,-34.4,M,0000,0000*53
$GPRMC,122005.000,A,4308.3894,N,07726.3760,W,19.07,4.68,111018,,,D*4F
$GPGGA,122005.200,4308.3905,N,07726.3758,W,2,09,0.94,153.6,M,-34.4,M,0000,0000*5D
$GPRMC,122005.400,A,4308.3915,N,07726.3756,W,19.35,7.18,111018,,,D*43
$GPGGA,122005.600,4308.3926,N,07726.3754,W,2,09,0.94,153.6,M,-34.4,M,0000,0000*54
$GPRMC,122005.800,A,4308.3936,N,07726.3752,W,19.41,8.05,111018,,,D*4A
$GPGGA,122006.000,4308.3947,N,07726.3749,W,2,09,0.94,153.5,M,-34.4,M,0000,0000*59
$GPRMC,122006.200,A,4308.3957,N,07726.3747,W,19.27,9.19,111018,,,D*4C
$GPGGA,122006.400,4308.3967,N,07726.3744,W,2,09,0.94,153.5,M,-34.4,M,0000,0000*52
$GPRMC,122006.600,A,4308.3978,N,07726.3742,W,19.34,8.47,111018,,,D*48
$GPGGA,122006.800,4308.3988,N,07726.3740,W,2,09,0.94,153.4,M,-34.4,M,0000,0000*5A
$GPRMC,122007.000,A,4308.3998,N,07726.3737,W,19.03,8.14,111018,,,D*41
$GPGGA,122007.200,4308.4009,N,07726.3735,W,2,09,0.94,153.4,M,-34.4,M,0000,0000*54
$GPRMC,122007.400,A,4308.4019,N,07726.3732,W,19.34,8.60,111018,,,D*40
$GPGGA,122007.600,4308.4029,N,07726.3730,W,2,09,0.94,153.3,M,-34.4,M,0000,0000*50
$GPRMC,122007.800,A,4308.4040,N,07726.3727,W,19.27,9.14,111018,,,D*44
$GPGGA,122008.000,4308.4050,N,07726.3725,W,2,09,0.94,153.3,M,-34.4,M,0000,0000*53
$GPRMC,122008.200,A,4308.4060,N,07726.3722,W,19.30,9.86,111018,,,D*4B
$GPGGA,122008.400,4308.4071,N,07726.3720,W,2,10,0.90,153.2,M,-34.4,M,0000,0000*5C
$GPRMC,122008.600,A,4308.4081,N,07726.3717,W,19.22,9.62,111018,,,D*4F
$GPGGA,122008.800,4308.4091,N,07726.3714,W,2,09,0.94,153.2,M,-34.4,M,0000,0000*55
$GPRMC,122009.000,A,4308.4102,N,07726.3712,W,19.20,9.13,111018,,,D*43
$GPGGA,122009.200,4308.4112,N,07726.3710,W,2,09,0.94,153.0,M,-34.4,M,0000,0000*52
$GPRMC,122009.400,A,4308.4122,N,07726.3708,W,18.69,8.70,111018,,,D*46
$GPGGA,122009.600,4308.4132,N,07726.3705,W,2,09,0.94,152.8,M,-34.4,M,0000,0000*59
$GPRMC,122009.800,A,4308.4142,N,07726.3703,W,18.48,8.89,111018,,,D*42
$GPGGA,122010.000,4308.4152,N,07726.3701,W,2,09,0.94,152.8,M,-34.4,M,0000,0000*55
$GPRMC,122010.200,A,4308.4162,N,07726.3698,W,17.99,8.82,111018,,,D*49
$GPGGA,122010.400,4308.4172,N,07726.3696,W,2,09,0.94,152.7,M,-34.4,M,0000,0000*53
$GPRMC,122010.600,A,4308.4182,N,07726.3694,W,17.96,8.95,111018,,,D*46
$GPGGA,122010.800,4308.4192,N,07726.3692,W,2,10,0.90,152.8,M,-34.4,M,0000,0000*56
$GPRMC,122011.000,A,4308.4202,N,07726.3689,W,18.03,8.92,111018,,,D*42
$GPGGA,122011.200,4308.4212,N,07726.3687,W,2,10,0.90,152.8,M,-34.4,M,0000,0000*52
$GPRMC,122011.400,A,4308.4222,N,07726.3685,W,18.01,9.02,111018,,,D*42
$GPGGA,122011.600,4308.4232,N,07726.3683,W,2,10,0.90,152.9,M,-34.4,M,0000,0000*51
$GPRMC,122011.800,A,4308.4242,N,07726.3681,W,17.54,8.88,111018,,,D*40
$GPGGA,122012.000,4308.4251,N,07726.3679,W,2,09,0.94,153.0,M,-34.4,M,0000,0000*50
$GPRMC,122012.200,A,4308.4261,N,07726.3677,W,17.06,8.69,111018,,,D*49
$GPGGA,122012.400,4308.4271,N,07726.3676,W,2,10,0.90,153.1,M,-34.4,M,0000,0000*54
$GPRMC,122012.600,A,4308.4281,N,07726.3674,W,16.75,8.70,111018,,,D*4D
$GPGGA,122012.800,4308.4290,N,07726.3672,W,2,10,0.90,153.3,M,-34.4,M,0000,0000*51
$GPRMC,122013.000,A,4308.4300,N,07726.3671,W,16.42,9.02,111018,,,D*47
$GPGGA,122013.200,4308.4309,N,07726.3669,W,2,10,0.90,153.4,M,-34.4,M,0000,0000*56
$GPRMC,122013.400,A,4308.4318,N,07726.3667,W,15.94,8.68,111018,,,D*48
$GPGGA,122013.600,4308.4328,N,07726.3665,W,2,10,0.90,153.6,M,-34.4,M,0000,0000*5F
$GPRMC,122013.800,A,4308.4337,N,07726.3663,W,15.38,8.99,111018,,,D*45
$GPGGA,122014.000,4308.4345,N,07726.3661,W,2,09,0.94,153.7,M,-34.4,M,0000,0000*5C
$GPRMC,122014.200,A,4308.4354,N,07726.3660,W,15.09,9.52,111018,,,D*4A
$GPGGA,122014.400,4308.4362,N,07726.3658,W,2,09,0.94,153.9,M,-34.4,M,0000,0000*59
$GPRMC,122014.600,A,4308.4370,N,07726.3657,W,14.70,8.99,111018,,,D*45
$GPGGA,122014.800,4308.4378,N,07726.3655,W,2,10,0.90,154.1,M,-34.4,M,0000,0000*50
$GPRMC,122015.000,A,4308.4386,N,07726.3654,W,14.21,8.83,111018,,,D*47
$GPGGA,122015.200,4308.4395,N,07726.3652,W,2,10,0.90,154.3,M,-34.4,M,0000,0000*5D
$GPRMC,122015.400,A,4308.4403,N,07726.3651,W,14.13,8.69,111018,,,D*49
$GPGGA,122015.600,4308.4411,N,07726.3649,W,2,10,0.90,154.5,M,-34.4,M,0000,0000*5E
$GPRMC,122015.800,A,4308.4419,N,07726.3648,W,13.52,9.43,111018,,,D*4D
$GPGGA,122016.000,4308.4426,N,07726.3646,W,2,10,0.90,154.6,M,-34.4,M,0000,0000*53
$GPRMC,122016.200,A,4308.4433,N,07726.3644,W,13.09,9.45,111018,,,D*48
$GPGGA,122016.400,4308.4441,N,07726.3643,W,2,10,0.90,154.9,M,-34.4,M,0000,0000*5C
$GPRMC,122016.600,A,4308.4448,N,07726.3641,W,12.57,9.24,111018,,,D*48
$GPGGA,122016.800,4308.4454,N,07726.3639,W,2,10,0.90,155.0,M,-34.4,M,0000,0000*51
$GPRMC,122017.000,A,4308.4461,N,07726.3638,W,12.61,9.61,111018,,,D*4E
$GPGGA,122017.200,4308.4468,N,07726.3636,W,2,10,0.90,155.2,M,-34.4,M,0000,0000*58
$GPRMC,122017.400,A,4308.4475,N,07726.3634,W,12.34,8.73,111018,,,D*41
$GPGGA,122017.600,4308.4481,N,07726.3633,W,2,10,0.90,155.3,M,-34.4,M,0000,0000*5F
$GPRMC,122017.800,A,4308.4488,N,07726.3631,W,11.97,9.03,111018,,,D*46
$GPGGA,122018.000,4308.4494,N,07726.3630,W,2,09,0.94,155.4,M,-34.4,M,0000,0000*5A
$GPRMC,122018.200,A,4308.4500,N,07726.3628,W,11.47,9.75,111018,,,D*46
$GPGGA,122018.400,4308.4506,N,07726.3627,W,2,09,0.94,155.5,M,-34.4,M,0000,0000*53
$GPRMC,122018.600,A,4308.4512,N,07726.3626,W,10.52,10.00,111018,,,D*70
$GPGGA,122018.800,4308.4517,N,07726.3624,W,2,10,0.90,155.6,M,-34.4,M,0000,0000*53
$GPRMC,122019.000,A,4308.4522,N,07726.3623,W,9.00,10.30,111018,,,D*4D
$GPGGA,122019.200,4308.4527,N,07726.3622,W,2,10,0.90,155.7,M,-34.4,M,0000,0000*5C
$GPRMC,122019.400,A,4308.4531,N,07726.3621,W,7.17,10.33,111018,,,D*42
$GPGGA,122019.600,4308.4534,N,07726.3621,W,2,10,0.90,155.8,M,-34.4,M,0000,0000*56
$GPRMC,122019.800,A,4308.4537,N,07726.3620,W,5.24,10.15,111018,,,D*4F
$GPGGA,122020.000,4308.4539,N,07726.3619,W,2,10,0.90,155.8,M,-34.4,M,0000,0000*5C
$GPRMC,122020.200,A,4308.4541,N,07726.3619,W,3.64,11.69,111018,,,D*4C
$GPGGA,122020.400,4308.4543,N,07726.3618,W,2,10,0.90,155.8,M,-34.4,M,0000,0000*54
$GPRMC,122020.600,A,4308.4544,N,07726.3618,W,2.13,8.39,111018,,,D*70
$GPGGA,122020.800,4308.4544,N,07726.3618,W,2,10,0.90,155.8,M,-34.4,M,0000,0000*5F
$GPRMC,122021.000,A,4308.4544,N,07726.3618,W,0.58,8.39,111018,,,D*7A
$GPGGA,122021.200,4308.4544,N,07726.3618,W,2,10,0.90,155.8,M,-34.4,M,0000,0000*54
$GPRMC,122021.400,A,4308.4543,N,07726.3619,W,0.15,8.39,111018,,,D*71
$GPGGA,122021.600,4308.4542,N,07726.3620,W,2,10,0.90,155.9,M,-34.4,M,0000,0000*5C
$GPRMC,122021.800,A,4308.4541,N,07726.3620,W,0.06,8.39,111018,,,D*77
$GPGGA,122022.000,4308.4541,N,07726.3621,W,2,10,0.89,155.9,M,-34.4,M,0000,0000*53
$GPRMC,122022.200,A,4308.4540,N,07726.3621,W,0.03,8.39,111018,,,D*7B
$GPGGA,122022.400,4308.4539,N,07726.3622,W,2,10,0.89,155.9,M,-34.4,M,0000,0000*5B
$GPRMC,122022.600,A,4308.4539,N,07726.3622,W,0.01,8.39,111018,,,D*70
$GPGGA,122022.800,4308.4538,N,07726.3622,W,2,10,0.89,155.9,M,-34.4,M,0000,0000*56
$GPRMC,122023.000,A,4308.4538,N,07726.3622,W,0.01,8.39,111018,,,D*76
$GPGGA,122023.200,4308.4537,N,07726.3623,W,2,10,0.89,155.9,M,-34.4,M,0000,0000*53
$GPRMC,122023.400,A,4308.4537,N,07726.3623,W,0.01,8.39,111018,,,D*7C
$GPGGA,122023.600,4308.4536,N,07726.3623,W,2,10,0.89,155.8,M,-34.4,M,0000,0000*57
$GPRMC,122023.800,A,4308.4536,N,07726.3623,W,0.01,8.39,111018,,,D*71
$GPGGA,122024.000,4308.4535,N,07726.3623,W,2,10,0.89,155.8,M,-34.4,M,0000,0000*55
$GPRMC,122024.200,A,4308.4535,N,07726.3623,W,0.01,8.39,111018,,,D*7F
$GPGGA,122024.400,4308.4534,N,07726.3624,W,2,10,0.89,155.7,M,-34.4,M,0000,0000*58
$GPRMC,122024.600,A,4308.4534,N,07726.3624,W,0.01,8.39,111018,,,D*7D
$GPGGA,122024.800,4308.4534,N,07726.3624,W,2,10,0.89,155.7,M,-34.4,M,0000,0000*54
$GPRMC,122025.000,A,4308.4533,N,07726.3624,W,0.01,8.39,111018,,,D*7D
$GPGGA,122025.200,4308.4533,N,07726.3625,W,2,10,0.89,155.7,M,-34.4,M,0000,0000*59
$GPRMC,122025.400,A,4308.4533,N,07726.3625,W,0.01,8.39,111018,,,D*78
$GPGGA,122025.600,4308.4533,N,07726.3625,W,2,10,0.89,155.7,M,-34.4,M,0000,0000*5D
$GPRMC,122025.800,A,4308.4532,N,07726.3625,W,0.01,8.39,111018,,,D*75
$GPGGA,122026.000,4308.4532,N,07726.3626,W,2,10,0.89,155.7,M,-34.4,M,0000,0000*5A
$GPRMC,122026.200,A,4308.4532,N,07726.3626,W,0.02,8.39,111018,,,D*7C
$GPGGA,122026.400,4308.4532,N,07726.3626,W,2,10,0.89,155.7,M,-34.4,M,0000,0000*5E
$GPRMC,122026.600,A,4308.4532,N,07726.3626,W,0.02,8.39,111018,,,D*78
$GPGGA,122026.800,4308.4532,N,07726.3626,W,2,10,0.89,155.8,M,-34.4,M,0000,0000*5D
$GPRMC,122027.000,A,4308.4532,N,07726.3627,W,0.03,8.39,111018,,,D*7F
$GPGGA,122027.200,4308.4532,N,07726.3627,W,2,10,0.89,155.8,M,-34.4,M,0000,0000*57
$GPRMC,122027.400,A,4308.4532,N,07726.3627,W,0.04,8.39,111018,,,D*7C
$GPGGA,122027.600,4308.4532,N,07726.3627,W,2,10,0.89,155.9,M,-34.4,M,0000,0000*52
$GPRMC,122027.800,A,4308.4532,N,07726.3627,W,0.04,8.39,111018,,,D*70
$GPGGA,122028.000,4308.4532,N,07726.3627,W,2,10,0.89,155.9,M,-34.4,M,0000,0000*5B
$GPRMC,122028.200,A,4308.4532,N,07726.3628,W,0.04,8.39,111018,,,D*7A
$GPGGA,122028.400,4308.4532,N,07726.3628,W,2,10,0.89,156.0,M,-34.4,M,0000,0000*5A
$GPRMC,122028.600,A,4308.4532,N,07726.3628,W,0.05,8.39,111018,,,D*7F
$GPGGA,122028.800,4308.4532,N,07726.3628,W,2,10,0.89,156.0,M,-34.4,M,0000,0000*56
$GPRMC,122029.000,A,4308.4532,N,07726.3628,W,0.05,8.39,111018,,,D*78
$GPGGA,122029.200,4308.4532,N,07726.3628,W,2,10,0.90,156.0,M,-34.4,M,0000,0000*55
$GPRMC,122029.400,A,4308.4532,N,07726.3629,W,0.05,8.39,111018,,,D*7D
$GPGGA,122029.600,4308.4532,N,07726.3629,W,2,10,0.90,156.0,M,-34.4,M,0000,0000*50
$GPRMC,122029.800,A,4308.4532,N,07726.3629,W,0.05,8.39,111018,,,D*71
$GPGGA,122030.000,4308.4532,N,07726.3629,W,2,10,0.90,156.1,M,-34.4,M,0000,0000*5F
$GPRMC,122030.200,A,4308.4533,N,07726.3629,W,0.06,8.39,111018,,,D*71
$GPGGA,122030.400,4308.4533,N,07726.3629,W,2,10,0.90,156.1,M,-34.4,M,0000,0000*5A
$GPRMC,122030.600,A,4308.4534,N,07726.3629,W,0.83,8.39,111018,,,D*7F
$GPGGA,122030.800,4308.4535,N,07726.3629,W,2,10,0.90,156.1,M,-34.4,M,0000,0000*50
$GPRMC,122031.000,A,4308.4536,N,07726.3629,W,2.55,8.39,111018,,,D*73
$GPGGA,122031.200,4308.4538,N,07726.3629,W,2,10,0.90,156.1,M,-34.4,M,0000,0000*56
$GPRMC,122031.400,A,4308.4540,N,07726.3628,W,3.94,10.17,111018,,,D*4E
$GPGGA,122031.600,4308.4543,N,07726.3628,W,2,10,0.90,156.1,M,-34.4,M,0000,0000*5F
$GPRMC,122031.800,A,4308.4546,N,07726.3627,W,5.21,8.41,111018,,,D*79
$GPGGA,122032.000,4308.4549,N,07726.3626,W,2,10,0.90,156.2,M,-34.4,M,0000,0000*5D
$GPRMC,122032.200,A,4308.4553,N,07726.3626,W,6.22,2.28,111018,,,D*70
$GPGGA,122032.400,4308.4557,N,07726.3625,W,2,10,0.90,156.2,M,-34.4,M,0000,0000*55
$GPRMC,122032.600,A,4308.4561,N,07726.3625,W,6.75,357.39,111018,,,D*77
$GPGGA,122032.800,4308.4566,N,07726.3625,W,2,10,0.90,156.2,M,-34.4,M,0000,0000*5B
$GPRMC,122033.000,A,4308.4570,N,07726.3625,W,7.41,349.14,111018,,,D*76
$GPGGA,122033.200,4308.4574,N,07726.3626,W,2,10,0.90,156.1,M,-34.4,M,0000,0000*53
$GPRMC,122033.400,A,4308.4579,N,07726.3628,W,7.94,340.92,111018,,,D*79
$GPGGA,122033.600,4308.4583,N,07726.3630,W,2,10,0.90,156.1,M,-34.4,M,0000,0000*58
$GPRMC,122033.800,A,4308.4587,N,07726.3632,W,8.28,333.39,111018,,,D*72
$GPGGA,122034.000,4308.4591,N,07726.3635,W,2,10,0.90,156.1,M,-34.4,M,0000,0000*5F
$GPRMC,122034.200,A,4308.4595,N,07726.3638,W,8.75,321.85,111018,,,D*7A
$GPGGA,122034.400,4308.4599,N,07726.3642,W,2,10,0.90,156.0,M,-34.4,M,0000,0000*52
$GPRMC,122034.600,A,4308.4603,N,07726.3646,W,9.38,315.79,111018,,,D*77
$GPGGA,122034.800,4308.4607,N,07726.3651,W,2,10,0.90,155.9,M,-34.4,M,0000,0000*52
$GPRMC,122035.000,A,4308.4610,N,07726.3657,W,9.85,305.94,111018,,,D*76
$GPGGA,122035.200,4308.4613,N,07726.3663,W,2,10,0.90,155.7,M,-34.4,M,0000,0000*53
$GPRMC,122035.400,A,4308.4616,N,07726.3669,W,10.28,297.39,111018,,,D*4B
$GPGGA,122035.600,4308.4618,N,07726.3676,W,2,10,0.90,155.6,M,-34.4,M,0000,0000*59
$GPRMC,122035.800,A,4308.4620,N,07726.3684,W,11.04,289.51,111018,,,D*4F
$GPGGA,122036.000,4308.4622,N,07726.3692,W,2,10,0.90,155.4,M,-34.4,M,0000,0000*5D
$GPRMC,122036.200,A,4308.4623,N,07726.3700,W,11.75,284.21,111018,,,D*44
$GPGGA,122036.400,4308.4625,N,07726.3709,W,2,10,0.90,155.3,M,-34.4,M,0000,0000*5A
$GPRMC,122036.600,A,4308.4626,N,07726.3718,W,12.18,282.12,111018,,,D*42
$GPGGA,122036.800,4308.4627,N,07726.3727,W,2,10,0.90,155.3,M,-34.4,M,0000,0000*58
$GPRMC,122037.000,A,4308.4629,N,07726.3737,W,12.83,279.62,111018,,,D*46
$GPGGA,122037.200,4308.4630,N,07726.3746,W,2,10,0.90,155.2,M,-34.4,M,0000,0000*53
$GPRMC,122037.400,A,4308.4631,N,07726.3756,W,13.04,279.71,111018,,,D*40
$GPGGA,122037.600,4308.4633,N,07726.3766,W,2,09,0.94,155.1,M,-34.4,M,0000,0000*59
$GPRMC,122037.800,A,4308.4635,N,07726.3775,W,13.16,277.89,111018,,,D*43
$GPGGA,122038.000,4308.4636,N,07726.3785,W,2,09,0.94,155.1,M,-34.4,M,0000,0000*58
$GPRMC,122038.200,A,4308.4637,N,07726.3794,W,13.23,277.05,111018,,,D*49
$GPGGA,122038.400,4308.4639,N,07726.3804,W,2,10,0.90,155.0,M,-34.4,M,0000,0000*58
$GPRMC,122038.600,A,4308.4641,N,07726.3813,W,13.30,277.34,111018,,,D*4C
$GPGGA,122038.800,4308.4643,N,07726.3823,W,2,10,0.90,154.9,M,-34.4,M,0000,0000*54
$GPRMC,122039.000,A,4308.4645,N,07726.3832,W,13.33,276.81,111018,,,D*40
$GPGGA,122039.200,4308.4646,N,07726.3842,W,2,10,0.90,154.9,M,-34.4,M,0000,0000*5D
$GPRMC,122039.400,A,4308.4648,N,07726.3852,W,13.37,276.97,111018,,,D*4C
$GPGGA,122039.600,4308.4649,N,07726.3862,W,2,10,0.90,155.0,M,-34.4,M,0000,0000*5C
$GPRMC,122039.800,A,4308.4649,N,07726.3872,W,13.54,277.21,111018,,,D*4A
$GPGGA,122040.000,4308.4651,N,07726.3882,W,2,09,0.94,155.0,M,-34.4,M,0000,0000*5F
$GPRMC,122040.200,A,4308.4652,N,07726.3892,W,13.51,277.21,111018,,,D*4F
$GPGGA,122040.400,4308.4653,N,07726.3902,W,2,08,1.04,154.9,M,-34.4,M,0000,0000*51
$GPRMC,122040.600,A,4308.4654,N,07726.3913,W,13.54,277.12,111018,,,D*40
$GPGGA,122040.800,4308.4656,N,07726.3923,W,2,08,1.04,154.9,M,-34.4,M,0000,0000*5B
$GPRMC,122041.000,A,4308.4657,N,07726.3933,W,13.60,277.40,111018,,,D*46
$GPGGA,122041.200,4308.4658,N,07726.3943,W,2,09,0.94,154.9,M,-34.4,M,0000,0000*51
$GPRMC,122041.400,A,4308.4659,N,07726.3953,W,13.62,277.03,111018,,,D*4F
$GPGGA,122041.600,4308.4660,N,07726.3963,W,2,09,0.94,154.8,M,-34.4,M,0000,0000*5D
$GPRMC,122041.800,A,4308.4661,N,07726.3973,W,13.66,277.01,111018,,,D*4C
$GPGGA,122042.000,4308.4662,N,07726.3984,W,2,09,0.94,154.7,M,-34.4,M,0000,0000*5C
$GPRMC,122042.200,A,4308.4663,N,07726.3994,W,13.66,277.19,111018,,,D*47
$GPGGA,122042.400,4308.4664,N,07726.4004,W,2,09,0.94,154.6,M,-34.4,M,0000,0000*59
$GPRMC,122042.600,A,4308.4665,N,07726.4014,W,13.64,277.38,111018,,,D*42
$GPGGA,122042.800,4308.4666,N,07726.4024,W,2,10,0.90,154.5,M,-34.4,M,0000,0000*5A
$GPRMC,122043.000,A,4308.4667,N,07726.4034,W,13.90,277.28,111018,,,D*4F
$GPGGA,122043.200,4308.4669,N,07726.4045,W,2,10,0.90,154.4,M,-34.4,M,0000,0000*58
$GPRMC,122043.400,A,4308.4670,N,07726.4055,W,14.30,277.50,111018,,,D*48
$GPGGA,122043.600,4308.4671,N,07726.4066,W,2,10,0.90,154.3,M,-34.4,M,0000,0000*53
$GPRMC,122043.800,A,4308.4672,N,07726.4077,W,14.76,277.94,111018,,,D*4C
$GPGGA,122044.000,4308.4673,N,07726.4088,W,2,10,0.90,154.2,M,-34.4,M,0000,0000*51
$GPRMC,122044.200,A,4308.4674,N,07726.4099,W,15.10,278.57,111018,,,D*46
$GPGGA,122044.400,4308.4675,N,07726.4110,W,2,09,0.94,154.0,M,-34.4,M,0000,0000*5D
$GPRMC,122044.600,A,4308.4676,N,07726.4121,W,15.53,277.73,111018,,,D*4C
$GPGGA,122044.800,4308.4677,N,07726.4132,W,2,09,0.94,153.9,M,-34.4,M,0000,0000*5D
$GPRMC,122045.000,A,4308.4678,N,07726.4143,W,15.80,277.41,111018,,,D*4E
$GPGGA,122045.200,4308.4678,N,07726.4154,W,2,09,0.94,153.7,M,-34.4,M,0000,0000*57
$GPRMC,122045.400,A,4308.4679,N,07726.4166,W,16.00,277.44,111018,,,D*42
$GPGGA,122045.600,4308.4680,N,07726.4178,W,2,09,0.94,153.5,M,-34.4,M,0000,0000*58
$GPRMC,122045.800,A,4308.4680,N,07726.4191,W,16.24,277.55,111018,,,D*46
$GPGGA,122046.000,4308.4681,N,07726.4203,W,2,09,0.94,153.3,M,-34.4,M,0000,0000*55
$GPRMC,122046.200,A,4308.4681,N,07726.4216,W,16.60,277.47,111018,,,D*41
$GPGGA,122046.400,4308.4682,N,07726.4229,W,2,09,0.94,153.2,M,-34.4,M,0000,0000*5B
$GPRMC,122046.600,A,4308.4683,N,07726.4241,W,16.82,277.71,111018,,,D*4C
$GPGGA,122046.800,4308.4684,N,07726.4254,W,2,09,0.94,153.0,M,-34.4,M,0000,0000*59
$GPRMC,122047.000,A,4308.4686,N,07726.4267,W,16.95,277.90,111018,,,D*43
$GPGGA,122047.200,4308.4687,N,07726.4280,W,2,09,0.94,152.8,M,-34.4,M,0000,0000*51
$GPRMC,122047.400,A,4308.4688,N,07726.4293,W,17.38,278.33,111018,,,D*42
$GPGGA,122047.600,4308.4689,N,07726.4306,W,2,09,0.94,152.7,M,-34.4,M,0000,0000*5B
$GPRMC,122047.800,A,4308.4690,N,07726.4319,W,17.72,277.88,111018,,,D*45
$GPGGA,122048.000,4308.4692,N,07726.4333,W,2,09,0.94,152.5,M,-34.4,M,0000,0000*5C
$GPRMC,122048.200,A,4308.4693,N,07726.4346,W,17.93,277.69,111018,,,D*49
$GPGGA,122048.400,4308.4694,N,07726.4360,W,2,10,0.90,152.4,M,-34.4,M,0000,0000*55
$GPRMC,122048.600,A,4308.4696,N,07726.4374,W,18.16,277.91,111018,,,D*4C
$GPGGA,122048.800,4308.4697,N,07726.4388,W,2,09,0.94,152.3,M,-34.4,M,0000,0000*57
$GPRMC,122049.000,A,4308.4698,N,07726.4402,W,18.40,277.81,111018,,,D*41
$GPGGA,122049.200,4308.4700,N,07726.4416,W,2,10,0.90,152.3,M,-34.4,M,0000,0000*5F
$GPRMC,122049.400,A,4308.4701,N,07726.4430,W,18.46,278.16,111018,,,D*42
$GPGGA,122049.600,4308.4702,N,07726.4444,W,2,10,0.90,152.3,M,-34.4,M,0000,0000*5E
$GPRMC,122049.800,A,4308.4704,N,07726.4459,W,18.71,277.35,111018,,,D*4E
$GPGGA,122050.000,4308.4706,N,07726.4473,W,2,09,0.94,152.4,M,-34.4,M,0000,0000*5B
$GPRMC,122050.200,A,4308.4708,N,07726.4487,W,19.09,279.24,111018,,,D*43
$GPGGA,122050.400,4308.4709,N,07726.4501,W,2,09,0.94,152.6,M,-34.4,M,0000,0000*56
$GPRMC,122050.600,A,4308.4711,N,07726.4516,W,19.05,278.07,111018,,,D*4A
$GPGGA,122050.800,4308.4713,N,07726.4531,W,2,10,0.90,152.7,M,-34.4,M,0000,0000*5F
$GPRMC,122051.000,A,4308.4715,N,07726.4545,W,19.47,277.49,111018,,,D*4C
$GPGGA,122051.200,4308.4717,N,07726.4560,W,2,09,0.94,152.7,M,-34.4,M,0000,0000*58
$GPRMC,122051.400,A,4308.4719,N,07726.4575,W,19.86,278.00,111018,,,D*48
$GPGGA,122051.600,4308.4721,N,07726.4590,W,2,09,0.94,152.6,M,-34.4,M,0000,0000*57
$GPRMC,122051.800,A,4308.4723,N,07726.4605,W,20.28,278.08,111018,,,D*4F
$GPGGA,122052.000,4308.4725,N,07726.4620,W,2,09,0.94,152.6,M,-34.4,M,0000,0000*5E
$GPRMC,122052.200,A,4308.4727,N,07726.4635,W,20.92,278.08,111018,,,D*40
$GPGGA,122052.400,4308.4729,N,07726.4651,W,2,09,0.94,152.7,M,-34.4,M,0000,0000*51
$GPRMC,122052.600,A,4308.4731,N,07726.4667,W,21.15,277.92,111018,,,D*46
$GPGGA,122052.800,4308.4733,N,07726.4683,W,2,09,0.94,152.8,M,-34.4,M,0000,0000*56
$GPRMC,122053.000,A,4308.4735,N,07726.4699,W,21.80,277.66,111018,,,D*43
$GPGGA,122053.200,4308.4737,N,07726.4716,W,2,09,0.94,153.0,M,-34.4,M,0000,0000*5D
$GPRMC,122053.400,A,4308.4739,N,07726.4732,W,22.09,277.35,111018,,,D*4F
$GPGGA,122053.600,4308.4741,N,07726.4749,W,2,10,0.90,153.1,M,-34.4,M,0000,0000*5F
$GPRMC,122053.800,A,4308.4743,N,07726.4766,W,22.34,277.98,111018,,,D*46
$GPGGA,122054.000,4308.4745,N,07726.4783,W,2,10,0.90,153.3,M,-34.4,M,0000,0000*5E
$GPRMC,122054.200,A,4308.4747,N,07726.4800,W,22.72,277.43,111018,,,D*44
$GPGGA,122054.400,4308.4749,N,07726.4818,W,2,09,0.94,153.5,M,-34.4,M,0000,0000*51
$GPRMC,122054.600,A,4308.4750,N,07726.4835,W,22.97,277.14,111018,,,D*49
$GPGGA,122054.800,4308.4752,N,07726.4853,W,2,10,0.90,153.7,M,-34.4,M,0000,0000*56
$GPRMC,122055.000,A,4308.4754,N,07726.4870,W,23.54,277.01,111018,,,D*41
$GPGGA,122055.200,4308.4756,N,07726.4888,W,2,09,0.94,153.8,M,-34.4,M,0000,0000*5C
$GPRMC,122055.400,A,4308.4757,N,07726.4906,W,23.84,276.83,111018,,,D*40
$GPGGA,122055.600,4308.4758,N,07726.4925,W,2,09,0.94,153.9,M,-34.4,M,0000,0000*51
$GPRMC,122055.800,A,4308.4760,N,07726.4943,W,24.08,276.29,111018,,,D*4A
$GPGGA,122056.000,4308.4761,N,07726.4962,W,2,09,0.94,154.1,M,-34.4,M,0000,0000*52
$GPRMC,122056.200,A,4308.4762,N,07726.4980,W,24.44,275.99,111018,,,D*4E
$GPGGA,122056.400,4308.4763,N,07726.4999,W,2,09,0.94,154.2,M,-34.4,M,0000,0000*53
$GPRMC,122056.600,A,4308.4765,N,07726.5018,W,24.87,275.53,111018,,,D*4D
$GPGGA,122056.800,4308.4766,N,07726.5037,W,2,09,0.94,154.2,M,-34.4,M,0000,0000*56
$GPRMC,122057.000,A,4308.4767,N,07726.5056,W,25.20,275.25,111018,,,D*4F
$GPGGA,122057.200,4308.4768,N,07726.5075,W,2,09,0.94,154.3,M,-34.4,M,0000,0000*54
$GPRMC,122057.400,A,4308.4769,N,07726.5094,W,25.52,274.66,111018,,,D*48
$GPGGA,122057.600,4308.4770,N,07726.5114,W,2,09,0.94,154.3,M,-34.4,M,0000,0000*5F
$GPRMC,122057.800,A,4308.4771,N,07726.5133,W,25.84,274.47,111018,,,D*49
$GPGGA,122058.000,4308.4772,N,07726.5153,W,2,09,0.94,154.3,M,-34.4,M,0000,0000*57
$GPRMC,122058.200,A,4308.4773,N,07726.5173,W,26.15,273.90,111018,,,D*4C
$GPGGA,122058.400,4308.4774,N,07726.5193,W,2,09,0.94,154.3,M,-34.4,M,0000,0000*59
$GPRMC,122058.600,A,4308.4775,N,07726.5213,W,26.42,274.28,111018,,,D*4D
$GPGGA,122058.800,4308.4775,N,07726.5233,W,2,09,0.94,154.3,M,-34.4,M,0000,0000*5D
$GPRMC,122059.000,A,4308.4776,N,07726.5253,W,26.73,273.65,111018,,,D*41
$GPGGA,122059.200,4308.4777,N,07726.5274,W,2,09,0.94,154.2,M,-34.4,M,0000,0000*56
$GPRMC,122059.400,A,4308.4778,N,07726.5294,W,26.99,273.46,111018,,,D*45
$GPGGA,122059.600,4308.4778,N,07726.5315,W,2,09,0.94,154.1,M,-34.4,M,0000,0000*58
$GPRMC,122059.800,A,4308.4779,N,07726.5335,W,27.26,273.87,111018,,,D*4A
$GPGGA,122100.000,4308.4780,N,07726.5356,W,2,09,0.94,154.1,M,-34.4,M,0000,0000*53
$GPRMC,122100.200,A,4308.4781,N,07726.5376,W,27.32,273.33,111018,,,D*47
$GPGGA,122100.400,4308.4782,N,07726.5397,W,2,09,0.94,153.9,M,-34.4,M,0000,0000*57
$GPRMC,122100.600,A,4308.4782,N,07726.5418,W,27.39,273.00,111018,,,D*44
$GPGGA,122100.800,4308.4783,N,07726.5439,W,2,09,0.94,153.8,M,-34.4,M,0000,0000*58
$GPRMC,122101.000,A,4308.4783,N,07726.5459,W,27.47,273.21,111018,,,D*4D
$GPGGA,122101.200,4308.4784,N,07726.5480,W,2,09,0.94,153.7,M,-34.4,M,0000,0000*59
$GPRMC,122101.400,A,4308.4784,N,07726.5501,W,27.55,273.08,111018,,,D*4A
$GPGGA,122101.600,4308.4785,N,07726.5522,W,2,08,1.05,153.6,M,-34.4,M,0000,0000*5C
$GPRMC,122101.800,A,4308.4785,N,07726.5543,W,27.65,273.10,111018,,,D*4B
$GPGGA,122102.000,4308.4786,N,07726.5564,W,2,08,1.05,153.5,M,-34.4,M,0000,0000*5B
$GPRMC,122102.200,A,4308.4787,N,07726.5585,W,27.75,272.99,111018,,,D*4B
$GPGGA,122102.400,4308.4787,N,07726.5606,W,2,09,0.94,153.4,M,-34.4,M,0000,0000*50
$GPRMC,122102.600,A,4308.4788,N,07726.5627,W,27.84,273.00,111018,,,D*44
$GPGGA,122102.800,4308.4789,N,07726.5648,W,2,09,0.94,153.3,M,-34.4,M,0000,0000*5F
$GPRMC,122103.000,A,4308.4789,N,07726.5670,W,27.89,272.79,111018,,,D*42
$GPGGA,122103.200,4308.4790,N,07726.5691,W,2,09,0.94,153.3,M,-34.4,M,0000,0000*58
$GPRMC,122103.400,A,4308.4790,N,07726.5712,W,27.92,272.98,111018,,,D*4E
$GPGGA,122103.600,4308.4791,N,07726.5734,W,2,09,0.94,153.3,M,-34.4,M,0000,0000*53
$GPRMC,122103.800,A,4308.4792,N,07726.5755,W,27.98,272.97,111018,,,D*46
$GPGGA,122104.000,4308.4793,N,07726.5776,W,2,09,0.94,153.4,M,-34.4,M,0000,0000*51
$GPRMC,122104.200,A,4308.4793,N,07726.5798,W,28.06,272.99,111018,,,D*4D
$GPGGA,122104.400,4308.4794,N,07726.5819,W,2,09,0.94,153.5,M,-34.4,M,0000,0000*55
$GPRMC,122104.600,A,4308.4795,N,07726.5841,W,28.45,273.57,111018,,,D*40
$GPGGA,122104.800,4308.4796,N,07726.5863,W,2,08,1.05,153.6,M,-34.4,M,0000,0000*5D
$GPRMC,122105.000,A,4308.4797,N,07726.5885,W,28.55,272.72,111018,,,D*4A
$GPGGA,122105.200,4308.4798,N,07726.5906,W,2,09,0.94,153.7,M,-34.4,M,0000,0000*53
$GPRMC,122105.400,A,4308.4798,N,07726.5928,W,28.62,272.75,111018,,,D*44
$GPGGA,122105.600,4308.4799,N,07726.5950,W,2,08,1.05,153.9,M,-34.4,M,0000,0000*53
$GPRMC,122105.800,A,4308.4800,N,07726.5972,W,28.74,272.25,111018,,,D*4B
$GPGGA,122106.000,4308.4801,N,07726.5994,W,2,09,0.94,154.2,M,-34.4,M,0000,0000*54
$GPRMC,122106.200,A,4308.4802,N,07726.6016,W,28.78,272.21,111018,,,D*40
$GPGGA,122106.400,4308.4803,N,07726.6038,W,2,09,0.94,154.3,M,-34.4,M,0000,0000*5F
$GPRMC,122106.600,A,4308.4803,N,07726.6060,W,28.72,271.41,111018,,,D*4B
$GPGGA,122106.800,4308.4804,N,07726.6082,W,2,09,0.94,154.5,M,-34.4,M,0000,0000*53
$GPRMC,122107.000,A,4308.4805,N,07726.6104,W,28.73,271.54,111018,,,D*4C
$GPGGA,122107.200,4308.4805,N,07726.6126,W,2,09,0.94,154.6,M,-34.4,M,0000,0000*55
$GPRMC,122107.400,A,4308.4806,N,07726.6148,W,28.81,272.52,111018,,,D*4B
$GPGGA,122107.600,4308.4807,N,07726.6170,W,2,09,0.94,154.7,M,-34.4,M,0000,0000*51
$GPRMC,122107.800,A,4308.4807,N,07726.6192,W,28.85,271.59,111018,,,D*4D
$GPGGA,122108.000,4308.4808,N,07726.6215,W,2,09,0.94,154.8,M,-34.4,M,0000,0000*58
$GPRMC,122108.200,A,4308.4808,N,07726.6237,W,29.29,270.81,111018,,,D*48
$GPGGA,122108.400,4308.4808,N,07726.6259,W,2,08,1.05,155.0,M,-34.4,M,0000,0000*55
$GPRMC,122108.600,A,4308.4808,N,07726.6281,W,29.28,270.07,111018,,,D*4E
$GPGGA,122108.800,4308.4808,N,07726.6304,W,2,09,0.92,155.1,M,-34.4,M,0000,0000*5F
$GPRMC,122109.000,A,4308.4808,N,07726.6326,W,29.32,270.49,111018,,,D*44
$GPGGA,122109.200,4308.4808,N,07726.6348,W,2,09,0.94,155.3,M,-34.4,M,0000,0000*58
$GPRMC,122109.400,A,4308.4808,N,07726.6370,W,29.35,270.19,111018,,,D*41
$GPGGA,122109.600,4308.4808,N,07726.6392,W,2,09,0.94,155.3,M,-34.4,M,0000,0000*5B
$GPRMC,122109.800,A,4308.4808,N,07726.6415,W,29.36,269.82,111018,,,D*40
$GPGGA,122110.000,4308.4808,N,07726.6437,W,2,09,0.94,155.3,M,-34.4,M,0000,0000*5D
$GPRMC,122110.200,A,4308.4808,N,07726.6459,W,29.36,269.23,111018,,,D*41
$GPGGA,122110.400,4308.4808,N,07726.6481,W,2,09,0.94,155.3,M,-34.4,M,0000,0000*54
$GPRMC,122110.600,A,4308.4807,N,07726.6503,W,29.32,268.37,111018,,,D*44
$GPGGA,122110.800,4308.4807,N,07726.6525,W,2,09,0.94,155.4,M,-34.4,M,0000,0000*5F
$GPRMC,122111.000,A,4308.4806,N,07726.6547,W,29.53,267.88,111018,,,D*4E
$GPGGA,122111.200,4308.4806,N,07726.6570,W,2,09,0.94,155.4,M,-34.4,M,0000,0000*55
