Vers 57
USE_SERIAL_FEEDBACK=false
DEVELOPMENT_MODE=false
USE_RMC_ONLY=false

$GPRMC,125000.600,A,4308.3008,N,07726.2624,W,0.01,352.09,121018,,,A*79
$GPGGA,125000.800,4308.3007,N,07726.2624,W,1,08,1.02,152.7,M,-34.4,M,,*59
$GPRMC,125001.000,A,4308.3007,N,07726.2624,W,0.10,355.05,121018,,,A*7A
$GPGGA,125001.200,4308.3007,N,07726.2624,W,1,08,1.02,152.6,M,-34.4,M,,*53
$GPRMC,125001.400,A,4308.3006,N,07726.2624,W,0.01,356.63,121018,,,A*7C
$GPGGA,125001.600,4308.3007,N,07726.2624,W,1,08,1.02,152.3,M,-34.4,M,,*52
$GPRMC,125001.800,A,4308.3007,N,07726.2624,W,0.00,235.45,121018,,,A*70
$GPGGA,125002.000,4308.3007,N,07726.2624,W,1,08,1.00,152.1,M,-34.4,M,,*57
$GPRMC,125002.200,A,4308.3007,N,07726.2624,W,0.01,86.71,121018,,,A*45
$GPGGA,125002.400,4308.3007,N,07726.2624,W,1,08,1.00,152.1,M,-34.4,M,,*53
$GPRMC,125002.600,A,4308.3008,N,07726.2623,W,0.03,152.18,121018,,,A*7C
$GPGGA,125002.800,4308.3008,N,07726.2623,W,1,08,1.00,152.0,M,-34.4,M,,*56
$GPRMC,125003.000,A,4308.3008,N,07726.2623,W,0.01,239.80,121018,,,A*76
$GPGGA,125003.200,4308.3009,N,07726.2623,W,1,08,1.00,152.1,M,-34.4,M,,*5D
$GPRMC,125003.400,A,4308.3009,N,07726.2623,W,0.02,178.76,121018,,,A*7F
$GPGGA,125003.600,4308.3010,N,07726.2623,W,1,08,1.00,152.0,M,-34.4,M,,*50
$GPRMC,125003.800,A,4308.3010,N,07726.2623,W,0.02,288.82,121018,,,A*7C
$GPGGA,125004.000,4308.3010,N,07726.2623,W,1,08,1.00,152.0,M,-34.4,M,,*51
$GPRMC,125004.200,A,4308.3010,N,07726.2623,W,0.03,186.66,121018,,,A*77
$GPGGA,125004.400,4308.3010,N,07726.2623,W,1,08,1.00,151.8,M,-34.4,M,,*5E
$GPRMC,125004.600,A,4308.3010,N,07726.2623,W,0.02,247.82,121018,,,A*76
$GPGGA,125004.800,4308.3011,N,07726.2623,W,1,08,1.00,151.7,M,-34.4,M,,*5C
$GPRMC,125005.000,A,4308.3011,N,07726.2623,W,0.01,184.46,121018,,,A*77
$GPGGA,125005.200,4308.3011,N,07726.2624,W,1,08,1.00,151.7,M,-34.4,M,,*50
$GPRMC,125005.400,A,4308.3011,N,07726.2624,W,0.02,168.30,121018,,,A*74
$GPGGA,125005.600,4308.3011,N,07726.2624,W,1,08,1.00,151.6,M,-34.4,M,,*55
$GPRMC,125005.800,A,4308.3011,N,07726.2624,W,0.02,73.51,121018,,,A*44
$GPGGA,125006.000,4308.3011,N,07726.2624,W,1,08,1.00,151.5,M,-34.4,M,,*53
$GPRMC,125006.200,A,4308.3011,N,07726.2624,W,0.01,28.43,121018,,,A*43
$GPGGA,125006.400,4308.3011,N,07726.2624,W,1,08,1.00,151.4,M,-34.4,M,,*56
$GPRMC,125006.600,A,4308.3012,N,07726.2624,W,0.02,281.77,121018,,,A*71
$GPGGA,125006.800,4308.3012,N,07726.2624,W,1,08,1.00,151.4,M,-34.4,M,,*59
$GPRMC,125007.000,A,4308.3012,N,07726.2624,W,0.03,10.57,121018,,,A*4F
$GPGGA,125007.200,4308.3012,N,07726.2625,W,1,08,1.02,151.3,M,-34.4,M,,*56
$GPRMC,125007.400,A,4308.3012,N,07726.2625,W,0.01,96.54,121018,,,A*45
$GPGGA,125007.600,4308.3012,N,07726.2625,W,1,08,1.00,151.1,M,-34.4,M,,*52
$GPRMC,125007.800,A,4308.3012,N,07726.2625,W,0.01,29.10,121018,,,A*4D
$GPGGA,125008.000,4308.3012,N,07726.2625,W,1,08,1.00,151.0,M,-34.4,M,,*5A
$GPRMC,125008.200,A,4308.3013,N,07726.2625,W,0.03,28.05,121018,,,A*4E
$GPGGA,125008.400,4308.3012,N,07726.2625,W,1,08,1.00,150.8,M,-34.4,M,,*57
$GPRMC,125008.600,A,4308.3012,N,07726.2626,W,0.02,228.14,121018,,,A*7B
$GPGGA,125008.800,4308.3012,N,07726.2626,W,1,08,1.00,150.7,M,-34.4,M,,*57
$GPRMC,125009.000,A,4308.3012,N,07726.2626,W,0.01,342.32,121018,,,A*76
$GPGGA,125009.200,4308.3012,N,07726.2626,W,1,08,1.00,150.6,M,-34.4,M,,*5D
$GPRMC,125009.400,A,4308.3012,N,07726.2626,W,0.05,78.84,121018,,,A*41
$GPGGA,125009.600,4308.3012,N,07726.2626,W,1,08,1.00,150.5,M,-34.4,M,,*5A
$GPRMC,125009.800,A,4308.3012,N,07726.2626,W,0.04,142.24,121018,,,A*7E
$GPGGA,125010.000,4308.3012,N,07726.2626,W,1,08,1.00,150.4,M,-34.4,M,,*55
$GPRMC,125010.200,A,4308.3012,N,07726.2627,W,0.03,356.10,121018,,,A*7A
$GPGGA,125010.400,4308.3012,N,07726.2627,W,1,08,1.02,150.3,M,-34.4,M,,*55
$GPRMC,125010.600,A,4308.3012,N,07726.2627,W,0.01,108.53,121018,,,A*72
$GPGGA,125010.800,4308.3012,N,07726.2627,W,1,08,1.00,150.1,M,-34.4,M,,*59
$GPRMC,125011.000,A,4308.3012,N,07726.2627,W,0.02,179.47,121018,,,A*75
$GPGGA,125011.200,4308.3012,N,07726.2627,W,1,07,1.07,149.9,M,-34.4,M,,*5A
$GPRMC,125011.400,A,4308.3012,N,07726.2627,W,0.00,73.14,121018,,,A*4E
$GPGGA,125011.600,4308.3012,N,07726.2627,W,1,08,1.00,149.7,M,-34.4,M,,*58
$GPRMC,125011.800,A,4308.3012,N,07726.2627,W,0.01,193.51,121018,,,A*7D
$GPGGA,125012.000,4308.3012,N,07726.2627,W,1,07,1.07,149.5,M,-34.4,M,,*57
$GPRMC,125012.200,A,4308.3012,N,07726.2627,W,0.02,160.97,121018,,,A*71
$GPGGA,125012.400,4308.3012,N,07726.2627,W,1,08,1.00,149.4,M,-34.4,M,,*5A
$GPRMC,125012.600,A,4308.3012,N,07726.2627,W,0.04,48.56,121018,,,A*45
$GPGGA,125012.800,4308.3012,N,07726.2627,W,1,07,1.07,149.2,M,-34.4,M,,*58
$GPRMC,125013.000,A,4308.3012,N,07726.2627,W,0.01,160.46,121018,,,A*7D
$GPGGA,125013.200,4308.3012,N,07726.2627,W,1,08,1.00,149.0,M,-34.4,M,,*59
$GPRMC,125013.400,A,4308.3012,N,07726.2627,W,0.01,337.99,121018,,,A*7B
$GPGGA,125013.600,4308.3012,N,07726.2627,W,1,08,1.00,148.8,M,-34.4,M,,*54
$GPRMC,125013.800,A,4308.3012,N,07726.2627,W,0.01,258.39,121018,,,A*75
$GPGGA,125014.000,4308.3012,N,07726.2627,W,1,08,1.00,148.6,M,-34.4,M,,*5B
$GPRMC,125014.200,A,4308.3012,N,07726.2627,W,0.01,71.26,121018,,,A*4F
$GPGGA,125014.400,4308.3012,N,07726.2627,W,1,08,1.00,148.5,M,-34.4,M,,*5C
$GPRMC,125014.600,A,4308.3012,N,07726.2627,W,0.01,281.24,121018,,,A*74
$GPGGA,125014.800,4308.3012,N,07726.2627,W,1,08,1.00,148.3,M,-34.4,M,,*56
$GPRMC,125015.000,A,4308.3012,N,07726.2627,W,0.01,169.26,121018,,,A*74
$GPGGA,125015.200,4308.3012,N,07726.2627,W,1,08,1.00,148.1,M,-34.4,M,,*5F
$GPRMC,125015.400,A,4308.3012,N,07726.2627,W,0.03,218.96,121018,,,A*7C
$GPGGA,125015.600,4308.3012,N,07726.2627,W,1,07,1.07,147.9,M,-34.4,M,,*54
$GPRMC,125015.800,A,4308.3012,N,07726.2627,W,0.02,37.51,121018,,,A*45
$GPGGA,125016.000,4308.3012,N,07726.2627,W,1,07,1.07,147.7,M,-34.4,M,,*5F
$GPRMC,125016.200,A,4308.3012,N,07726.2627,W,0.00,41.99,121018,,,A*4B
$GPGGA,125016.400,4308.3012,N,07726.2628,W,1,07,1.07,147.5,M,-34.4,M,,*56
$GPRMC,125016.600,A,4308.3012,N,07726.2628,W,0.05,111.96,121018,,,A*7E
$GPGGA,125016.800,4308.3012,N,07726.2628,W,1,07,1.07,147.3,M,-34.4,M,,*5C
$GPRMC,125017.000,A,4308.3012,N,07726.2628,W,0.03,73.38,121018,,,A*4E
$GPGGA,125017.200,4308.3012,N,07726.2628,W,1,07,1.07,147.1,M,-34.4,M,,*55
$GPRMC,125017.400,A,4308.3012,N,07726.2628,W,0.04,232.04,121018,,,A*75
$GPGGA,125017.600,4308.3012,N,07726.2628,W,1,07,1.07,147.0,M,-34.4,M,,*50
$GPRMC,125017.800,A,4308.3012,N,07726.2628,W,0.06,302.83,121018,,,A*76
$GPGGA,125018.000,4308.3012,N,07726.2628,W,1,07,1.07,146.8,M,-34.4,M,,*50
$GPRMC,125018.200,A,4308.3012,N,07726.2628,W,0.03,298.51,121018,,,A*7B
$GPGGA,125018.400,4308.3013,N,07726.2629,W,1,07,1.07,146.7,M,-34.4,M,,*5B
$GPRMC,125018.600,A,4308.3013,N,07726.2629,W,0.01,204.75,121018,,,A*7E
$GPGGA,125018.800,4308.3013,N,07726.2629,W,1,07,1.07,146.5,M,-34.4,M,,*55
$GPRMC,125019.000,A,4308.3013,N,07726.2629,W,0.02,52.34,121018,,,A*4E
$GPGGA,125019.200,4308.3013,N,07726.2629,W,1,07,1.07,146.4,M,-34.4,M,,*5F
$GPRMC,125019.400,A,4308.3013,N,07726.2629,W,0.04,203.13,121018,,,A*7F
$GPGGA,125019.600,4308.3013,N,07726.2629,W,1,07,1.07,146.2,M,-34.4,M,,*5D
$GPRMC,125019.800,A,4308.3013,N,07726.2629,W,0.04,354.05,121018,,,A*77
$GPGGA,125020.000,4308.3014,N,07726.2630,W,1,07,1.09,146.1,M,-34.4,M,,*53
$GPRMC,125020.200,A,4308.3014,N,07726.2630,W,0.02,145.87,121018,,,A*76
$GPGGA,125020.400,4308.3014,N,07726.2630,W,1,07,1.07,146.0,M,-34.4,M,,*58
$GPRMC,125020.600,A,4308.3014,N,07726.2630,W,0.01,302.38,121018,,,A*74
$GPGGA,125020.800,4308.3014,N,07726.2630,W,1,07,1.07,145.9,M,-34.4,M,,*5E
$GPRMC,125021.000,A,4308.3014,N,07726.2630,W,0.02,340.79,121018,,,A*73
$GPGGA,125021.200,4308.3015,N,07726.2630,W,1,08,1.00,145.8,M,-34.4,M,,*5D
$GPRMC,125021.400,A,4308.3015,N,07726.2630,W,0.01,35.95,121018,,,A*46
$GPGGA,125021.600,4308.3015,N,07726.2630,W,1,08,1.00,145.7,M,-34.4,M,,*56
$GPRMC,125021.800,A,4308.3015,N,07726.2630,W,0.01,318.73,121018,,,A*7E
$GPGGA,125022.000,4308.3015,N,07726.2630,W,1,07,1.07,145.6,M,-34.4,M,,*5A
$GPRMC,125022.200,A,4308.3016,N,07726.2630,W,0.01,220.56,121018,,,A*79
$GPGGA,125022.400,4308.3016,N,07726.2631,W,1,07,1.07,145.4,M,-34.4,M,,*5E
$GPRMC,125022.600,A,4308.3016,N,07726.2631,W,0.01,298.15,121018,,,A*78
$GPGGA,125022.800,4308.3016,N,07726.2631,W,1,07,1.07,145.3,M,-34.4,M,,*55
$GPRMC,125023.000,A,4308.3016,N,07726.2631,W,0.02,313.86,121018,,,A*74
$GPGGA,125023.200,4308.3017,N,07726.2631,W,1,08,1.00,145.2,M,-34.4,M,,*56
$GPRMC,125023.400,A,4308.3017,N,07726.2631,W,0.00,0.00,121018,,,A*7C
$GPGGA,125023.600,4308.3017,N,07726.2631,W,1,07,1.09,145.1,M,-34.4,M,,*57
$GPRMC,125023.800,A,4308.3017,N,07726.2631,W,0.00,180.64,121018,,,A*7B
$GPGGA,125024.000,4308.3017,N,07726.2631,W,1,07,1.07,145.0,M,-34.4,M,,*59
$GPRMC,125024.200,A,4308.3018,N,07726.2631,W,0.01,330.20,121018,,,A*71
$GPGGA,125024.400,4308.3018,N,07726.2631,W,1,07,1.07,144.9,M,-34.4,M,,*5A
$GPRMC,125024.600,A,4308.3018,N,07726.2632,W,0.03,145.48,121018,,,A*7A
$GPGGA,125024.800,4308.3018,N,07726.2632,W,1,07,1.07,144.8,M,-34.4,M,,*54
$GPRMC,125025.000,A,4308.3019,N,07726.2632,W,0.02,6.66,121018,,,A*77
$GPGGA,125025.200,4308.3019,N,07726.2632,W,1,07,1.09,144.7,M,-34.4,M,,*5F
$GPRMC,125025.400,A,4308.3019,N,07726.2632,W,0.02,140.90,121018,,,A*79
$GPGGA,125025.600,4308.3019,N,07726.2632,W,1,07,1.07,144.7,M,-34.4,M,,*55
$GPRMC,125025.800,A,4308.3019,N,07726.2632,W,0.02,122.05,121018,,,A*7D
$GPGGA,125026.000,4308.3020,N,07726.2632,W,1,07,1.07,144.6,M,-34.4,M,,*5B
$GPRMC,125026.200,A,4308.3020,N,07726.2632,W,0.01,225.31,121018,,,A*7E
$GPGGA,125026.400,4308.3020,N,07726.2633,W,1,07,1.07,144.5,M,-34.4,M,,*5D
$GPRMC,125026.600,A,4308.3021,N,07726.2633,W,0.03,184.56,121018,,,A*71
$GPGGA,125026.800,4308.3021,N,07726.2633,W,1,07,1.07,144.5,M,-34.4,M,,*50
$GPRMC,125027.000,A,4308.3021,N,07726.2633,W,0.02,181.30,121018,,,A*72
$GPGGA,125027.200,4308.3021,N,07726.2633,W,1,07,1.07,144.4,M,-34.4,M,,*5A
$GPRMC,125027.400,A,4308.3022,N,07726.2633,W,0.02,36.53,121018,,,A*4D
$GPGGA,125027.600,4308.3022,N,07726.2633,W,1,07,1.07,144.4,M,-34.4,M,,*5D
$GPRMC,125027.800,A,4308.3022,N,07726.2633,W,0.01,323.12,121018,,,A*70
$GPGGA,125028.000,4308.3023,N,07726.2634,W,1,07,1.07,144.4,M,-34.4,M,,*52
$GPRMC,125028.200,A,4308.3023,N,07726.2634,W,0.05,176.83,121018,,,A*7D
$GPGGA,125028.400,4308.3023,N,07726.2634,W,1,07,1.07,144.4,M,-34.4,M,,*56
$GPRMC,125028.600,A,4308.3024,N,07726.2634,W,0.01,23.21,121018,,,A*43
$GPGGA,125028.800,4308.3024,N,07726.2634,W,1,07,1.07,144.3,M,-34.4,M,,*5A
$GPRMC,125029.000,A,4308.3024,N,07726.2634,W,0.01,92.39,121018,,,A*47
$GPGGA,125029.200,4308.3025,N,07726.2634,W,1,07,1.07,144.3,M,-34.4,M,,*50
$GPRMC,125029.400,A,4308.3025,N,07726.2634,W,0.02,17.42,121018,,,A*40
$GPGGA,125029.600,4308.3025,N,07726.2634,W,1,07,1.07,144.3,M,-34.4,M,,*54
$GPRMC,125029.800,A,4308.3025,N,07726.2635,W,0.01,359.34,121018,,,A*76
$GPGGA,125030.000,4308.3026,N,07726.2635,W,1,07,1.09,144.3,M,-34.4,M,,*56
$GPRMC,125030.200,A,4308.3026,N,07726.2635,W,0.01,122.90,121018,,,A*77
$GPGGA,125030.400,4308.3026,N,07726.2635,W,1,07,1.07,144.3,M,-34.4,M,,*5C
$GPRMC,125030.600,A,4308.3027,N,07726.2635,W,0.02,156.66,121018,,,A*7B
$GPGGA,125030.800,4308.3027,N,07726.2635,W,1,07,1.07,144.4,M,-34.4,M,,*56
$GPRMC,125031.000,A,4308.3027,N,07726.2635,W,0.01,27.97,121018,,,A*46
$GPGGA,125031.200,4308.3028,N,07726.2635,W,1,08,1.00,144.4,M,-34.4,M,,*5A
$GPRMC,125031.400,A,4308.3028,N,07726.2635,W,0.02,350.43,121018,,,A*74
$GPGGA,125031.600,4308.3028,N,07726.2635,W,1,08,1.02,144.4,M,-34.4,M,,*5C
$GPRMC,125031.800,A,4308.3028,N,07726.2636,W,0.03,343.88,121018,,,A*7F
$GPGGA,125032.000,4308.3029,N,07726.2636,W,1,07,1.07,144.5,M,-34.4,M,,*50
$GPRMC,125032.200,A,4308.3029,N,07726.2636,W,0.00,245.42,121018,,,A*75
$GPGGA,125032.400,4308.3029,N,07726.2636,W,1,08,1.00,144.5,M,-34.4,M,,*5C
$GPRMC,125032.600,A,4308.3030,N,07726.2636,W,0.02,149.62,121018,,,A*76
$GPGGA,125032.800,4308.3030,N,07726.2636,W,1,08,1.00,144.6,M,-34.4,M,,*5B
$GPRMC,125033.000,A,4308.3030,N,07726.2636,W,0.01,173.69,121018,,,A*70
$GPGGA,125033.200,4308.3031,N,07726.2636,W,1,08,1.00,144.6,M,-34.4,M,,*51
$GPRMC,125033.400,A,4308.3031,N,07726.2637,W,0.04,359.20,121018,,,A*76
$GPGGA,125033.600,4308.3031,N,07726.2637,W,1,08,1.02,144.6,M,-34.4,M,,*56
$GPRMC,125033.800,A,4308.3031,N,07726.2637,W,0.01,20.21,121018,,,A*43
$GPGGA,125034.000,4308.3031,N,07726.2637,W,1,08,1.00,144.6,M,-34.4,M,,*55
$GPRMC,125034.200,A,4308.3031,N,07726.2637,W,0.01,142.80,121018,,,A*70
$GPGGA,125034.400,4308.3031,N,07726.2637,W,1,07,1.07,144.6,M,-34.4,M,,*59
$GPRMC,125034.600,A,4308.3031,N,07726.2637,W,0.02,79.84,121018,,,A*4A
$GPGGA,125034.800,4308.3031,N,07726.2637,W,1,07,1.07,144.6,M,-34.4,M,,*55
$GPRMC,125035.000,A,4308.3031,N,07726.2637,W,0.02,96.49,121018,,,A*4D
$GPGGA,125035.200,4308.3031,N,07726.2637,W,1,08,1.00,144.6,M,-34.4,M,,*56
$GPRMC,125035.400,A,4308.3031,N,07726.2637,W,0.04,172.11,121018,,,A*79
$GPGGA,125035.600,4308.3031,N,07726.2637,W,1,08,1.00,144.6,M,-34.4,M,,*52
$GPRMC,125035.800,A,4308.3031,N,07726.2637,W,0.01,209.40,121018,,,A*7B
$GPGGA,125036.000,4308.3031,N,07726.2637,W,1,08,1.00,144.6,M,-34.4,M,,*57
$GPRMC,125036.200,A,4308.3031,N,07726.2637,W,0.18,10.06,121018,,,A*42
$GPGGA,125036.400,4308.3031,N,07726.2637,W,1,07,1.09,144.6,M,-34.4,M,,*55
$GPRMC,125036.600,A,4308.3031,N,07726.2637,W,0.40,7.03,121018,,,A*78
$GPGGA,125036.800,4308.3031,N,07726.2637,W,1,08,1.02,144.6,M,-34.4,M,,*5D
$GPRMC,125037.000,A,4308.3032,N,07726.2637,W,0.65,7.95,121018,,,A*74
$GPGGA,125037.200,4308.3032,N,07726.2637,W,1,08,1.02,144.7,M,-34.4,M,,*54
$GPRMC,125037.400,A,4308.3033,N,07726.2637,W,0.97,3.45,121018,,,A*75
$GPGGA,125037.600,4308.3034,N,07726.2637,W,1,08,1.02,144.7,M,-34.4,M,,*56
$GPRMC,125037.800,A,4308.3034,N,07726.2637,W,1.15,4.29,121018,,,A*78
$GPGGA,125038.000,4308.3035,N,07726.2637,W,1,08,1.02,144.7,M,-34.4,M,,*5E
$GPRMC,125038.200,A,4308.3036,N,07726.2637,W,1.47,1.66,121018,,,A*76
$GPGGA,125038.400,4308.3037,N,07726.2637,W,1,08,1.02,144.8,M,-34.4,M,,*57
$GPRMC,125038.600,A,4308.3038,N,07726.2638,W,2.36,2.84,121018,,,A*79
$GPGGA,125038.800,4308.3040,N,07726.2637,W,1,08,1.02,144.8,M,-34.4,M,,*5B
$GPRMC,125039.000,A,4308.3041,N,07726.2637,W,2.75,3.68,121018,,,A*7B
$GPGGA,125039.200,4308.3043,N,07726.2637,W,1,08,1.02,144.9,M,-34.4,M,,*52
$GPRMC,125039.400,A,4308.3044,N,07726.2638,W,3.25,1.61,121018,,,A*7A
$GPGGA,125039.600,4308.3046,N,07726.2638,W,1,08,1.02,144.9,M,-34.4,M,,*5C
$GPRMC,125039.800,A,4308.3049,N,07726.2637,W,3.79,0.03,121018,,,A*78
$GPGGA,125040.000,4308.3051,N,07726.2637,W,1,08,1.02,145.0,M,-34.4,M,,*55
$GPRMC,125040.200,A,4308.3054,N,07726.2637,W,4.24,358.25,121018,,,A*75
$GPGGA,125040.400,4308.3056,N,07726.2637,W,1,08,1.02,145.2,M,-34.4,M,,*54
$GPRMC,125040.600,A,4308.3059,N,07726.2637,W,4.71,357.12,121018,,,A*77
$GPGGA,125040.800,4308.3062,N,07726.2637,W,1,08,1.02,145.2,M,-34.4,M,,*5F
$GPRMC,125041.000,A,4308.3065,N,07726.2637,W,5.49,356.15,121018,,,A*73
$GPGGA,125041.200,4308.3068,N,07726.2637,W,1,08,1.02,145.3,M,-34.4,M,,*5F
$GPRMC,125041.400,A,4308.3072,N,07726.2638,W,5.93,356.06,121018,,,A*7B
$GPGGA,125041.600,4308.3075,N,07726.2638,W,1,08,1.02,145.3,M,-34.4,M,,*58
$GPRMC,125041.800,A,4308.3079,N,07726.2638,W,5.99,355.80,121018,,,A*7B
$GPGGA,125042.000,4308.3082,N,07726.2639,W,1,08,1.02,145.4,M,-34.4,M,,*53
$GPRMC,125042.200,A,4308.3086,N,07726.2639,W,5.92,354.58,121018,,,A*7C
$GPGGA,125042.400,4308.3089,N,07726.2640,W,1,08,1.02,145.4,M,-34.4,M,,*52
$GPRMC,125042.600,A,4308.3093,N,07726.2640,W,6.00,353.74,121018,,,A*73
$GPGGA,125042.800,4308.3096,N,07726.2641,W,1,08,1.02,145.5,M,-34.4,M,,*50
$GPRMC,125043.000,A,4308.3100,N,07726.2641,W,6.15,354.39,121018,,,A*74
$GPGGA,125043.200,4308.3103,N,07726.2642,W,1,08,1.02,145.6,M,-34.4,M,,*56
$GPRMC,125043.400,A,4308.3106,N,07726.2642,W,5.55,356.22,121018,,,A*7A
$GPGGA,125043.600,4308.3109,N,07726.2642,W,1,08,1.02,145.6,M,-34.4,M,,*58
$GPRMC,125043.800,A,4308.3112,N,07726.2642,W,4.74,357.66,121018,,,A*70
$GPGGA,125044.000,4308.3115,N,07726.2643,W,1,08,1.02,145.7,M,-34.4,M,,*54
$GPRMC,125044.200,A,4308.3117,N,07726.2643,W,3.87,359.42,121018,,,A*7A
$GPGGA,125044.400,4308.3119,N,07726.2643,W,1,08,1.02,145.7,M,-34.4,M,,*5C
$GPRMC,125044.600,A,4308.3121,N,07726.2643,W,3.48,359.39,121018,,,A*74
$GPGGA,125044.800,4308.3123,N,07726.2642,W,1,08,1.02,145.7,M,-34.4,M,,*58
$GPRMC,125045.000,A,4308.3125,N,07726.2642,W,3.18,2.73,121018,,,A*70
$GPGGA,125045.200,4308.3127,N,07726.2642,W,1,08,1.02,145.8,M,-34.4,M,,*58
$GPRMC,125045.400,A,4308.3129,N,07726.2642,W,2.79,1.96,121018,,,A*76
$GPGGA,125045.600,4308.3130,N,07726.2642,W,1,08,1.02,145.8,M,-34.4,M,,*5A
$GPRMC,125045.800,A,4308.3132,N,07726.2641,W,2.74,3.43,121018,,,A*74
$GPGGA,125046.000,4308.3134,N,07726.2641,W,1,08,1.02,145.8,M,-34.4,M,,*58
$GPRMC,125046.200,A,4308.3135,N,07726.2641,W,3.06,6.58,121018,,,A*71
$GPGGA,125046.400,4308.3137,N,07726.2640,W,1,08,1.02,145.8,M,-34.4,M,,*5E
$GPRMC,125046.600,A,4308.3139,N,07726.2639,W,3.15,19.75,121018,,,A*45
$GPGGA,125046.800,4308.3140,N,07726.2639,W,1,08,1.00,145.9,M,-34.4,M,,*5F
$GPRMC,125047.000,A,4308.3142,N,07726.2638,W,2.90,16.30,121018,,,A*4D
$GPGGA,125047.200,4308.3144,N,07726.2637,W,1,08,1.00,146.0,M,-34.4,M,,*54
$GPRMC,125047.400,A,4308.3145,N,07726.2636,W,2.98,28.00,121018,,,A*46
$GPGGA,125047.600,4308.3147,N,07726.2635,W,1,08,1.00,146.0,M,-34.4,M,,*51
$GPRMC,125047.800,A,4308.3148,N,07726.2634,W,3.11,43.51,121018,,,A*4C
$GPGGA,125048.000,4308.3150,N,07726.2632,W,1,08,1.00,146.0,M,-34.4,M,,*59
$GPRMC,125048.200,A,4308.3151,N,07726.2630,W,2.94,40.84,121018,,,A*42
$GPGGA,125048.400,4308.3152,N,07726.2629,W,1,08,1.00,146.1,M,-34.4,M,,*54
$GPRMC,125048.600,A,4308.3153,N,07726.2627,W,2.70,50.37,121018,,,A*41
$GPGGA,125048.800,4308.3154,N,07726.2626,W,1,08,1.00,146.2,M,-34.4,M,,*52
$GPRMC,125049.000,A,4308.3155,N,07726.2624,W,2.55,58.22,121018,,,A*48
$GPGGA,125049.200,4308.3156,N,07726.2622,W,1,08,1.00,146.2,M,-34.4,M,,*5F
$GPRMC,125049.400,A,4308.3156,N,07726.2621,W,1.94,62.50,121018,,,A*48
$GPGGA,125049.600,4308.3157,N,07726.2620,W,1,08,1.02,146.2,M,-34.4,M,,*5A
$GPRMC,125049.800,A,4308.3157,N,07726.2620,W,1.16,67.14,121018,,,A*4B
$GPGGA,125050.000,4308.3157,N,07726.2619,W,1,08,1.02,146.2,M,-34.4,M,,*5E
$GPRMC,125050.200,A,4308.3157,N,07726.2619,W,0.51,72.17,121018,,,A*46
$GPGGA,125050.400,4308.3157,N,07726.2619,W,1,08,1.00,146.2,M,-34.4,M,,*58
$GPRMC,125050.600,A,4308.3157,N,07726.2619,W,0.01,300.86,121018,,,A*79
$GPGGA,125050.800,4308.3157,N,07726.2619,W,1,08,1.00,146.2,M,-34.4,M,,*54
$GPRMC,125051.000,A,4308.3157,N,07726.2619,W,0.38,251.43,121018,,,A*78
$GPGGA,125051.200,4308.3157,N,07726.2619,W,1,08,1.00,146.2,M,-34.4,M,,*5F
$GPRMC,125051.400,A,4308.3157,N,07726.2619,W,1.16,254.90,121018,,,A*7A
$GPGGA,125051.600,4308.3157,N,07726.2620,W,1,08,1.00,146.3,M,-34.4,M,,*50
$GPRMC,125051.800,A,4308.3157,N,07726.2621,W,1.88,256.60,121018,,,A*77
$GPGGA,125052.000,4308.3157,N,07726.2622,W,1,08,1.00,146.3,M,-34.4,M,,*57
$GPRMC,125052.200,A,4308.3156,N,07726.2624,W,2.78,260.64,121018,,,A*77
$GPGGA,125052.400,4308.3156,N,07726.2626,W,1,08,1.00,146.3,M,-34.4,M,,*56
$GPRMC,125052.600,A,4308.3156,N,07726.2628,W,3.50,261.97,121018,,,A*79
$GPGGA,125052.800,4308.3155,N,07726.2630,W,1,08,1.00,146.4,M,-34.4,M,,*59
$GPRMC,125053.000,A,4308.3155,N,07726.2633,W,4.26,263.22,121018,,,A*7D
$GPGGA,125053.200,4308.3155,N,07726.2637,W,1,08,1.02,146.4,M,-34.4,M,,*57
$GPRMC,125053.400,A,4308.3155,N,07726.2640,W,4.93,268.26,121018,,,A*7C
$GPGGA,125053.600,4308.3155,N,07726.2644,W,1,08,1.02,146.5,M,-34.4,M,,*56
$GPRMC,125053.800,A,4308.3155,N,07726.2647,W,5.52,271.98,121018,,,A*76
$GPGGA,125054.000,4308.3155,N,07726.2652,W,1,08,1.02,146.5,M,-34.4,M,,*50
$GPRMC,125054.200,A,4308.3155,N,07726.2656,W,6.13,275.46,121018,,,A*7A
$GPGGA,125054.400,4308.3156,N,07726.2661,W,1,08,1.02,146.6,M,-34.4,M,,*54
$GPRMC,125054.600,A,4308.3156,N,07726.2666,W,6.75,277.93,121018,,,A*74
$GPGGA,125054.800,4308.3157,N,07726.2671,W,1,08,1.02,146.6,M,-34.4,M,,*58
$GPRMC,125055.000,A,4308.3157,N,07726.2676,W,7.30,280.35,121018,,,A*77
$GPGGA,125055.200,4308.3158,N,07726.2682,W,1,08,1.02,146.7,M,-34.4,M,,*51
$GPRMC,125055.400,A,4308.3159,N,07726.2688,W,7.88,282.82,121018,,,A*71
$GPGGA,125055.600,4308.3160,N,07726.2693,W,1,08,1.02,146.8,M,-34.4,M,,*51
$GPRMC,125055.800,A,4308.3161,N,07726.2699,W,8.37,282.91,121018,,,A*7F
$GPGGA,125056.000,4308.3162,N,07726.2706,W,1,08,1.02,146.9,M,-34.4,M,,*5A
$GPRMC,125056.200,A,4308.3163,N,07726.2712,W,9.05,284.71,121018,,,A*7E
$GPGGA,125056.400,4308.3164,N,07726.2718,W,1,08,1.02,147.0,M,-34.4,M,,*5F
$GPRMC,125056.600,A,4308.3165,N,07726.2725,W,9.67,284.83,121018,,,A*71
$GPGGA,125056.800,4308.3167,N,07726.2732,W,1,08,1.02,147.1,M,-34.4,M,,*59
$GPRMC,125057.000,A,4308.3168,N,07726.2740,W,10.22,285.39,121018,,,A*41
$GPGGA,125057.200,4308.3170,N,07726.2747,W,1,08,1.02,147.2,M,-34.4,M,,*55
$GPRMC,125057.400,A,4308.3171,N,07726.2754,W,10.70,286.98,121018,,,A*47
$GPGGA,125057.600,4308.3173,N,07726.2762,W,1,08,1.02,147.3,M,-34.4,M,,*54
$GPRMC,125057.800,A,4308.3175,N,07726.2770,W,11.23,287.91,121018,,,A*46
$GPGGA,125058.000,4308.3176,N,07726.2778,W,1,08,1.02,147.5,M,-34.4,M,,*55
$GPRMC,125058.200,A,4308.3178,N,07726.2787,W,11.69,289.07,121018,,,A*49
$GPGGA,125058.400,4308.3180,N,07726.2795,W,1,08,1.02,147.6,M,-34.4,M,,*58
$GPRMC,125058.600,A,4308.3182,N,07726.2804,W,12.19,289.46,121018,,,A*4D
$GPGGA,125058.800,4308.3185,N,07726.2814,W,1,08,1.02,147.7,M,-34.4,M,,*56
$GPRMC,125059.000,A,4308.3187,N,07726.2823,W,12.53,291.64,121018,,,A*4D
$GPGGA,125059.200,4308.3190,N,07726.2833,W,1,08,1.02,147.8,M,-34.4,M,,*53
$GPRMC,125059.400,A,4308.3193,N,07726.2842,W,13.16,292.65,121018,,,A*49
$GPGGA,125059.600,4308.3196,N,07726.2851,W,1,08,1.02,148.0,M,-34.4,M,,*52
$GPRMC,125059.800,A,4308.3199,N,07726.2861,W,13.58,293.50,121018,,,A*43
$GPGGA,125100.000,4308.3202,N,07726.2871,W,1,08,1.00,148.1,M,-34.4,M,,*56
$GPRMC,125100.200,A,4308.3205,N,07726.2880,W,13.92,294.81,121018,,,A*40
$GPGGA,125100.400,4308.3209,N,07726.2890,W,1,08,1.02,148.2,M,-34.4,M,,*57
$GPRMC,125100.600,A,4308.3212,N,07726.2900,W,14.51,296.15,121018,,,A*4C
$GPGGA,125100.800,4308.3216,N,07726.2910,W,1,08,1.00,148.3,M,-34.4,M,,*5F
$GPRMC,125101.000,A,4308.3220,N,07726.2920,W,14.97,297.66,121018,,,A*47
$GPGGA,125101.200,4308.3224,N,07726.2930,W,1,08,1.00,148.4,M,-34.4,M,,*50
$GPRMC,125101.400,A,4308.3228,N,07726.2940,W,15.31,298.52,121018,,,A*48
$GPGGA,125101.600,4308.3232,N,07726.2950,W,1,08,1.02,148.6,M,-34.4,M,,*55
$GPRMC,125101.800,A,4308.3236,N,07726.2961,W,15.40,299.53,121018,,,A*4E
$GPGGA,125102.000,4308.3240,N,07726.2971,W,1,08,1.00,148.7,M,-34.4,M,,*55
$GPRMC,125102.200,A,4308.3245,N,07726.2981,W,16.02,300.73,121018,,,A*4B
$GPGGA,125102.400,4308.3250,N,07726.2992,W,1,08,1.02,148.9,M,-34.4,M,,*51
$GPRMC,125102.600,A,4308.3254,N,07726.3002,W,16.31,301.69,121018,,,A*46
$GPGGA,125102.800,4308.3259,N,07726.3013,W,1,08,1.00,149.1,M,-34.4,M,,*5E
$GPRMC,125103.000,A,4308.3264,N,07726.3024,W,16.66,302.00,121018,,,A*48
$GPGGA,125103.200,4308.3269,N,07726.3035,W,1,08,1.00,149.2,M,-34.4,M,,*51
$GPRMC,125103.400,A,4308.3275,N,07726.3046,W,16.92,302.47,121018,,,A*40
$GPGGA,125103.600,4308.3280,N,07726.3057,W,1,08,1.02,149.3,M,-34.4,M,,*55
$GPRMC,125103.800,A,4308.3286,N,07726.3069,W,17.44,302.26,121018,,,A*40
$GPGGA,125104.000,4308.3291,N,07726.3080,W,1,08,1.02,149.4,M,-34.4,M,,*59
$GPRMC,125104.200,A,4308.3296,N,07726.3091,W,17.65,302.62,121018,,,A*48
$GPGGA,125104.400,4308.3302,N,07726.3103,W,1,08,1.02,149.6,M,-34.4,M,,*5E
$GPRMC,125104.600,A,4308.3307,N,07726.3115,W,17.91,302.46,121018,,,A*45
$GPGGA,125104.800,4308.3312,N,07726.3127,W,1,08,1.02,149.6,M,-34.4,M,,*55
$GPRMC,125105.000,A,4308.3317,N,07726.3138,W,18.33,302.54,121018,,,A*48
$GPGGA,125105.200,4308.3323,N,07726.3151,W,1,08,1.02,149.7,M,-34.4,M,,*5C
$GPRMC,125105.400,A,4308.3328,N,07726.3163,W,18.37,302.23,121018,,,A*4A
$GPGGA,125105.600,4308.3334,N,07726.3175,W,1,08,1.02,149.9,M,-34.4,M,,*56
$GPRMC,125105.800,A,4308.3339,N,07726.3188,W,18.73,302.25,121018,,,A*45
$GPGGA,125106.000,4308.3345,N,07726.3201,W,1,08,1.02,150.0,M,-34.4,M,,*54
$GPRMC,125106.200,A,4308.3350,N,07726.3213,W,18.97,302.58,121018,,,A*42
$GPGGA,125106.400,4308.3356,N,07726.3226,W,1,08,1.02,150.1,M,-34.4,M,,*56
$GPRMC,125106.600,A,4308.3362,N,07726.3238,W,18.95,302.11,121018,,,A*41
$GPGGA,125106.800,4308.3367,N,07726.3251,W,1,08,1.02,150.1,M,-34.4,M,,*58
$GPRMC,125107.000,A,4308.3373,N,07726.3263,W,19.05,302.86,121018,,,A*4E
$GPGGA,125107.200,4308.3379,N,07726.3275,W,1,08,1.02,150.2,M,-34.4,M,,*59
$GPRMC,125107.400,A,4308.3385,N,07726.3288,W,19.28,302.71,121018,,,A*41
$GPGGA,125107.600,4308.3390,N,07726.3300,W,1,08,1.02,150.3,M,-34.4,M,,*58
$GPRMC,125107.800,A,4308.3396,N,07726.3312,W,19.31,303.39,121018,,,A*48
$GPGGA,125108.000,4308.3402,N,07726.3325,W,1,08,1.02,150.4,M,-34.4,M,,*5D
$GPRMC,125108.200,A,4308.3408,N,07726.3337,W,19.38,303.01,121018,,,A*48
$GPGGA,125108.400,4308.3414,N,07726.3350,W,1,08,1.02,150.5,M,-34.4,M,,*5D
$GPRMC,125108.600,A,4308.3420,N,07726.3362,W,19.48,303.28,121018,,,A*4A
$GPGGA,125108.800,4308.3426,N,07726.3375,W,1,08,1.02,150.6,M,-34.4,M,,*54
$GPRMC,125109.000,A,4308.3432,N,07726.3387,W,19.50,303.57,121018,,,A*44
$GPGGA,125109.200,4308.3439,N,07726.3399,W,1,08,1.02,150.8,M,-34.4,M,,*5D
$GPRMC,125109.400,A,4308.3445,N,07726.3412,W,19.55,303.93,121018,,,A*46
$GPGGA,125109.600,4308.3451,N,07726.3424,W,1,08,1.02,150.9,M,-34.4,M,,*57
$GPRMC,125109.800,A,4308.3457,N,07726.3436,W,19.67,303.82,121018,,,A*4E
$GPGGA,125110.000,4308.3463,N,07726.3449,W,1,08,1.02,151.0,M,-34.4,M,,*5B
$GPRMC,125110.200,A,4308.3469,N,07726.3461,W,19.68,304.26,121018,,,A*45
$GPGGA,125110.400,4308.3475,N,07726.3474,W,1,08,1.02,151.2,M,-34.4,M,,*54
$GPRMC,125110.600,A,4308.3481,N,07726.3486,W,19.69,303.85,121018,,,A*41
$GPGGA,125110.800,4308.3488,N,07726.3499,W,1,08,1.02,151.3,M,-34.4,M,,*58
$GPRMC,125111.000,A,4308.3494,N,07726.3511,W,19.91,305.96,121018,,,A*4E
$GPGGA,125111.200,4308.3501,N,07726.3524,W,1,08,1.02,151.4,M,-34.4,M,,*53
$GPRMC,125111.400,A,4308.3507,N,07726.3536,W,19.95,307.15,121018,,,A*49
$GPGGA,125111.600,4308.3514,N,07726.3548,W,1,08,1.02,151.6,M,-34.4,M,,*5B
$GPRMC,125111.800,A,4308.3521,N,07726.3559,W,19.91,310.15,121018,,,A*4A
$GPGGA,125112.000,4308.3528,N,07726.3571,W,1,08,1.02,151.7,M,-34.4,M,,*5A
$GPRMC,125112.200,A,4308.3536,N,07726.3582,W,19.95,311.17,121018,,,A*44
$GPGGA,125112.400,4308.3543,N,07726.3594,W,1,08,1.02,151.9,M,-34.4,M,,*56
$GPRMC,125112.600,A,4308.3551,N,07726.3605,W,20.03,314.00,121018,,,A*4B
$GPGGA,125112.800,4308.3559,N,07726.3616,W,1,08,1.02,152.0,M,-34.4,M,,*52
$GPRMC,125113.000,A,4308.3567,N,07726.3626,W,20.31,317.74,121018,,,A*49
$GPGGA,125113.200,4308.3576,N,07726.3637,W,1,08,1.02,152.2,M,-34.4,M,,*55
$GPRMC,125113.400,A,4308.3584,N,07726.3646,W,20.61,321.00,121018,,,A*45
$GPGGA,125113.600,4308.3594,N,07726.3656,W,1,08,1.02,152.3,M,-34.4,M,,*5B
$GPRMC,125113.800,A,4308.3603,N,07726.3665,W,20.82,324.24,121018,,,A*4A
$GPGGA,125114.000,4308.3613,N,07726.3674,W,1,08,1.02,152.4,M,-34.4,M,,*51
$GPRMC,125114.200,A,4308.3623,N,07726.3683,W,21.03,326.84,121018,,,A*4D
$GPGGA,125114.400,4308.3633,N,07726.3691,W,1,08,1.02,152.5,M,-34.4,M,,*5D
$GPRMC,125114.600,A,4308.3643,N,07726.3699,W,21.29,331.01,121018,,,A*47
$GPGGA,125114.800,4308.3654,N,07726.3707,W,1,07,1.09,152.7,M,-34.4,M,,*58
$GPRMC,125115.000,A,4308.3665,N,07726.3714,W,21.55,334.45,121018,,,A*4E
$GPGGA,125115.200,4308.3676,N,07726.3721,W,1,07,1.09,152.7,M,-34.4,M,,*57
$GPRMC,125115.400,A,4308.3687,N,07726.3727,W,21.64,337.93,121018,,,A*4C
$GPGGA,125115.600,4308.3698,N,07726.3734,W,1,07,1.09,152.8,M,-34.4,M,,*58
$GPRMC,125115.800,A,4308.3709,N,07726.3739,W,21.96,340.97,121018,,,A*41
$GPGGA,125116.000,4308.3721,N,07726.3744,W,1,07,1.09,152.9,M,-34.4,M,,*58
$GPRMC,125116.200,A,4308.3733,N,07726.3749,W,22.37,344.35,121018,,,A*42
$GPGGA,125116.400,4308.3745,N,07726.3754,W,1,07,1.09,152.9,M,-34.4,M,,*5F
$GPRMC,125116.600,A,4308.3757,N,07726.3757,W,22.59,348.05,121018,,,A*4C
$GPGGA,125116.800,4308.3770,N,07726.3761,W,1,07,1.09,152.9,M,-34.4,M,,*53
$GPRMC,125117.000,A,4308.3782,N,07726.3763,W,22.66,351.09,121018,,,A*4C
$GPGGA,125117.200,4308.3795,N,07726.3766,W,1,07,1.09,153.0,M,-34.4,M,,*5C
$GPRMC,125117.400,A,4308.3808,N,07726.3768,W,23.10,354.01,121018,,,A*43
$GPGGA,125117.600,4308.3821,N,07726.3769,W,1,07,1.09,153.0,M,-34.4,M,,*57
$GPRMC,125117.800,A,4308.3833,N,07726.3770,W,22.98,355.29,121018,,,A*44
$GPGGA,125118.000,4308.3846,N,07726.3771,W,1,07,1.09,153.1,M,-34.4,M,,*57
$GPRMC,125118.200,A,4308.3860,N,07726.3771,W,23.37,0.46,121018,,,A*48
$GPGGA,125118.400,4308.3873,N,07726.3771,W,1,08,1.02,153.0,M,-34.4,M,,*50
$GPRMC,125118.600,A,4308.3886,N,07726.3770,W,23.84,2.87,121018,,,A*42
$GPGGA,125118.800,4308.3899,N,07726.3769,W,1,08,1.02,153.0,M,-34.4,M,,*51
$GPRMC,125119.000,A,4308.3913,N,07726.3767,W,24.07,4.89,121018,,,A*4A
$GPGGA,125119.200,4308.3926,N,07726.3766,W,1,08,1.02,153.1,M,-34.4,M,,*51
$GPRMC,125119.400,A,4308.3939,N,07726.3764,W,24.01,6.78,121018,,,A*4F
$GPGGA,125119.600,4308.3952,N,07726.3761,W,1,07,1.09,153.1,M,-34.4,M,,*55
$GPRMC,125119.800,A,4308.3966,N,07726.3759,W,24.34,7.75,121018,,,A*4D
$GPGGA,125120.000,4308.3979,N,07726.3756,W,1,08,1.02,153.1,M,-34.4,M,,*50
$GPRMC,125120.200,A,4308.3993,N,07726.3754,W,24.38,8.64,121018,,,A*49
$GPGGA,125120.400,4308.4006,N,07726.3751,W,1,08,1.02,153.1,M,-34.4,M,,*55
$GPRMC,125120.600,A,4308.4020,N,07726.3748,W,24.73,9.20,121018,,,A*48
$GPGGA,125120.800,4308.4034,N,07726.3745,W,1,08,1.02,153.2,M,-34.4,M,,*5E
$GPRMC,125121.000,A,4308.4047,N,07726.3742,W,24.77,9.69,121018,,,A*4D
$GPGGA,125121.200,4308.4061,N,07726.3738,W,1,08,1.02,153.2,M,-34.4,M,,*5F
$GPRMC,125121.400,A,4308.4075,N,07726.3735,W,24.82,10.13,121018,,,A*77
$GPGGA,125121.600,4308.4088,N,07726.3732,W,1,08,1.02,153.3,M,-34.4,M,,*57
$GPRMC,125121.800,A,4308.4102,N,07726.3728,W,24.84,10.22,121018,,,A*72
$GPGGA,125122.000,4308.4115,N,07726.3725,W,1,08,1.02,153.4,M,-34.4,M,,*56
$GPRMC,125122.200,A,4308.4129,N,07726.3722,W,24.78,10.37,121018,,,A*7F
$GPGGA,125122.400,4308.4142,N,07726.3718,W,1,08,1.02,153.5,M,-34.4,M,,*5F
$GPRMC,125122.600,A,4308.4156,N,07726.3715,W,24.72,10.16,121018,,,A*7E
$GPGGA,125122.800,4308.4169,N,07726.3712,W,1,08,1.02,153.7,M,-34.4,M,,*52
$GPRMC,125123.000,A,4308.4182,N,07726.3708,W,24.35,10.45,121018,,,A*79
$GPGGA,125123.200,4308.4195,N,07726.3705,W,1,08,1.02,153.8,M,-34.4,M,,*53
$GPRMC,125123.400,A,4308.4208,N,07726.3702,W,23.76,10.40,121018,,,A*73
$GPGGA,125123.600,4308.4221,N,07726.3698,W,1,08,1.02,153.8,M,-34.4,M,,*5E
$GPRMC,125123.800,A,4308.4234,N,07726.3695,W,23.26,10.23,121018,,,A*7F
$GPGGA,125124.000,4308.4247,N,07726.3692,W,1,08,1.02,154.0,M,-34.4,M,,*5A
$GPRMC,125124.200,A,4308.4260,N,07726.3688,W,23.17,10.59,121018,,,A*70
$GPGGA,125124.400,4308.4272,N,07726.3685,W,1,08,1.02,154.0,M,-34.4,M,,*5E
$GPRMC,125124.600,A,4308.4285,N,07726.3682,W,22.10,9.94,121018,,,A*4A
$GPGGA,125124.800,4308.4297,N,07726.3679,W,1,08,1.02,154.1,M,-34.4,M,,*5B
$GPRMC,125125.000,A,4308.4309,N,07726.3675,W,22.11,10.09,121018,,,A*7D
$GPGGA,125125.200,4308.4321,N,07726.3673,W,1,08,1.02,154.2,M,-34.4,M,,*55
$GPRMC,125125.400,A,4308.4333,N,07726.3670,W,21.55,9.49,121018,,,A*4A
$GPGGA,125125.600,4308.4345,N,07726.3667,W,1,08,1.02,154.3,M,-34.4,M,,*57
$GPRMC,125125.800,A,4308.4356,N,07726.3665,W,21.24,9.58,121018,,,A*47
$GPGGA,125126.000,4308.4368,N,07726.3662,W,1,08,1.02,154.4,M,-34.4,M,,*5F
$GPRMC,125126.200,A,4308.4379,N,07726.3659,W,20.92,9.37,121018,,,A*49
$GPGGA,125126.400,4308.4391,N,07726.3657,W,1,08,1.02,154.6,M,-34.4,M,,*59
$GPRMC,125126.600,A,4308.4402,N,07726.3655,W,20.19,8.81,121018,,,A*45
$GPGGA,125126.800,4308.4413,N,07726.3652,W,1,08,1.02,154.7,M,-34.4,M,,*5C
$GPRMC,125127.000,A,4308.4423,N,07726.3649,W,19.15,9.13,121018,,,A*40
$GPGGA,125127.200,4308.4434,N,07726.3647,W,1,08,1.02,154.8,M,-34.4,M,,*59
$GPRMC,125127.400,A,4308.4444,N,07726.3644,W,18.41,8.79,121018,,,A*45
$GPGGA,125127.600,4308.4454,N,07726.3642,W,1,08,1.02,154.9,M,-34.4,M,,*5F
$GPRMC,125127.800,A,4308.4464,N,07726.3639,W,17.14,9.66,121018,,,A*41
$GPGGA,125128.000,4308.4473,N,07726.3637,W,1,08,1.02,155.0,M,-34.4,M,,*59
$GPRMC,125128.200,A,4308.4482,N,07726.3633,W,16.03,8.96,121018,,,A*4F
$GPGGA,125128.400,4308.4490,N,07726.3631,W,1,08,1.02,155.0,M,-34.4,M,,*56
$GPRMC,125128.600,A,4308.4498,N,07726.3628,W,14.33,9.15,121018,,,A*41
$GPGGA,125128.800,4308.4506,N,07726.3627,W,1,08,1.02,155.1,M,-34.4,M,,*52
$GPRMC,125129.000,A,4308.4512,N,07726.3625,W,12.36,8.95,121018,,,A*42
$GPGGA,125129.200,4308.4518,N,07726.3623,W,1,08,1.02,155.1,M,-34.4,M,,*52
$GPRMC,125129.400,A,4308.4524,N,07726.3622,W,10.12,9.37,121018,,,A*49
$GPGGA,125129.600,4308.4529,N,07726.3621,W,1,08,1.02,155.1,M,-34.4,M,,*56
$GPRMC,125129.800,A,4308.4533,N,07726.3621,W,8.07,9.98,121018,,,A*78
$GPGGA,125130.000,4308.4537,N,07726.3620,W,1,08,1.02,155.1,M,-34.4,M,,*56
$GPRMC,125130.200,A,4308.4540,N,07726.3619,W,5.84,8.28,121018,,,A*79
$GPGGA,125130.400,4308.4543,N,07726.3619,W,1,08,1.02,155.1,M,-34.4,M,,*5B
$GPRMC,125130.600,A,4308.4545,N,07726.3618,W,4.03,10.65,121018,,,A*47
$GPGGA,125130.800,4308.4547,N,07726.3618,W,1,08,1.02,155.2,M,-34.4,M,,*51
$GPRMC,125131.000,A,4308.4548,N,07726.3618,W,2.82,8.94,121018,,,A*75
$GPGGA,125131.200,4308.4550,N,07726.3618,W,1,07,1.09,155.1,M,-34.4,M,,*5B
$GPRMC,125131.400,A,4308.4551,N,07726.3617,W,2.70,8.94,121018,,,A*7B
$GPGGA,125131.600,4308.4553,N,07726.3617,W,1,07,1.09,155.1,M,-34.4,M,,*53
$GPRMC,125131.800,A,4308.4554,N,07726.3617,W,3.25,6.43,121018,,,A*77
$GPGGA,125132.000,4308.4556,N,07726.3617,W,1,07,1.09,155.1,M,-34.4,M,,*53
$GPRMC,125132.200,A,4308.4559,N,07726.3617,W,5.22,1.85,121018,,,A*7F
$GPGGA,125132.400,4308.4562,N,07726.3617,W,1,07,1.09,155.1,M,-34.4,M,,*50
$GPRMC,125132.600,A,4308.4566,N,07726.3618,W,6.64,356.73,121018,,,A*71
$GPGGA,125132.800,4308.4569,N,07726.3618,W,1,08,1.02,155.2,M,-34.4,M,,*5F
$GPRMC,125133.000,A,4308.4574,N,07726.3620,W,8.81,348.96,121018,,,A*7F
$GPGGA,125133.200,4308.4579,N,07726.3621,W,1,08,1.02,155.3,M,-34.4,M,,*5E
$GPRMC,125133.400,A,4308.4584,N,07726.3624,W,9.57,340.11,121018,,,A*7D
$GPGGA,125133.600,4308.4589,N,07726.3626,W,1,08,1.02,155.3,M,-34.4,M,,*52
$GPRMC,125133.800,A,4308.4594,N,07726.3630,W,10.69,329.74,121018,,,A*4C
$GPGGA,125134.000,4308.4599,N,07726.3635,W,1,07,1.09,155.3,M,-34.4,M,,*54
$GPRMC,125134.200,A,4308.4604,N,07726.3640,W,11.35,318.06,121018,,,A*43
$GPGGA,125134.400,4308.4609,N,07726.3647,W,1,07,1.09,155.2,M,-34.4,M,,*5E
$GPRMC,125134.600,A,4308.4613,N,07726.3655,W,12.20,306.19,121018,,,A*43
$GPGGA,125134.800,4308.4617,N,07726.3663,W,1,08,1.02,155.1,M,-34.4,M,,*5C
$GPRMC,125135.000,A,4308.4620,N,07726.3672,W,13.19,295.40,121018,,,A*4D
$GPGGA,125135.200,4308.4623,N,07726.3681,W,1,08,1.02,155.0,M,-34.4,M,,*5D
$GPRMC,125135.400,A,4308.4626,N,07726.3691,W,14.06,285.80,121018,,,A*46
$GPGGA,125135.600,4308.4628,N,07726.3701,W,1,08,1.02,154.9,M,-34.4,M,,*53
$GPRMC,125135.800,A,4308.4630,N,07726.3711,W,14.93,279.51,121018,,,A*47
$GPGGA,125136.000,4308.4631,N,07726.3723,W,1,08,1.02,154.7,M,-34.4,M,,*50
$GPRMC,125136.200,A,4308.4632,N,07726.3735,W,15.91,275.95,121018,,,A*4D
$GPGGA,125136.400,4308.4633,N,07726.3747,W,1,08,1.02,154.6,M,-34.4,M,,*55
$GPRMC,125136.600,A,4308.4634,N,07726.3760,W,17.57,274.65,121018,,,A*49
$GPGGA,125136.800,4308.4635,N,07726.3774,W,1,08,1.02,154.4,M,-34.4,M,,*5D
$GPRMC,125137.000,A,4308.4636,N,07726.3788,W,19.28,274.45,121018,,,A*4E
$GPGGA,125137.200,4308.4637,N,07726.3803,W,1,08,1.02,154.3,M,-34.4,M,,*5C
$GPRMC,125137.400,A,4308.4638,N,07726.3819,W,21.03,274.80,121018,,,A*48
$GPGGA,125137.600,4308.4639,N,07726.3835,W,1,08,1.02,154.1,M,-34.4,M,,*51
$GPRMC,125137.800,A,4308.4640,N,07726.3852,W,22.78,276.37,121018,,,A*45
$GPGGA,125138.000,4308.4642,N,07726.3869,W,1,08,1.02,154.0,M,-34.4,M,,*5C
$GPRMC,125138.200,A,4308.4644,N,07726.3887,W,23.67,276.98,121018,,,A*46
$GPGGA,125138.400,4308.4645,N,07726.3904,W,1,08,1.02,153.8,M,-34.4,M,,*5A
$GPRMC,125138.600,A,4308.4647,N,07726.3922,W,23.67,277.05,121018,,,A*4A
$GPGGA,125138.800,4308.4649,N,07726.3939,W,1,08,1.02,153.6,M,-34.4,M,,*5A
$GPRMC,125139.000,A,4308.4651,N,07726.3957,W,23.45,277.51,121018,,,A*49
$GPGGA,125139.200,4308.4653,N,07726.3974,W,1,08,1.02,153.5,M,-34.4,M,,*50
$GPRMC,125139.400,A,4308.4654,N,07726.3992,W,23.40,278.24,121018,,,A*49
$GPGGA,125139.600,4308.4656,N,07726.4009,W,1,08,1.02,153.3,M,-34.4,M,,*53
$GPRMC,125139.800,A,4308.4658,N,07726.4026,W,23.07,278.23,121018,,,A*4C
$GPGGA,125140.000,4308.4660,N,07726.4043,W,1,08,1.02,153.2,M,-34.4,M,,*51
$GPRMC,125140.200,A,4308.4662,N,07726.4060,W,22.60,278.65,121018,,,A*41
$GPGGA,125140.400,4308.4664,N,07726.4077,W,1,08,1.02,153.0,M,-34.4,M,,*54
$GPRMC,125140.600,A,4308.4666,N,07726.4093,W,21.78,279.08,121018,,,A*4D
$GPGGA,125140.800,4308.4668,N,07726.4109,W,1,08,1.02,153.0,M,-34.4,M,,*5C
$GPRMC,125141.000,A,4308.4669,N,07726.4125,W,21.09,278.24,121018,,,A*40
$GPGGA,125141.200,4308.4671,N,07726.4141,W,1,08,1.02,152.9,M,-34.4,M,,*5B
$GPRMC,125141.400,A,4308.4673,N,07726.4156,W,20.10,278.13,121018,,,A*46
$GPGGA,125141.600,4308.4674,N,07726.4171,W,1,08,1.02,152.8,M,-34.4,M,,*58
$GPRMC,125141.800,A,4308.4675,N,07726.4186,W,19.21,277.40,121018,,,A*40
$GPGGA,125142.000,4308.4677,N,07726.4200,W,1,08,1.02,152.8,M,-34.4,M,,*5B
$GPRMC,125142.200,A,4308.4678,N,07726.4214,W,18.12,277.55,121018,,,A*49
$GPGGA,125142.400,4308.4679,N,07726.4228,W,1,08,1.02,152.7,M,-34.4,M,,*54
$GPRMC,125142.600,A,4308.4680,N,07726.4241,W,16.85,277.30,121018,,,A*49
$GPGGA,125142.800,4308.4682,N,07726.4253,W,1,08,1.02,152.7,M,-34.4,M,,*50
$GPRMC,125143.000,A,4308.4683,N,07726.4264,W,15.36,277.85,121018,,,A*4F
$GPGGA,125143.200,4308.4684,N,07726.4275,W,1,08,1.02,152.6,M,-34.4,M,,*58
$GPRMC,125143.400,A,4308.4685,N,07726.4286,W,13.93,278.09,121018,,,A*43
$GPGGA,125143.600,4308.4686,N,07726.4295,W,1,08,1.02,152.6,M,-34.4,M,,*50
$GPRMC,125143.800,A,4308.4687,N,07726.4305,W,12.79,277.92,121018,,,A*4F
$GPGGA,125144.000,4308.4688,N,07726.4314,W,1,08,1.02,152.6,M,-34.4,M,,*57
$GPRMC,125144.200,A,4308.4689,N,07726.4323,W,11.35,278.87,121018,,,A*48
$GPGGA,125144.400,4308.4690,N,07726.4331,W,1,08,1.02,152.6,M,-34.4,M,,*5D
$GPRMC,125144.600,A,4308.4690,N,07726.4339,W,9.88,279.17,121018,,,A*78
$GPGGA,125144.800,4308.4691,N,07726.4346,W,1,08,1.02,152.4,M,-34.4,M,,*52
$GPRMC,125145.000,A,4308.4692,N,07726.4352,W,8.56,279.55,121018,,,A*74
$GPGGA,125145.200,4308.4692,N,07726.4358,W,1,08,1.02,152.4,M,-34.4,M,,*55
$GPRMC,125145.400,A,4308.4693,N,07726.4364,W,7.01,278.89,121018,,,A*79
$GPGGA,125145.600,4308.4694,N,07726.4369,W,1,08,1.02,152.3,M,-34.4,M,,*52
$GPRMC,125145.800,A,4308.4694,N,07726.4373,W,5.60,277.49,121018,,,A*72
$GPGGA,125146.000,4308.4694,N,07726.4377,W,1,08,1.02,152.3,M,-34.4,M,,*58
$GPRMC,125146.200,A,4308.4695,N,07726.4380,W,4.07,280.10,121018,,,A*72
$GPGGA,125146.400,4308.4695,N,07726.4383,W,1,08,1.02,152.2,M,-3$GPRMC,125146.400,A,4308.4695,N,07726.4383,W,3.36,277.60,121018,,,A*7D
$GPGGA,125146.600,4308.4695,N,07726.4385,W,1,08,1.00,152.2,M,-34.4,M,,*51
$GPRMC,125146.600,A,4308.4695,N,07726.4385,W,2.72,277.60,121018,,,A*78
$GPGGA,125146.800,4308.4695,N,07726.4387,W,1,08,1.00,152.2,M,-34.4,M,,*5D
$GPRMC,125146.800,A,4308.4695,N,07726.4387,W,2.10,277.60,121018,,,A*70
$GPGGA,125147.000,4308.4695,N,07726.4388,W,1,08,1.00,152.2,M,-34.4,M,,*5B
$GPRMC,125147.000,A,4308.4695,N,07726.4388,W,1.41,277.60,121018,,,A*71
$GPGGA,125147.200,4308.4695,N,07726.4389,W,1,08,1.00,152.2,M,-34.4,M,,*58
$GPRMC,125147.200,A,4308.4695,N,07726.4389,W,0.71,277.60,121018,,,A*70
$GPGGA,125147.400,4308.4695,N,07726.4389,W,1,08,1.00,152.1,M,-34.4,M,,*5D
$GPRMC,125147.400,A,4308.4695,N,07726.4389,W,0.14,277.60,121018,,,A*75
$GPGGA,125147.600,4308.4695,N,07726.4389,W,1,08,1.00,152.1,M,-34.4,M,,*5F
$GPRMC,125147.600,A,4308.4695,N,07726.4389,W,0.08,277.60,121018A
$GPGGA,125147.800,4308.4696,N,07726.4389,W,1,08,1.02,152.1,M,-34.4,M,,*50
$GPRMC,125147.800,A,4308.4696,N,07726.4389,W,0.05,277.60,121018,,,A*7A
$GPGGA,125148.000,4308.4696,N,07726.4389,W,1,08,1.02,152.1,M,-34.4,M,,*57
$GPRMC,125148.000,A,4308.4696,N,07726.4389,W,0.03,277.60,1210187B
$GPGGA,125148.200,4308.4696,N,07726.4389,W,1,08,1.00,152.1,M,-34.4,M,,*57
$GPRMC,125148.200,A,4308.4696,N,07726.4389,W,0.02,277.60,121018,,,A*78
$GPGGA,125148.400,4308.4696,N,07726.4389,W,1,08,1.00,152.1,M,-34.4,M,,*51
$GPRMC,125148.400,A,4308.4696,N,07726.4389,W,0.02,277.60,1210187E
$GPGGA,125148.600,4308.4696,N,07726.4389,W,1,08,1.00,152.1,M,-34.4,M,,*53
$GPRMC,125148.600,A,4308.4696,N,07726.4389,W,0.01,277.60,121018,,,A*7F
$GPGGA,125148.800,4308.4696,N,07726.4389,W,1,08,1.00,152.1,M,-34.4,M,,*5D
$GPRMC,125148.800,A,4308.4696,N,07726.4389,W,0.01,277.60,12101871
$GPGGA,125149.000,4308.4696,N,07726.4389,W,1,08,1.00,152.1,M,-34.4,M,,*54
$GPRMC,125149.000,A,4308.4696,N,07726.4389,W,0.01,277.60,121018,,,A*78
$GPGGA,125149.200,4308.4696,N,07726.4389,W,1,08,1.00,152.2,M,-34.4,M,,*55
$GPRMC,125149.200,A,4308.4696,N,07726.4389,W,0.01,277.60,121018,,,A*7A
$GPGGA,125149.400,4308.4696,N,07726.4389,W,1,08,1.02,152.2,M,-34.4,M,,*51
$GPRMC,125149.400,A,4308.4696,N,07726.4389,W,0.01,277.60,121018,,,A*7C
$GPGGA,125149.600,4308.4696,N,07726.4389,W,1,08,1.02,152.2,M,-34.4,M,,*53
$GPRMC,125149.600,A,4308.4696,N,07726.4389,W,0.01,277.60,121018,,,A*7E
$GPGGA,125149.800,4308.4696,N,07726.4389,W,1,08,1.00,152.2,M,-34.4,M,,*5F
$GPRMC,125149.800,A,4308.4696,N,07726.4389,W,0.02,277.60,121018,,,A*73
$GPGGA,125150.000,4308.4696,N,07726.4389,W,1,08,1.00,152.2,M,-34.4,M,,*5F
$GPRMC,125150.000,A,4308.4696,N,07726.4389,W,0.01,277.60,121018,,,A*70
$GPGGA,125150.200,4308.4696,N,07726.4389,W,1,08,1.02,152.2,M,-34.4,M,,*5F
$GPRMC,125150.200,A,4308.4696,N,07726.4389,W,0.01,277.60,121018,,,A*72
$GPGGA,125150.400,4308.4696,N,07726.4389,W,1,08,1.00,152.2,M,-34.4,M,,*5B
$GPRMC,125150.400,A,4308.4696,N,07726.4389,W,0.01,277.60,121018,,,A*74
$GPGGA,125150.600,4308.4696,N,07726.4389,W,1,08,1.00,152.2,M,-34.4,M,,*59
$GPRMC,125150.600,A,4308.4696,N,07726.4389,W,0.01,277.60,121018,,,A*76
$GPGGA,125150.800,4308.4696,N,07726.4389,W,1,08,1.00,152.2,M,-34.4,M,,*57
$GPRMC,125150.800,A,4308.4696,N,07726.4389,W,0.01,277.60,121018,,,A*78
$GPGGA,125151.000,4308.4696,N,07726.4389,W,1,08,1.00,152.2,M,-34.4,M,,*5E
$GPRMC,125151.000,A,4308.4696,N,07726.4389,W,0.01,277.60,121018,,,A*71
$GPGGA,125151.200,4308.4696,N,07726.4389,W,1,08,1.00,152.2,M,-34.4,M,,*5C
$GPRMC,125151.200,A,4308.4696,N,07726.4389,W,0.01,277.60,121018,,,A*73
$GPGGA,125151.400,4308.4696,N,07726.4389,W,1,08,1.00,152.2,M,-34.4,M,,*5A
$GPRMC,125151.400,A,4308.4696,N,07726.4389,W,0.01,277.60,121018,,,A*75
$GPGGA,125151.600,4308.4696,N,07726.4389,W,1,08,1.00,152.2,M,-34.4,M,,*58
$GPRMC,125151.600,A,4308.4696,N,07726.4389,W,0.03,277.60,121018,,,A*75
$GPGGA,125151.800,4308.4696,N,07726.4389,W,1,08,1.00,152.2,M,-34.4,M,,*56
$GPRMC,125151.800,A,4308.4696,N,07726.4389,W,0.01,277.60,121018,,,A*79
$GPGGA,125152.000,4308.4696,N,07726.4389,W,1,08,1.00,152.2,M,-34.4,M,,*5D
$GPRMC,125152.000,A,4308.4696,N,07726.4389,W,0.01,277.60,121018,,,A*72
$GPGGA,125152.200,4308.4696,N,07726.4389,W,1,08,1.00,152.2,M,-34.4,M,,*5F
$GPRMC,125152.200,A,4308.4696,N,07726.4389,W,0.03,277.60,121018,,,A*72
$GPGGA,125152.400,4308.4696,N,07726.4389,W,1,08,1.00,152.2,M,-34.4,M,,*59
$GPRMC,125152.400,A,4308.4696,N,07726.4389,W,0.01,277.60,121018,,,A*76
$GPGGA,125152.600,4308.4696,N,07726.4389,W,1,08,1.02,152.2,M,-34.4,M,,*59
$GPRMC,125152.600,A,4308.4696,N,07726.4389,W,0.03,277.60,121018,,,A*76
$GPGGA,125152.800,4308.4696,N,07726.4389,W,1,08,1.00,152.2,M,-34.4,M,,*55
$GPRMC,125152.800,A,4308.4696,N,07726.4389,W,0.03,277.60,121018,,,A*78
$GPGGA,125153.000,4308.4696,N,07726.4389,W,1,08,1.00,152.2,M,-34.4,M,,*5C
$GPRMC,125153.000,A,4308.4696,N,07726.4389,W,0.02,277.60,121018,,,A*70
$GPGGA,125153.200,4308.4696,N,07726.4389,W,1,08,1.00,152.2,M,-34.4,M,,*5E
$GPRMC,125153.200,A,4308.4696,N,07726.4389,W,0.02,277.60,121018,,,A*72
$GPGGA,125153.400,4308.4696,N,07726.4389,W,1,08,1.00,152.2,M,-34.4,M,,*58
$GPRMC,125153.400,A,4308.4696,N,07726.4389,W,0.04,277.60,1210182
$GPGGA,125153.600,4308.4696,N,07726.4389,W,1,08,1.00,152.2,M,-34.4,M,,*5A
$GPRMC,125153.600,A,4308.4696,N,07726.4389,W,0.02,277.60,121018,,,A*76
$GPGGA,125153.800,4308.4696,N,07726.4389,W,1,08,1.02,152.2,M,-34.4,M,,*56
$GPRMC,125153.800,A,4308.4696,N,07726.4389,W,0.04,277.60,121018E
$GPGGA,125154.000,4308.4696,N,07726.4389,W,1,08,1.00,152.2,M,-34.4,M,,*5B
$GPRMC,125154.000,A,4308.4696,N,07726.4389,W,0.01,277.60,121018,,,A*74
$GPGGA,125154.200,4308.4696,N,07726.4389,W,1,08,1.00,152.2,M,-34.4,M,,*59
$GPRMC,125154.200,A,4308.4696,N,07726.4389,W,0.02,277.60,12101875
$GPGGA,125154.400,4308.4696,N,07726.4389,W,1,08,1.02,152.2,M,-34.4,M,,*5D
$GPRMC,125154.400,A,4308.4696,N,07726.4389,W,0.04,277.60,121018,,,A*75
$GPGGA,125154.600,4308.4696,N,07726.4389,W,1,08,1.00,152.2,M,-34.4,M,,*5D
$GPRMC,125154.600,A,4308.4696,N,07726.4389,W,0.03,277.60,12101870
$GPGGA,125154.800,4308.4696,N,07726.4389,W,1,08,1.00,152.3,M,-34.4,M,,*52
$GPRMC,125154.800,A,4308.4696,N,07726.4389,W,0.01,277.60,121018,,,A*7C
$GPGGA,125155.000,4308.4696,N,07726.4389,W,1,08,1.00,152.3,M,-34.4,M,,*5B
$GPRMC,125155.000,A,4308.4696,N,07726.4389,W,0.03,277.60,121018,,,A*77
$GPGGA,125155.200,4308.4696,N,07726.4389,W,1,08,1.02,152.3,M,-34.4,M,,*5B
$GPRMC,125155.200,A,4308.4696,N,07726.4389,W,0.03,277.60,121018,,,A*75
$GPGGA,125155.400,4308.4696,N,07726.4389,W,1,08,1.00,152.3,M,-34.4,M,,*5F
$GPRMC,125155.400,A,4308.4696,N,07726.4389,W,0.02,277.60,121018,,,A*72
$GPGGA,125155.600,4308.4696,N,07726.4389,W,1,08,1.00,152.3,M,-34.4,M,,*5D
$GPRMC,125155.600,A,4308.4696,N,07726.4389,W,0.01,277.60,121018,,,A*73
$GPGGA,125155.800,4308.4696,N,07726.4389,W,1,08,1.00,152.3,M,-34.4,M,,*53
$GPRMC,125155.800,A,4308.4696,N,07726.4389,W,0.02,277.60,121018,,,A*7E
$GPGGA,125156.000,4308.4696,N,07726.4389,W,1,08,1.00,152.3,M,-34.4,M,,*58
$GPRMC,125156.000,A,4308.4696,N,07726.4389,W,0.03,277.60,121018,,,A*74
$GPGGA,125156.200,4308.4696,N,07726.4389,W,1,08,1.00,152.3,M,-34.4,M,,*5A
$GPRMC,125156.200,A,4308.4696,N,07726.4389,W,0.03,277.60,121018,,,A*76
$GPGGA,125156.400,4308.4696,N,07726.4389,W,1,08,1.00,152.3,M,-34.4,M,,*5C
$GPRMC,125156.400,A,4308.4696,N,07726.4389,W,0.02,277.60,121018,,,A*71
$GPGGA,125156.600,4308.4696,N,07726.4389,W,1,08,1.00,152.3,M,-34.4,M,,*5E
$GPRMC,125156.600,A,4308.4696,N,07726.4389,W,0.02,277.60,121018,,,A*73
$GPGGA,125156.800,4308.4696,N,07726.4389,W,1,08,1.00,152.3,M,-34.4,M,,*50
$GPRMC,125156.800,A,4308.4696,N,07726.4389,W,0.01,277.60,121018,,,A*7E
$GPGGA,125157.000,4308.4696,N,07726.4389,W,1,08,1.00,152.3,M,-34.4,M,,*59
$GPRMC,125157.000,A,4308.4696,N,07726.4389,W,0.01,277.60,121018,,,A*77
$GPGGA,125157.200,4308.4696,N,07726.4389,W,1,08,1.00,152.3,M,-34.4,M,,*5B
$GPRMC,125157.200,A,4308.4696,N,07726.4389,W,0.04,277.60,121018,,,A*70
$GPGGA,125157.400,4308.4696,N,07726.4389,W,1,08,1.00,152.3,M,-34.4,M,,*5D
$GPRMC,125157.400,A,4308.4696,N,07726.4389,W,0.02,277.60,121018,,,A*70
$GPGGA,125157.600,4308.4696,N,07726.4389,W,1,08,1.00,152.3,M,-34.4,M,,*5F
$GPRMC,125157.600,A,4308.4696,N,07726.4389,W,0.04,277.60,121018,,,A*74
$GPGGA,125157.800,4308.4696,N,07726.4389,W,1,08,1.00,152.3,M,-34.4,M,,*51
$GPRMC,125157.800,A,4308.4696,N,07726.4389,W,0.03,277.60,121018,,,A*7D
$GPGGA,125158.000,4308.4696,N,07726.4389,W,1,08,1.00,152.3,M,-34.4,M,,*56
$GPRMC,125158.000,A,4308.4696,N,07726.4389,W,0.00,277.60,121018,,,A*79
$GPGGA,125158.200,4308.4696,N,07726.4389,W,1,08,1.00,152.3,M,-34.4,M,,*54
$GPRMC,125158.200,A,4308.4696,N,07726.4389,W,0.00,277.60,121018,,,A*7B
$GPGGA,125158.400,4308.4696,N,07726.4389,W,1,08,1.00,152.3,M,-34.4,M,,*52
$GPRMC,125158.400,A,4308.4696,N,07726.4389,W,0.01,277.60,121018,,,A*7C
$GPGGA,125158.600,4308.4696,N,07726.4389,W,1,08,1.00,152.3,M,-34.4,M,,*50
$GPRMC,125158.600,A,4308.4696,N,07726.4389,W,0.02,277.60,121018,,,A*7D
$GPGGA,125158.800,4308.4696,N,07726.4389,W,1,08,1.00,152.3,M,-34.4,M,,*5E
$GPRMC,125158.800,A,4308.4696,N,07726.4389,W,0.01,277.60,121018,,,A*70
$GPGGA,125159.000,4308.4696,N,07726.4389,W,1,08,1.00,152.3,M,-34.4,M,,*57
$GPRMC,125159.000,A,4308.4696,N,07726.4389,W,0.02,277.60,121018,,,A*7A
$GPGGA,125159.200,4308.4696,N,07726.4389,W,1,08,1.00,152.3,M,-34.4,M,,*55
$GPRMC,125159.200,A,4308.4696,N,07726.4389,W,0.02,277.60,1210188
$GPGGA,125159.400,4308.4696,N,07726.4389,W,1,08,1.02,152.3,M,-34.4,M,,*51
$GPRMC,125159.400,A,4308.4696,N,07726.4389,W,0.01,277.60,121018,,,A*7D
$GPGGA,125159.600,4308.4696,N,07726.4389,W,1,08,1.02,152.3,M,-34.4,M,,*53
$GPRMC,125159.600,A,4308.4696,N,07726.4389,W,0.01,277.60,121018$GPGGA,125159.800,4308.4696,N,07726.4389,W,1,08,1.02,152.3,M,-34.4,M,,*5D
$GPRMC,125200.000,A,4308.4696,N,07726.4389,W,0.01,277.60,121018,,,A*76
$GPGGA,125200.200,4308.4696,N,07726.4389,W,1,08,1.02,152.3,M,-34.4,M,,*58
$GPRMC,125200.400,A,4308.4696,N,07726.4389,W,0.01,277.60,121018,,,A*72
$GPGGA,125200.600,4308.4696,N,07726.4389,W,1,08,1.02,152.3,M,-34.4,M,,*5C
$GPRMC,125200.800,A,4308.4696,N,07726.4389,W,0.00,277.60,121018,,,A*7F
$GPGGA,125201.000,4308.4696,N,07726.4389,W,1,08,1.02,152.3,M,-34.4,M,,*5B
$GPRMC,125201.200,A,4308.4696,N,07726.4389,W,0.00,277.60,121018,,,A*74
$GPGGA,125201.400,4308.4696,N,07726.4389,W,1,08,1.02,152.3,M,-34.4,M,,*5F
$GPRMC,125201.600,A,4308.4696,N,07726.4389,W,0.00,277.60,121018,,,A*70
$GPGGA,125201.800,4308.4696,N,07726.4389,W,1,08,1.02,152.3,M,-34.4,M,,*53
$GPRMC,125202.000,A,4308.4696,N,07726.4389,W,0.00,277.60,121018,,,A*75
$GPGGA,125202.200,4308.4696,N,07726.4389,W,1,08,1.02,152.3,M,-34.4,M,,*5A
$GPRMC,125202.400,A,4308.4696,N,07726.4389,W,0.00,277.60,121018,,,A*71
$GPGGA,125202.600,4308.4696,N,07726.4389,W,1,08,1.02,152.3,M,-34.4,M,,*5E
$GPRMC,125202.800,A,4308.4696,N,07726.4389,W,0.00,277.60,121018,,,A*7D
$GPGGA,125203.000,4308.4696,N,07726.4389,W,1,08,1.02,152.3,M,-34.4,M,,*59
$GPRMC,125203.200,A,4308.4696,N,07726.4389,W,0.01,277.60,121018,,,A*77
$GPGGA,125203.400,4308.4696,N,07726.4389,W,1,08,1.02,152.3,M,-34.4,M,,*5D
$GPRMC,125203.600,A,4308.4696,N,07726.4389,W,0.00,277.60,121018,,,A*72
$GPGGA,125203.800,4308.4696,N,07726.4389,W,1,08,1.02,152.3,M,-34.4,M,,*51
$GPRMC,125204.000,A,4308.4696,N,07726.4389,W,0.00,277.60,121018,,,A*73
$GPGGA,125204.200,4308.4696,N,07726.4389,W,1,08,1.02,152.3,M,-34.4,M,,*5C
$GPRMC,125204.400,A,4308.4696,N,07726.4389,W,0.01,277.60,121018,,,A*76
$GPGGA,125204.600,4308.4696,N,07726.4389,W,1,08,1.02,152.3,M,-34.4,M,,*58
$GPRMC,125204.800,A,4308.4696,N,07726.4389,W,0.00,277.60,121018,,,A*7B
$GPGGA,125205.000,4308.4696,N,07726.4389,W,1,08,1.02,152.3,M,-34.4,M,,*5F
$GPRMC,125205.200,A,4308.4696,N,07726.4389,W,0.00,277.60,121018,,,A*70
$GPGGA,125205.400,4308.4696,N,07726.4389,W,1,08,1.02,152.3,M,-34.4,M,,*5B
$GPRMC,125205.600,A,4308.4696,N,07726.4389,W,0.00,277.60,121018,,,A*74
$GPGGA,125205.800,4308.4696,N,07726.4389,W,1,08,1.02,152.3,M,-34.4,M,,*57
$GPRMC,125206.000,A,4308.4696,N,07726.4389,W,0.01,277.60,121018,,,A*70
$GPGGA,125206.200,4308.4696,N,07726.4389,W,1,08,1.02,152.3,M,-34.4,M,,*5E
$GPRMC,125206.400,A,4308.4696,N,07726.4389,W,0.00,277.60,121018,,,A*75
$GPGGA,125206.600,4308.4696,N,07726.4389,W,1,08,1.02,152.3,M,-34.4,M,,*5A
$GPRMC,125206.800,A,4308.4696,N,07726.4389,W,0.00,277.60,121018,,,A*79
$GPGGA,125207.000,4308.4696,N,07726.4389,W,1,08,1.02,152.3,M,-34.4,M,,*5D
$GPRMC,125207.200,A,4308.4696,N,07726.4389,W,0.01,277.60,121018,,,A*73
$GPGGA,125207.400,4308.4696,N,07726.4389,W,1,08,1.02,152.3,M,-34.4,M,,*59
$GPRMC,125207.600,A,4308.4696,N,07726.4389,W,0.01,277.60,121018,,,A*77
$GPGGA,125207.800,4308.4696,N,07726.4389,W,1,08,1.02,152.3,M,-34.4,M,,*55
$GPRMC,125208.000,A,4308.4696,N,07726.4389,W,0.01,277.60,121018,,,A*7E
$GPGGA,125208.200,4308.4696,N,07726.4389,W,1,08,1.02,152.3,M,-34.4,M,,*50
$GPRMC,125208.400,A,4308.4696,N,07726.4389,W,0.00,277.60,121018,,,A*7B
$GPGGA,125208.600,4308.4696,N,07726.4389,W,1,08,1.02,152.3,M,-34.4,M,,*54
$GPRMC,125208.800,A,4308.4696,N,07726.4389,W,0.01,277.60,121018,,,A*76
$GPGGA,125209.000,4308.4696,N,07726.4389,W,1,08,1.02,152.3,M,-34.4,M,,*53
$GPRMC,125209.200,A,4308.4696,N,07726.4389,W,0.01,277.60,121018,,,A*7D
$GPGGA,125209.400,4308.4696,N,07726.4389,W,1,08,1.02,152.3,M,-34.4,M,,*57
$GPRMC,125209.600,A,4308.4696,N,07726.4389,W,0.00,277.60,121018,,,A*78
$GPGGA,125209.800,4308.4696,N,07726.4389,W,1,08,1.02,152.3,M,-34.4,M,,*5B
$GPRMC,125210.000,A,4308.4696,N,07726.4389,W,0.01,277.60,121018,,,A*77
$GPGGA,125210.200,4308.4696,N,07726.4389,W,1,08,1.02,152.3,M,-34.4,M,,*59
$GPRMC,125210.400,A,4308.4696,N,07726.4389,W,0.00,277.60,121018,,,A*72
$GPGGA,125210.600,4308.4696,N,07726.4389,W,1,08,1.02,152.3,M,-34.4,M,,*5D
$GPRMC,125210.800,A,4308.4696,N,07726.4389,W,0.00,277.60,121018,,,A*7E
$GPGGA,125211.000,4308.4696,N,07726.4389,W,1,08,1.02,152.3,M,-34.4,M,,*5A
$GPRMC,125211.200,A,4308.4696,N,07726.4389,W,0.00,277.60,121018,,,A*75
$GPGGA,125211.400,4308.4696,N,07726.4389,W,1,08,1.02,152.3,M,-34.4,M,,*5E
$GPRMC,125211.600,A,4308.4696,N,07726.4389,W,0.00,277.60,121018,,,A*71
$GPGGA,125211.800,4308.4696,N,07726.4389,W,1,08,1.02,152.3,M,-34.4,M,,*52
$GPRMC,125212.000,A,4308.4696,N,07726.4389,W,0.01,277.60,121018,,,A*75
$GPGGA,125212.200,4308.4696,N,07726.4389,W,1,08,1.02,152.3,M,-34.4,M,,*5B
$GPRMC,125212.400,A,4308.4696,N,07726.4389,W,0.01,277.60,121018,,,A*71
$GPGGA,125212.600,4308.4696,N,07726.4389,W,1,08,1.02,152.3,M,-34.4,M,,*5F
$GPRMC,125212.800,A,4308.4696,N,07726.4389,W,0.01,277.60,121018,,,A*7D
$GPGGA,125213.000,4308.4696,N,07726.4389,W,1,08,1.02,152.3,M,-34.4,M,,*58
$GPRMC,125213.200,A,4308.4696,N,07726.4389,W,0.00,277.60,121018,,,A*77
$GPGGA,125213.400,4308.4696,N,07726.4389,W,1,08,1.02,152.3,M,-34.4,M,,*5C
$GPRMC,125213.600,A,4308.4696,N,07726.4389,W,0.00,277.60,121018,,,A*73
$GPGGA,125213.800,4308.4696,N,07726.4389,W,1,08,1.02,152.3,M,-34.4,M,,*50
$GPRMC,125214.000,A,4308.4696,N,07726.4389,W,0.00,277.60,121018,,,A*72
$GPGGA,125214.200,4308.4696,N,07726.4389,W,1,08,1.02,152.3,M,-34.4,M,,*5D
$GPRMC,125214.400,A,4308.4696,N,07726.4389,W,0.00,277.60,121018,,,A*76
$GPGGA,125214.600,4308.4696,N,07726.4389,W,1,08,1.02,152.3,M,-34.4,M,,*59
$GPRMC,125214.800,A,4308.4696,N,07726.4389,W,0.01,277.60,121018,,,A*7B
$GPGGA,125215.000,4308.4696,N,07726.4389,W,1,08,1.02,152.3,M,-34.4,M,,*5E
$GPRMC,125215.200,A,4308.4696,N,07726.4389,W,0.00,277.60,121018,,,A*71
$GPGGA,125215.400,4308.4696,N,07726.4389,W,1,08,1.02,152.3,M,-34.4,M,,*5A
$GPRMC,125215.600,A,4308.4696,N,07726.4389,W,0.00,277.60,121018,,,A*75
$GPGGA,125215.800,4308.4696,N,07726.4389,W,1,08,1.02,152.3,M,-34.4,M,,*56
$GPRMC,125216.000,A,4308.4696,N,07726.4389,W,0.00,277.60,121018,,,A*70
$GPGGA,125216.200,4308.4696,N,07726.4389,W,1,08,1.02,152.3,M,-34.4,M,,*5F
$GPRMC,125216.400,A,4308.4696,N,07726.4389,W,0.00,277.60,121018,,,A*74
$GPGGA,125216.600,4308.4696,N,07726.4389,W,1,08,1.02,152.3,M,-34.4,M,,*5B
$GPRMC,125216.800,A,4308.4696,N,07726.4389,W,0.01,277.60,121018,,,A*79
$GPGGA,125217.000,4308.4696,N,07726.4389,W,1,08,1.02,152.3,M,-34.4,M,,*5C
$GPRMC,125217.200,A,4308.4696,N,07726.4389,W,0.01,277.60,121018,,,A*72
$GPGGA,125217.400,4308.4696,N,07726.4389,W,2,08,1.02,152.3,M,-34.4,M,0000,0000*5B
$GPRMC,125217.600,A,4308.4696,N,07726.4389,W,0.01,277.60,121018,,,D*73
$GPGGA,125217.800,4308.4695,N,07726.4388,W,2,08,1.02,152.3,M,-34.4,M,0000,0000*55
$GPRMC,125218.000,A,4308.4695,N,07726.4388,W,0.01,277.60,121018,,,D*78
$GPGGA,125218.200,4308.4695,N,07726.4388,W,2,08,1.02,152.3,M,-34.4,M,0000,0000*50
$GPRMC,125218.400,A,4308.4694,N,07726.4388,W,0.01,277.60,121018,,,D*7D
$GPGGA,125218.600,4308.4694,N,07726.4388,W,2,08,1.02,152.3,M,-34.4,M,0000,0000*55
$GPRMC,125218.800,A,4308.4694,N,07726.4388,W,0.02,277.60,121018,,,D*72
$GPGGA,125219.000,4308.4694,N,07726.4388,W,2,08,1.02,152.3,M,-34.4,M,0000,0000*52
$GPRMC,125219.200,A,4308.4693,N,07726.4388,W,0.02,277.60,121018,,,D*7E
$GPGGA,125219.400,4308.4693,N,07726.4388,W,2,08,1.02,152.3,M,-34.4,M,0000,0000*51
$GPRMC,125219.600,A,4308.4693,N,07726.4388,W,0.03,277.60,121018,,,D*7B
$GPGGA,125219.800,4308.4693,N,07726.4388,W,2,08,1.02,152.3,M,-34.4,M,0000,0000*5D
$GPRMC,125220.000,A,4308.4693,N,07726.4388,W,0.03,277.60,121018,,,D*77
$GPGGA,125220.200,4308.4692,N,07726.4388,W,2,08,1.02,152.3,M,-34.4,M,0000,0000*5C
$GPRMC,125220.400,A,4308.4692,N,07726.4388,W,0.04,277.60,121018,,,D*75
$GPGGA,125220.600,4308.4692,N,07726.4388,W,2,08,1.02,152.3,M,-34.4,M,0000,0000*58
$GPRMC,125220.800,A,4308.4692,N,07726.4387,W,0.04,277.60,121018,,,D*76
$GPGGA,125221.000,4308.4692,N,07726.4387,W,2,08,1.02,152.3,M,-34.4,M,0000,0000*50
$GPRMC,125221.200,A,4308.4692,N,07726.4387,W,0.04,277.60,121018,,,D*7D
$GPGGA,125221.400,4308.4692,N,07726.4387,W,2,09,0.96,152.3,M,-34.4,M,0000,0000*59
$GPRMC,125221.600,A,4308.4691,N,07726.4386,W,0.04,277.60,121018,,,D*7B
$GPGGA,125221.800,4308.4691,N,07726.4386,W,2,09,0.96,152.2,M,-34.4,M,0000,0000*56
$GPRMC,125222.000,A,4308.4691,N,07726.4385,W,0.04,277.60,121018,,,D*7D
$GPGGA,125222.200,4308.4691,N,07726.4385,W,2,09,0.96,152.2,M,-34.4,M,0000,0000*5C
$GPRMC,125222.400,A,4308.4691,N,07726.4384,W,0.04,277.60,121018,,,D*78
$GPGGA,125222.600,4308.4690,N,07726.4384,W,2,09,0.96,152.2,M,-34.4,M,0000,0000*58
$GPRMC,125222.800,A,4308.4690,N,07726.4383,W,0.03,277.60,121018,,,D*75
$GPGGA,125223.000,4308.4690,N,07726.4383,W,2,09,0.96,152.2,M,-34.4,M,0000,0000*58
$GPRMC,125223.200,A,4308.4690,N,07726.4382,W,0.03,277.60,121018,,,D*7F
$GPGGA,125223.400,4308.4690,N,07726.4382,W,2,09,0.96,152.1,M,-34.4,M,0000,0000*5E
$GPRMC,125223.600,A,4308.4690,N,07726.4382,W,0.03,277.60,121018,,,D*7B
$GPGGA,125223.800,4308.4690,N,07726.4381,W,2,09,0.96,152.1,M,-34.4,M,0000,0000*51
$GPRMC,125224.000,A,4308.4690,N,07726.4380,W,0.03,277.60,121018,,,D*78
$GPGGA,125224.200,4308.4690,N,07726.4380,W,2,09,0.96,152.0,M,-34.4,M,0000,0000*5C
$GPRMC,125224.400,A,4308.4689,N,07726.4379,W,0.03,277.60,121018,,,D*72
$GPGGA,125224.600,4308.4689,N,07726.4379,W,2,09,0.96,152.0,M,-34.4,M,0000,0000*56
$GPRMC,125224.800,A,4308.4689,N,07726.4379,W,0.03,277.60,121018,,,D*7E
$GPGGA,125225.000,4308.4689,N,07726.4378,W,2,09,0.96,151.9,M,-34.4,M,0000,0000*5A
$GPRMC,125225.200,A,4308.4689,N,07726.4378,W,0.03,277.60,121018,,,D*74
$GPGGA,125225.400,4308.4689,N,07726.4377,W,2,09,0.96,151.9,M,-34.4,M,0000,0000*51
$GPRMC,125225.600,A,4308.4689,N,07726.4377,W,0.03,277.60,121018,,,D*7F
$GPGGA,125225.800,4308.4689,N,07726.4376,W,2,09,0.96,151.9,M,-3C,125225.800,A,4308.4689,N,07726.4376,W,0.03,277.60,121018,,,D*70
$GPGGA,125226.000,4308.4688,N,07726.4376,W,2,09,0.96,151.9,M,-34.4,M,0000,0000*56
$GPRMC,125226.000,A,4308.4688,N,07726.4376,W,0.03,277.60,121018,,,D*7A
$GPGGA,125226.200,4308.4688,N,07726.4376,W,2,09,0.96,151.9,M,-34.4,M,0000,0000*54
$GPRMC,125226.200,A,4308.4688,N,07726.4376,W,0.04,277.60,121018F
$GPGGA,125226.400,4308.4688,N,07726.4376,W,2,09,0.96,151.9,M,-34.4,M,0000,0000*52
$GPRMC,125226.400,A,4308.4688,N,07726.4376,W,0.04,277.60,121018,,,D*79
$GPGGA,125226.600,4308.4688,N,07726.4375,W,2,09,0.96,151.9,M,-34.4,M,0000,0000*53
$GPRMC,125226.600,A,4308.4688,N,07726.4375,W,0.04,277.60,1210188
$GPGGA,125226.800,4308.4688,N,07726.4375,W,2,09,0.96,151.9,M,-34.4,M,0000,0000*5D
$GPRMC,125226.800,A,4308.4688,N,07726.4375,W,0.03,277.60,121018,,,D*71
$GPGGA,125227.000,4308.4688,N,07726.4375,W,2,09,0.96,151.9,M,-34.4,M,0000,0000*54
$GPRMC,125227.000,A,4308.4688,N,07726.4375,W,0.03,277.60,1210188
$GPGGA,125227.200,4308.4688,N,07726.4375,W,2,09,0.96,151.9,M,-34.4,M,0000,0000*56
$GPRMC,125227.200,A,4308.4688,N,07726.4375,W,0.03,277.60,121018,,,D*7A
$GPGGA,125227.400,4308.4688,N,07726.4374,W,2,09,0.96,151.9,M,-34.4,M,0000,0000*51
$GPRMC,125227.400,A,4308.4688,N,07726.4374,W,0.03,277.60,121018D
$GPGGA,125227.600,4308.4688,N,07726.4374,W,2,09,0.96,151.8,M,-34.4,M,0000,0000*52
$GPRMC,125227.600,A,4308.4688,N,07726.4374,W,0.02,277.60,121018,,,D*7E
$GPGGA,125227.800,4308.4688,N,07726.4374,W,2,09,0.96,151.8,M,-34.4,M,0000,0000*5C
$GPRMC,125227.800,A,4308.4688,N,07726.4374,W,0.02,277.60,1210180
$GPGGA,125228.000,4308.4688,N,07726.4373,W,2,09,0.96,151.8,M,-34.4,M,0000,0000*5C
$GPRMC,125228.000,A,4308.4688,N,07726.4373,W,0.01,277.60,121018,,,D*73
$GPGGA,125228.200,4308.4688,N,07726.4373,W,2,09,0.96,151.8,M,-34.4,M,0000,0000*5E
$GPRMC,125228.200,A,4308.4688,N,07726.4373,W,0.01,277.60,1210181
$GPGGA,125228.400,4308.4688,N,07726.4372,W,2,09,0.96,151.7,M,-34.4,M,0000,0000*56
$GPRMC,125228.400,A,4308.4688,N,07726.4372,W,0.00,277.60,121018,,,D*77
$GPGGA,125228.600,4308.4688,N,07726.4372,W,2,09,0.96,151.7,M,-34.4,M,0000,0000*54
$GPRMC,125228.600,A,4308.4688,N,07726.4372,W,0.00,277.60,12101875
$GPGGA,125228.800,4308.4688,N,07726.4372,W,2,09,0.96,151.7,M,-34.4,M,0000,0000*5A
